province,city,PM2.5,PM10,SO2,NO2,CO,O3,U,V,TEMP,RH,PSFC,lat,lon
上海,上海市,20.398,35.566,7.209,14.392,0.363,91.573,-5.101,-3.436,294.774,80.694,100846.975,31.173,121.42
云南,临沧市,16.239,43.11,2.862,3.207,0.312,57.577,3.471,0.372,293.69,81.517,83288.137,23.935,99.686
云南,丽江市,15.841,34.779,6.51,5.347,0.458,63.293,2.941,2.732,289.037,81.336,74191.13,26.96,100.515
云南,保山市,23.152,66.839,3.361,4.961,0.372,54.686,3.659,1.16,292.066,84.806,81301.721,24.953,98.962
云南,大理白族自治州,17.64,49.809,3.768,4.529,0.374,61.933,3.832,2.079,290.643,83.381,77604.479,25.726,100.053
云南,德宏傣族景颇族自治州,18.73,41.186,3.068,3.764,0.266,51.51,3.063,0.883,294.152,84.888,85412.964,24.535,98.052
云南,怒江傈僳族自治州,13.723,28.648,2.197,1.723,0.28,59.669,3.504,1.97,286.417,92.145,72408.799,26.916,98.885
云南,文山壮族苗族自治州,29.072,47.671,8.467,4.957,0.463,74.217,-1.678,1.708,293.193,86.723,85896.53,23.696,104.735
云南,昆明市,24.165,37.197,7.112,11.436,0.507,58.892,-0.012,4.471,290.328,87.06,78738.38,25.384,102.863
云南,昭通市,26.893,43.513,9.4,9.251,0.468,70.068,-0.242,0.692,291.855,82.291,83403.467,27.667,103.985
云南,普洱市,11.918,22.466,2.886,3.581,0.257,56.433,1.479,0.716,295.02,81.381,85278.963,23.159,100.718
云南,曲靖市,25.358,39.788,9.131,10.557,0.509,66.536,0.13,4.659,290.158,87.151,79517.038,25.737,103.929
云南,楚雄彝族自治州,16.845,27.498,5.387,4.768,0.377,61.524,1.769,3.992,292.833,79.628,80397.631,25.328,101.567
云南,玉溪市,17.016,28.61,5.473,4.901,0.297,62.548,-1.334,3.336,292.915,85.819,82864.696,24.136,102.217
云南,红河哈尼族彝族自治州,16.375,31.928,7.297,3.993,0.324,65.538,-2.048,2.173,292.922,88.993,84523.395,23.451,103.034
云南,西双版纳傣族自治州,10.01,21.008,2.974,4.977,0.322,45.559,1.883,1.224,296.333,81.612,88195.715,21.939,100.912
云南,迪庆藏族自治州,10.356,17.638,3.337,2.111,0.22,64.243,4.261,2.537,283.649,90.352,67013.959,27.957,99.459
内蒙古,乌兰察布市,40.103,54.59,13.802,8.486,0.396,118.589,4.94,3.624,294.808,42.946,85410.083,41.691,112.44
内蒙古,乌海市,30.671,67.532,12.064,10.936,0.452,122.684,-5.699,5.134,291.514,71.156,86889.664,39.396,106.856
内蒙古,兴安盟,25.578,31.949,7.264,2.393,0.275,86.415,3.665,-0.757,293.158,61.494,93496.687,46.244,121.341
内蒙古,包头市,36.208,52.241,12.067,11.794,0.417,109.337,3.799,4.436,294.428,44.457,85379.326,41.549,110.276
内蒙古,呼伦贝尔市,22.048,26.754,4.923,2.062,0.237,71.575,0.142,-4.663,288.11,73.144,92488.437,49.636,121.171
内蒙古,呼和浩特市,36.304,64.042,13.881,15.694,0.623,127.093,3.388,4.465,293.925,45.207,85838.053,40.578,111.513
内蒙古,巴彦淖尔市,33.467,65.662,10.124,3.488,0.259,111.101,-0.891,4.741,295.572,39.512,86630.624,41.446,107.582
内蒙古,赤峰市,29.557,37.375,8.511,4.335,0.312,96.866,4.794,0.889,295.221,52.468,91016.276,43.226,118.892
内蒙古,通辽市,29.247,37.422,9.555,4.363,0.292,96.167,3.769,4.752,296.358,56.312,96627.02,43.814,121.591
内蒙古,鄂尔多斯市,31.586,52.448,11.805,4.59,0.429,121.952,-2.217,5.893,291.808,66.356,86380.589,39.407,108.63
内蒙古,锡林郭勒盟,22.809,26.21,4.593,1.66,0.187,71.598,1.285,-2.489,292.969,54.171,88325.143,44.179,115.482
内蒙古,阿拉善盟,34.402,40.915,6.502,2.432,0.201,97.073,-2.256,0.126,297.429,34.751,86608.004,40.473,102.467
北京,北京市,69.372,91.146,6.073,20.133,0.847,140.992,-0.292,3.983,296.653,56.756,96916.18,40.158,116.395
台湾,台湾省,15.488,21.876,4.502,13.849,0.15,75.129,-0.409,-1.186,295.291,85.335,92157.439,23.757,120.975
吉林,吉林市,18.145,23.874,5.652,7.724,0.359,85.637,1.869,8.541,290.827,76.857,96413.195,43.573,126.859
吉林,四平市,26.057,40.271,9.097,10.65,0.446,97.843,3.153,11.289,293.505,71.683,98347.377,43.472,124.386
吉林,延边朝鲜族自治州,12.48,16.26,3.44,3.433,0.214,70.382,-0.949,4.534,284.987,88.029,93855.419,43.141,129.147
吉林,松原市,26.345,39.291,9.696,7.987,0.349,91.663,2.175,8.211,294.498,66.804,98466.581,44.785,124.496
吉林,白城市,28.069,36.899,9.022,3.853,0.292,93.712,1.856,4.357,296.684,56.265,98369.994,45.35,123.031
吉林,白山市,18.353,23.788,5.254,5.492,0.447,71.99,2.466,6.55,287.92,79.934,91977.839,42.063,127.256
吉林,辽源市,16.204,23.338,4.88,6.193,0.373,87.494,3.204,9.995,291.59,75.674,96768.493,42.836,125.32
吉林,通化市,15.169,21.175,4.826,6.163,0.484,72.98,1.814,8.437,289.584,77.613,95259.769,41.939,125.927
吉林,长春市,21.896,36.013,6.41,12.015,0.447,89.964,2.857,9.984,293.119,72.389,98240.357,44.268,125.611
四川,乐山市,32.296,44.572,6.942,10.529,0.483,75.302,-0.939,-1.86,291.677,85.126,88752.166,29.218,103.569
四川,内江市,17.928,26.533,7.212,13.42,0.473,69.435,-1.572,-3.002,295.386,78.933,95606.083,29.62,104.95
四川,凉山彝族自治州,24.411,35.252,11.89,6.786,0.533,64.94,1.81,3.822,288.317,82.835,73724.994,27.883,102.065
四川,南充市,19.882,34.019,9.218,19.092,0.569,63.173,-1.678,-1.81,295.242,79.31,95699.203,31.19,106.199
四川,宜宾市,21.584,33.362,7.564,14.734,0.513,67.599,0.438,-2.145,295.397,76.457,93980.884,28.573,104.621
四川,巴中市,34.561,50.514,10.038,14.748,0.544,61.489,-2.855,0.018,293.466,78.403,91626.526,32.033,107.031
四川,广元市,22.901,43.745,13.433,14.711,0.517,58.941,-1.722,0.302,291.639,86.349,90751.735,32.261,105.788
四川,广安市,28.25,43.701,9.019,20.242,0.613,59.442,-2.13,-0.063,296.412,73.739,95682.658,30.43,106.628
四川,德阳市,16.22,31.656,5.801,12.719,0.427,84.816,-0.988,-1.367,292.795,82.108,92245.863,31.13,104.436
四川,成都市,24.324,39.735,6.504,15.611,0.454,87.209,-1.244,-1.407,293.468,78.54,92369.953,30.64,103.929
四川,攀枝花市,37.233,64.351,36.904,21.802,1.219,62.042,0.755,3.875,293.897,73.307,80825.051,26.791,101.734
四川,泸州市,28.643,45.513,10.08,15.902,0.46,63.615,-1.136,1.884,296.34,71.019,92404.737,28.424,105.675
四川,甘孜藏族自治州,12.135,13.681,1.965,1.28,0.16,77.802,2.07,1.719,280.774,78.27,61089.331,30.936,100.009
四川,眉山市,26.012,38.138,6.269,12.295,0.472,78.378,-1.304,-1.874,293.746,80.658,92796.411,29.912,103.766
四川,绵阳市,24.086,37.901,9.004,9.341,0.393,81.802,-0.595,0.346,290.054,87.037,87221.691,31.86,104.704
四川,自贡市,20.931,27.909,7.699,15.715,0.517,66.613,-1.316,-3.083,295.753,76.397,95566.254,29.307,104.659
四川,资阳市,14.661,25.63,6.196,10.798,0.442,75.67,-1.376,-2.909,295.184,80.661,95871.305,30.102,105.149
四川,达州市,36.673,53.01,12.064,22.436,0.536,69.502,-2.833,1.048,295.487,69.528,93153.173,31.335,107.636
四川,遂宁市,12.551,24.395,6.685,12.992,0.463,75.96,-0.985,-2.724,295.177,80.651,96119.93,30.642,105.457
四川,阿坝藏族羌族自治州,20.803,27.126,5.005,1.838,0.217,75.525,-0.342,1.099,281.28,84.805,65316.474,32.406,102.61
四川,雅安市,32.643,44.809,8.15,6.08,0.364,85.438,-1.535,-0.432,286.744,92.748,79495.814,29.932,102.689
天津,天津市,53.874,82.809,9.332,26.552,0.876,144.833,-1.068,4.372,298.568,57.572,100502.921,39.315,117.308
宁夏,中卫市,29.97,46.191,9.934,4.076,0.342,102.624,2.538,1.797,292.827,50.922,82792.799,37.018,105.509
宁夏,吴忠市,32.155,47.837,11.046,3.781,0.332,107.262,0.524,3.63,292.825,57.603,84301.146,37.454,106.577
宁夏,固原市,24.907,42.006,10.904,4.886,0.374,109.857,2.011,6.374,289.677,64.94,80404.569,35.905,106.183
宁夏,石嘴山市,30.722,59.052,10.561,8.688,0.489,117.123,-4.043,2.657,290.348,79.458,85978.498,39.013,106.499
宁夏,银川市,28.458,50.997,9.652,7.685,0.442,114.85,-2.198,1.07,292.583,64.765,86189.605,38.287,106.342
安徽,亳州市,37.221,63.726,11.87,12.667,0.56,144.383,-4.63,1.987,300.375,46.744,100420.729,33.44,116.162
安徽,六安市,41.105,67.017,10.422,11.556,0.544,157.918,-4.086,1.377,298.167,53.22,98012.749,31.617,116.209
安徽,合肥市,33.694,60.964,8.36,16.273,0.548,142.752,-5.43,1.023,298.942,56.136,100323.204,31.766,117.359
安徽,安庆市,45.062,70.686,11.982,11.91,0.665,165.212,-3.524,-2.076,297.806,56.621,98411.015,30.557,116.473
安徽,宣城市,27.514,44.729,6.164,10.893,0.402,112.826,-5.222,1.475,295.946,67.921,98421.857,30.676,118.846
安徽,宿州市,34.181,57.6,8.549,11.02,0.485,118.017,-5.023,1.731,298.692,56.211,100448.981,33.844,117.23
安徽,池州市,35.589,53.575,8.786,8.706,0.517,136.553,-4.233,0.827,297.914,57.311,98558.96,30.296,117.379
安徽,淮北市,36.17,60.89,10.927,13.715,0.547,129.183,-5.013,1.823,299.49,51.818,100459.429,33.722,116.747
安徽,淮南市,39.38,68.959,11.187,18.013,0.595,151.64,-4.571,1.839,299.763,52.377,100469.197,32.463,116.746
安徽,滁州市,35.24,60.425,8.591,15.651,0.446,129.537,-5.269,1.27,298.241,59.275,100281.408,32.55,118.076
安徽,芜湖市,30.208,53.308,7.699,14.186,0.499,127.314,-5.75,0.558,297.925,61.429,100503.827,31.167,118.162
安徽,蚌埠市,38.685,59.563,10.04,14.153,0.481,135.603,-5.173,1.387,299.214,54.665,100497.189,33.121,117.263
安徽,铜陵市,35.636,60.934,10.447,15.577,0.605,141.316,-4.963,-0.406,298.178,58.876,100318.893,30.883,117.531
安徽,阜阳市,36.989,66.762,12.788,13.174,0.587,153.211,-4.309,2.341,300.618,45.118,100374.816,32.937,115.723
安徽,马鞍山市,30.972,58.81,8.151,17.165,0.543,131.415,-5.714,1.159,298.169,60.411,100536.739,31.622,118.386
安徽,黄山市,29.349,46.076,7.868,8.357,0.459,112.666,-5.364,0.193,295.421,64.367,96461.266,29.869,118.09
山东,东营市,32.062,61.963,13.438,14.685,0.515,114.439,-2.536,5.559,297.995,61.494,100759.369,37.57,118.572
山东,临沂市,25.534,50.271,5.52,9.6,0.351,98.39,-4.004,2.24,294.987,76.721,99158.549,35.289,118.27
山东,威海市,18.622,28.653,4.673,4.259,0.229,90.057,-1.045,5.091,293.035,84.042,100454.294,37.148,122.028
山东,德州市,38.987,81.157,11.799,22.859,0.635,137.128,-0.784,5.801,300.312,46.216,100534.823,37.233,116.679
山东,日照市,20.427,33.64,3.901,6.105,0.235,90.462,-3.734,3.498,293.823,85.161,99320.8,35.566,119.108
山东,枣庄市,30.168,63.376,7.704,11.534,0.446,109.682,-4.727,2.132,297.024,64.132,99794.446,34.925,117.383
山东,泰安市,33.571,70.444,9.428,15.015,0.587,121.8,-3.526,3.782,297.075,61.751,98970.883,35.993,117.04
山东,济南市,35.978,73.744,9.65,19.806,0.642,130.207,-1.754,5.143,298.014,55.685,98902.18,36.639,117.254
山东,济宁市,32.954,68.329,9.538,12.776,0.551,123.967,-4.128,3.58,298.501,55.773,100173.884,35.375,116.697
山东,淄博市,33.685,66.404,10.34,17.739,0.632,117.26,-1.481,4.665,296.639,62.828,98353.344,36.623,118.062
山东,滨州市,40.141,78.04,15.502,22.816,0.71,135.607,-1.371,4.409,299.273,52.938,100652.481,37.516,117.852
山东,潍坊市,25.897,43.779,5.364,8.879,0.341,92.645,-2.372,5.533,295.341,75.005,99826.373,36.53,119.092
山东,烟台市,19.292,32.244,3.803,4.778,0.251,83.784,-1.523,5.937,293.893,81.294,99882.926,37.25,120.789
山东,聊城市,36.534,78.307,12.214,19.295,0.615,141.197,-2.427,6.214,300.671,44.908,100328.133,36.458,115.863
山东,菏泽市,34.449,75.481,10.922,16.489,0.666,137.551,-3.992,3.792,300.486,44.162,100247.845,35.134,115.69
山东,青岛市,19.825,37.058,3.71,8.282,0.251,80.215,-2.79,5.117,294.013,84.09,100456.132,36.46,120.172
山西,临汾市,39.488,67.626,17.238,17.3,0.795,150.094,-0.031,5.246,294.993,46.856,89511.639,36.227,111.398
山西,吕梁市,49.503,72.091,18.612,23.928,0.903,117.304,0.474,6.366,293.811,46.039,87203.554,37.663,111.27
山西,大同市,62.065,88.17,19.262,12.66,0.801,180.906,2.987,4.325,294.464,46.419,86779.461,39.911,113.713
山西,太原市,63.334,101.645,14.565,26.452,1.044,143.077,2.4,4.8,294.01,43.367,87148.572,37.967,112.321
山西,忻州市,52.889,76.128,13.888,11.334,0.727,152.789,1.512,4.708,293.374,44.685,85710.461,38.877,112.391
山西,晋中市,53.37,84.106,12.421,24.13,0.911,146.801,2.496,4.034,294.967,42.007,88053.015,37.328,112.997
山西,晋城市,44.764,86.104,13.1,24.264,0.88,167.168,-1.158,5.06,295.914,42.686,89939.195,35.625,112.752
山西,朔州市,52.522,76.441,15.187,11.482,0.793,161.54,2.642,4.715,294.203,43.839,86143.753,39.619,112.655
山西,运城市,35.49,65.071,13.44,17.494,0.751,157.92,-0.955,2.618,297.833,42.907,93473.6,35.205,111.071
山西,长治市,42.557,71.595,10.728,18.012,0.806,164.041,1.499,4.702,295.091,43.067,88342.574,36.48,112.915
山西,阳泉市,59.244,96.71,15.006,26.387,1.061,148.559,2.752,2.772,297.097,37.667,89803.459,38.031,113.512
广东,东莞市,18.901,34.069,7.662,23.652,0.636,95.401,-3.742,-1.163,300.518,73.351,100071.701,22.931,113.81
广东,中山市,19.483,37.792,8.68,26.458,0.587,104.454,-4.237,-1.364,300.534,73.528,100061.73,22.5,113.383
广东,云浮市,32.957,54.806,9.259,21.235,0.721,89.832,-2.385,-0.706,299.635,76.126,98117.68,22.776,111.818
广东,佛山市,23.684,46.477,8.997,36.103,0.763,114.025,-2.403,-1.056,300.855,73.964,100106.261,23.035,112.979
广东,广州市,19.067,36.484,6.99,23.245,0.596,93.433,-2.362,-1.164,299.939,77.223,99249.401,23.339,113.525
广东,惠州市,17.608,30.871,6.046,9.702,0.46,88.03,-4.037,-1.17,299.202,74.461,98318.871,23.244,114.485
广东,揭阳市,18.285,38.734,9.385,13.605,0.711,96.045,-5.698,-2.245,298.523,72.713,98949.557,23.323,116.123
广东,梅州市,20.066,38.639,7.254,10.819,0.674,92.82,-3.513,0.068,298.424,70.805,96975.337,24.169,116.07
广东,汕头市,19.012,35.813,8.414,12.749,0.585,102.181,-6.825,-3.912,298.763,72.271,100051.455,23.339,116.614
广东,汕尾市,15.903,31.271,6.533,8.526,0.516,96.253,-6.396,-2.626,298.706,70.989,98656.956,23.024,115.527
广东,江门市,25.981,43.458,9.474,21.278,0.542,116.266,-4.05,-1.515,300.392,73.824,99508.234,22.289,112.676
广东,河源市,20.385,36.616,6.332,9.996,0.56,85.539,-2.286,-0.784,298.168,76.83,97145.285,24.021,114.969
广东,深圳市,16.217,31.471,7.099,20.287,0.549,94.961,-5.642,-1.683,300.191,72.204,99597.898,22.667,114.143
广东,清远市,29.263,46.362,6.859,13.466,0.563,79.89,-2.715,-1.951,298.157,72.618,96672.907,24.295,112.871
广东,湛江市,23.89,38.896,8.76,7.169,0.638,114.849,-2.322,0.135,300.81,79.567,99919.189,21.091,110.163
广东,潮州市,19.804,38.064,7.113,11.49,0.646,98.212,-5.648,-2.878,298.489,66.842,98421.76,23.755,116.754
广东,珠海市,20.193,31.522,7.588,14.09,0.355,107.005,-5.458,-2.762,300.4,74.653,100124.505,22.095,113.317
广东,肇庆市,29.415,46.245,6.713,16.455,0.548,82.007,-3.394,-1.557,299.822,69.785,98231.214,23.505,112.199
广东,茂名市,27.572,45.437,10.294,10.239,0.662,105.111,-2.411,-0.874,299.71,78.399,98183.446,22.013,110.952
广东,阳江市,30.409,46.971,9.032,13.255,0.572,108.708,-3.139,-1.906,299.917,75.67,98688.739,22.042,111.786
广东,韶关市,35.657,55.089,8.615,16.768,0.954,78.557,-2.359,-1.614,297.257,75.289,95926.293,24.785,113.819
广西,北海市,23.339,36.865,8.466,7.229,0.876,102.652,-2.162,0.586,301.642,75.881,99944.185,21.674,109.37
广西,南宁市,31.345,49.971,7.435,11.406,0.724,84.372,-2.574,-1.335,300.866,66.882,98171.517,23.051,108.469
广西,崇左市,35.877,54.364,9.085,6.98,0.619,87.993,-1.866,-1.013,299.844,72.734,96921.628,22.483,107.291
广西,来宾市,35.597,53.407,6.666,8.664,0.567,83.89,-3.143,-0.674,300.092,67.267,97057.508,23.859,109.417
广西,柳州市,40.309,57.435,8.381,7.363,0.575,88.613,-2.612,-0.155,299.872,64.086,96485.431,24.956,109.372
广西,桂林市,45.841,61.377,9.829,6.963,0.575,89.254,-3.303,-0.855,298.639,66.89,94934.962,25.353,110.513
广西,梧州市,34.471,54.064,8.929,12.638,0.701,72.663,-3.13,-0.948,299.745,71.721,97858.903,23.484,110.996
广西,河池市,35.8,54.862,8.234,6.001,0.837,73.127,-2.304,0.047,297.816,71.15,94232.443,24.628,107.843
广西,玉林市,28.775,46.594,11.345,11.039,0.89,93.032,-2.162,-0.199,299.978,78.171,98246.254,22.452,110.164
广西,百色市,37.679,57.834,9.145,6.1,0.85,73.846,-1.916,0.667,296.614,79.214,92202.919,23.981,106.292
广西,贵港市,32.873,53.679,8.296,10.509,0.704,83.827,-3.34,-0.868,300.593,70.281,98664.833,23.322,110.021
广西,贺州市,35.686,51.316,7.312,8.672,0.58,74.38,-3.159,-1.204,298.783,70.004,96117.467,24.364,111.394
广西,钦州市,25.694,39.796,8.227,8.604,0.901,93.264,-2.15,-0.599,301.396,71.893,99252.198,22.173,109.01
广西,防城港市,35.027,49.914,9.442,7.131,0.708,99.043,-0.954,-1.124,300.266,73.968,97720.315,21.88,108.002
新疆,乌鲁木齐市,20.926,26.283,3.373,3.781,0.225,84.944,2.883,-4.098,289.566,58.471,83895.888,43.746,87.818
新疆,五家渠市,30.087,33.183,4.767,3.177,0.233,87.777,2.49,-2.763,297.69,39.247,95777.467,44.363,87.517
新疆,伊犁哈萨克自治州,7.725,8.947,3.27,2.497,0.198,70.71,1.917,-0.233,281.848,87.623,80337.873,43.438,82.146
新疆,克孜勒苏柯尔克孜自治州,2.457,4.385,0.629,0.703,0.179,99.55,0.284,-4.718,280.204,62.275,70288.362,39.661,75.949
新疆,克拉玛依市,13.361,20.536,4.224,4.12,0.282,77.605,2.77,-2.624,296.968,42.32,96593.941,45.457,85.207
新疆,北屯市,20.078,26.246,5.908,1.564,0.288,71.194,5.066,-6.142,293.38,32.652,94796.234,47.27,87.868
新疆,博尔塔拉蒙古自治州,11.382,12.658,1.862,1.711,0.151,71.722,1.149,-1.163,288.109,62.136,85944.638,44.714,82.114
新疆,双河市,13.32,15.526,2.178,2.704,0.156,67.47,1.666,-2.45,296.242,46.43,97184.226,44.87,82.474
新疆,可克达拉市,12.542,15.494,6.576,5.75,0.328,70.932,-0.284,1.314,291.462,59.394,94439.158,43.918,80.786
新疆,和田地区,36.799,41.969,0.554,0.516,0.117,77.603,2.034,-1.63,286.083,53.542,73519.43,37.059,80.934
新疆,哈密市,35.035,37.059,1.22,1.724,0.217,85.769,1.366,-4.692,298.146,25.735,87343.922,43.042,93.517
新疆,喀什地区,5.281,7.551,0.695,1.155,0.159,88.868,2.349,-1.729,285.862,54.248,75656.352,38.125,77.178
新疆,图木舒克市,13.003,13.285,0.798,0.812,0.117,68.545,-0.943,-1.425,295.117,48.78,88314.578,39.892,79.182
新疆,塔城地区,10.04,11.561,2.718,1.614,0.177,73.646,1.82,-1.846,290.409,57.366,89153.71,45.642,84.789
新疆,巴音郭楞蒙古自治州,47.564,48.307,0.798,0.555,0.108,79.963,-3.629,-1.109,291.977,37.741,78441.478,39.463,87.481
新疆,新星市,14.67,32.835,3.57,13.86,0.84,115.9,-1.115,-0.505,304.34,16.265,91357.11,42.75,93.68
新疆,昆玉市,12.857,28.93,0.747,0.8,0.133,84.123,4.513,-0.043,293.617,50.37,86217.457,37.457,79.093
新疆,昌吉回族自治州,27.827,29.816,2.586,1.981,0.158,77.01,3.06,-2.524,293.311,47.364,89325.663,44.342,88.608
新疆,石河子市,10.315,13.505,5.78,5.12,0.22,73.155,4.705,-0.84,294.02,55.245,94086.69,44.245,86.035
新疆,胡杨河市,12.272,15.354,3.14,3.134,0.266,75.464,4.706,1.948,296.142,48.12,97128.452,44.852,84.772
新疆,铁门关市,19.75,35.197,3.82,6.403,0.25,91.743,-6.363,-1.373,302.937,19.907,90418.657,41.773,85.66
新疆,阿克苏地区,35.634,36.151,1.119,0.804,0.122,74.654,-1.949,-4.274,293.712,42.869,84462.534,40.965,81.578
新疆,阿勒泰地区,16.742,18.588,3.568,1.055,0.175,76.037,2.904,-3.575,290.37,37.253,88015.453,46.902,88.421
新疆,阿拉尔市,34.034,34.609,1.025,1.038,0.126,76.268,-2.742,-3.661,297.7,37.735,89066.554,40.629,80.998
江苏,南京市,31.089,58.107,8.886,18.996,0.494,117.853,-5.483,0.983,297.739,62.171,100623.484,31.899,118.876
江苏,南通市,18.242,28.081,4.538,5.757,0.235,92.685,-5.222,-1.689,294.644,80.071,100895.853,32.201,120.979
江苏,宿迁市,30.554,46.755,6.294,8.644,0.352,100.581,-4.965,1.723,297.008,66.902,100767.515,33.765,118.495
江苏,常州市,30.036,55.401,8.528,16.693,0.537,111.971,-5.251,0.025,296.748,68.306,100711.119,31.613,119.666
江苏,徐州市,31.126,58.79,7.945,11.617,0.468,107.34,-4.782,1.991,297.831,60.871,100483.338,34.363,117.513
江苏,扬州市,29.428,47.163,6.783,10.558,0.348,99.405,-5.376,0.722,296.548,67.558,100837.307,32.709,119.486
江苏,无锡市,31.392,57.202,9.225,16.784,0.541,108.334,-5.254,-0.446,296.092,72.018,100640.106,31.546,120.066
江苏,泰州市,26.106,40.631,6.185,9.073,0.33,95.259,-5.436,-0.022,295.713,72.867,100835.028,32.605,120.048
江苏,淮安市,29.083,42.31,5.612,7.096,0.313,98.808,-5.226,1.422,296.764,67.181,100777.511,33.362,118.985
江苏,盐城市,16.757,25.102,3.006,3.746,0.204,92.184,-5.518,0.948,294.99,78.655,100928.045,33.529,120.156
江苏,苏州市,28.992,49.856,8.558,16.146,0.448,101.413,-4.87,-1.775,295.432,76.32,100807.754,31.374,120.661
江苏,连云港市,22.606,37.607,3.998,6.275,0.299,90.575,-5.07,1.774,295.597,75.472,100724.772,34.519,119.133
江苏,镇江市,32.822,60.58,10.267,21.322,0.523,106.927,-5.555,0.216,296.806,67.028,100699.089,32.016,119.49
江西,上饶市,32.925,50.915,9.717,9.467,0.523,141.195,-4.843,-1.702,297.874,57.664,98368.138,28.778,117.47
江西,九江市,39.858,65.708,10.668,8.374,0.647,167.01,-3.558,-0.38,298.373,58.973,98322.342,29.313,115.444
江西,南昌市,32.952,64.46,10.887,13.815,0.743,160.212,-3.526,-2.045,299.249,60.365,100117.012,28.671,116.016
江西,吉安市,47.462,67.886,12.083,9.852,0.644,128.663,-2.672,-2.429,298.791,64.578,97858.035,26.954,114.831
江西,宜春市,38.293,67.709,12.486,11.335,0.696,151.813,-3.998,-2.002,298.481,60.998,98252.348,28.29,114.974
江西,抚州市,41.047,56.554,9.837,7.404,0.494,141.331,-3.376,-1.618,298.57,57.687,97893.768,27.514,116.42
江西,新余市,42.937,73.651,16.361,16.581,0.769,143.021,-3.374,-2.982,298.781,63.312,99124.101,27.847,114.836
江西,景德镇市,33.447,50.794,9.351,7.737,0.529,135.183,-4.821,-1.435,298.384,56.958,99186.712,29.287,117.24
江西,萍乡市,39.994,62.699,13.406,11.584,0.654,130.174,-5.471,-1.523,299.126,58.968,96907.473,27.505,113.908
江西,赣州市,42.759,56.911,8.42,11.333,0.891,102.42,-2.528,-1.704,298.122,68.404,96239.091,25.692,115.279
江西,鹰潭市,37.587,56.372,10.373,10.565,0.553,150.108,-5.089,-1.568,298.582,54.794,98838.305,28.222,117.094
河北,保定市,58.754,95.681,12.865,20.147,0.758,164.81,-0.022,2.97,299.236,43.276,96870.962,39.018,115.159
河北,唐山市,51.941,83.678,15.454,26.698,0.937,131.762,-1.073,4.465,296.036,71.775,100093.074,39.731,118.354
河北,廊坊市,55.14,83.493,9.918,23.298,0.8,145.262,-0.58,4.409,299.877,48.885,100497.121,39.267,116.632
河北,张家口市,59.02,83.432,13.831,10.648,0.58,168.958,2.846,4.623,294.552,48.946,87164.141,40.877,115.042
河北,承德市,53.834,79.635,12.518,11.061,0.657,160.887,2.84,5.647,292.522,68.194,90398.267,41.339,117.578
河北,沧州市,43.484,79.734,13.633,21.25,0.665,146.439,-0.443,6.011,300.61,44.806,100569.42,38.258,116.744
河北,石家庄市,53.188,98.796,16.306,27.061,0.99,168.192,-0.515,3.661,300.943,37.077,97352.585,38.135,114.407
河北,秦皇岛市,41.913,69.007,13.395,15.088,0.603,126.352,0.908,5.226,294.059,78.824,97937.052,40.12,119.193
河北,衡水市,40.25,79.058,13.571,19.933,0.623,146.66,-1.003,6.79,301.806,39.407,100406.251,37.755,115.813
河北,邢台市,38.678,81.777,15.089,23.732,0.863,151.813,-0.412,6.648,301.975,35.934,98953.714,37.195,114.815
河北,邯郸市,36.806,79.196,14.207,24.19,0.844,152.086,-0.746,5.643,301.468,36.65,98539.399,36.538,114.596
河南,三门峡市,36.503,60.043,12.783,13.022,0.637,147.97,-1.785,4.698,297.118,39.728,91176.705,34.362,111.101
河南,信阳市,40.34,64.866,11.824,10.369,0.504,157.339,-3.821,2.0,300.183,43.856,99402.445,32.091,114.907
河南,南阳市,30.678,59.955,8.629,17.233,0.673,141.496,-2.913,2.745,300.95,37.181,97336.313,33.034,112.323
河南,周口市,33.822,71.679,12.828,18.949,0.683,151.466,-3.969,2.877,301.287,39.535,100146.533,33.738,114.884
河南,商丘市,35.959,73.044,11.989,16.844,0.662,136.516,-4.298,2.702,300.49,44.101,100269.085,34.277,115.718
河南,安阳市,35.174,74.776,12.139,20.544,0.76,161.392,-0.89,5.61,301.396,36.197,98174.875,35.888,114.318
河南,平顶山市,34.146,65.058,9.973,21.382,0.675,159.069,-2.435,3.162,301.236,35.243,97981.25,33.8,113.025
河南,开封市,33.418,75.659,11.219,20.106,0.731,151.375,-3.177,4.04,301.743,37.169,99883.411,34.594,114.514
河南,新乡市,35.842,78.314,12.223,21.974,0.753,158.955,-1.466,3.984,301.692,35.914,98974.62,35.256,114.111
河南,洛阳市,35.778,64.045,11.759,18.953,0.743,150.698,-1.836,4.295,298.908,36.799,93489.486,34.274,112.019
河南,济源市,44.395,90.682,15.302,35.286,1.05,151.013,-2.408,0.933,299.735,35.803,95290.902,35.105,112.445
河南,漯河市,32.281,71.295,11.372,21.075,0.643,159.993,-3.607,3.217,301.878,35.968,99947.562,33.652,113.945
河南,濮阳市,34.098,78.315,12.183,20.471,0.709,142.298,-2.952,5.244,301.237,41.004,100191.097,35.809,115.283
河南,焦作市,40.206,90.903,13.521,34.068,0.922,150.008,-2.354,1.379,302.272,33.127,98746.399,35.121,113.163
河南,许昌市,34.641,76.376,10.719,26.256,0.723,157.308,-2.907,3.328,301.691,35.412,99300.761,34.075,113.707
河南,郑州市,36.888,80.356,10.435,28.835,0.79,154.599,-2.022,4.709,301.447,34.948,98030.598,34.634,113.438
河南,驻马店市,37.541,66.255,11.363,14.517,0.551,161.552,-3.496,2.742,301.137,39.119,99661.071,32.925,114.174
河南,鹤壁市,33.882,73.302,12.017,20.131,0.746,156.998,-1.008,5.478,301.981,35.389,99298.284,35.716,114.319
浙江,丽水市,21.626,31.539,4.695,8.056,0.284,102.257,-3.634,-1.747,293.589,71.202,93824.425,28.194,119.51
浙江,台州市,17.729,29.643,5.303,7.533,0.256,91.642,-2.706,-5.739,294.53,78.075,97997.617,28.742,121.109
浙江,嘉兴市,22.945,38.303,5.643,10.96,0.381,99.614,-4.839,-1.643,295.273,80.213,100777.419,30.635,120.754
浙江,宁波市,17.315,29.754,4.921,8.019,0.278,93.915,-2.901,-5.228,294.391,84.58,99526.45,29.706,121.49
浙江,杭州市,28.074,46.129,7.369,12.398,0.423,107.063,-4.291,-1.769,294.231,77.706,97901.873,29.891,119.464
浙江,温州市,20.011,33.511,6.491,14.004,0.305,90.387,-2.546,-4.716,294.718,72.495,96808.503,27.897,120.411
浙江,湖州市,28.03,46.679,5.987,11.581,0.437,112.073,-4.544,-0.019,295.252,77.304,99524.247,30.757,119.871
浙江,绍兴市,24.247,37.436,6.514,10.866,0.363,95.391,-3.539,-3.308,294.348,79.897,98704.217,29.709,120.64
浙江,舟山市,8.025,19.925,1.203,1.285,0.145,93.822,-4.285,-7.18,294.537,88.508,100502.028,30.038,122.23
浙江,衢州市,26.467,41.978,8.176,12.905,0.416,120.099,-5.313,-2.312,295.823,64.015,97067.339,28.912,118.675
浙江,金华市,24.623,38.152,6.497,12.591,0.348,100.654,-3.687,-2.949,294.626,74.587,97352.862,29.109,119.967
海南,万宁市,25.022,33.539,5.714,5.071,0.344,77.949,0.563,-1.796,300.191,81.471,98925.84,18.842,110.294
海南,三亚市,14.681,22.807,4.264,13.489,0.594,42.136,1.777,-0.584,299.683,86.32,97751.324,18.413,109.407
海南,东方市,24.373,30.096,5.175,3.669,0.285,75.039,0.431,0.535,300.554,80.058,98354.375,18.971,108.838
海南,临高县,27.681,40.53,8.3,5.584,0.513,89.737,-1.296,-0.619,300.391,81.88,99498.789,19.821,109.733
海南,乐东黎族自治县,20.015,26.278,4.056,5.588,0.384,58.674,1.209,-0.722,299.447,84.192,96884.419,18.659,109.072
海南,五指山市,25.706,33.07,5.032,5.576,0.394,62.37,1.072,-0.59,297.326,88.662,93762.168,18.81,109.518
海南,儋州市,30.945,41.238,7.514,4.509,0.41,87.104,-0.884,-0.591,300.546,79.809,99160.623,19.568,109.399
海南,定安县,21.738,33.508,6.48,6.632,0.53,79.485,-0.175,-1.258,300.163,81.985,99204.6,19.47,110.28
海南,屯昌县,23.802,34.394,6.41,5.222,0.452,79.108,0.02,-0.892,299.926,81.268,98442.872,19.342,110.076
海南,文昌市,28.424,40.798,7.086,5.325,0.459,87.188,-0.452,-2.089,300.126,84.874,99952.579,19.707,110.773
海南,昌江黎族自治县,30.293,37.57,6.488,4.23,0.321,79.84,-0.086,0.021,299.763,81.324,97359.743,19.233,109.016
海南,海口市,22.972,36.289,7.525,8.513,0.589,80.976,-0.996,-1.128,300.058,84.842,99770.646,19.842,110.393
海南,澄迈县,23.436,35.647,7.506,7.036,0.551,81.737,-0.914,-0.669,300.196,82.456,99331.197,19.676,109.989
海南,琼中黎族苗族自治县,26.581,35.084,5.75,4.463,0.375,73.453,0.875,-0.835,298.966,82.269,96316.109,19.087,109.847
海南,琼海市,24.45,35.043,6.383,5.332,0.417,82.25,0.165,-1.8,300.475,81.007,99734.38,19.22,110.43
海南,白沙黎族自治县,28.569,36.445,5.991,3.907,0.346,76.652,0.571,-0.024,299.05,81.495,96041.214,19.2,109.388
海南,陵水黎族自治县,22.804,30.561,4.859,7.936,0.451,60.899,0.721,-0.646,299.749,84.54,98278.066,18.581,109.913
湖北,仙桃市,37.759,72.834,9.611,21.984,0.725,153.866,-3.446,1.374,300.901,50.12,100269.575,30.284,113.417
湖北,十堰市,35.963,54.123,11.186,8.715,0.547,109.435,-1.74,1.978,297.676,48.31,92609.928,32.462,110.476
湖北,咸宁市,38.027,65.34,9.489,10.018,0.689,162.412,-4.183,1.662,299.926,52.564,98476.526,29.621,114.178
湖北,天门市,36.476,77.125,9.902,28.209,0.777,156.234,-3.247,1.861,301.178,47.538,100217.363,30.633,113.053
湖北,孝感市,35.788,66.57,9.104,20.519,0.727,169.455,-3.656,1.75,300.696,45.842,99688.659,31.116,113.869
湖北,宜昌市,38.573,67.454,9.153,12.296,0.64,123.765,-0.865,1.887,297.852,52.017,93423.564,30.746,111.129
湖北,恩施土家族苗族自治州,42.915,65.539,12.694,6.81,0.61,84.344,-2.376,2.855,293.818,70.58,89049.813,30.195,109.552
湖北,武汉市,42.502,74.001,10.388,23.43,0.858,177.539,-3.636,1.709,300.234,50.944,100210.792,30.606,114.349
湖北,潜江市,39.743,82.711,10.98,32.631,0.794,136.343,-2.63,1.417,301.399,45.591,100209.804,30.33,112.77
湖北,神农架林区,38.14,53.976,8.848,2.782,0.415,122.578,-0.911,5.473,290.465,65.281,82706.995,31.592,110.49
湖北,荆州市,37.616,73.43,10.982,24.124,0.774,133.497,-2.207,1.338,301.494,46.308,99968.385,30.01,112.512
湖北,荆门市,36.556,73.339,10.608,25.351,0.741,143.27,-3.326,2.27,301.163,44.642,99233.505,31.059,112.616
湖北,襄阳市,34.838,63.011,8.682,11.557,0.658,134.413,-2.189,3.752,300.321,42.239,96593.423,31.919,111.96
湖北,鄂州市,44.267,76.411,11.487,22.284,0.916,183.833,-3.93,1.78,299.781,52.601,100270.72,30.337,114.794
湖北,随州市,33.433,61.248,9.096,14.961,0.637,152.067,-3.26,2.633,300.4,42.72,98610.277,31.809,113.43
湖北,黄冈市,42.615,68.065,11.826,9.77,0.695,164.941,-3.97,0.595,299.262,49.124,98621.183,30.702,115.358
湖北,黄石市,44.987,76.221,11.622,15.12,0.849,188.877,-3.902,1.229,299.077,56.178,99326.503,29.925,115.034
湖南,娄底市,42.342,69.095,14.303,15.209,0.917,115.995,-2.714,-0.021,298.978,58.399,96339.573,27.715,111.632
湖南,岳阳市,37.174,61.349,10.037,12.908,0.63,141.386,-3.508,1.216,300.58,50.615,99116.114,29.081,113.275
湖南,常德市,35.02,60.908,12.116,12.022,0.788,127.885,-1.229,1.047,300.242,52.029,98331.063,29.271,111.524
湖南,张家界市,33.383,59.798,11.409,6.421,0.79,110.932,-1.662,0.485,297.791,60.59,94571.887,29.379,110.526
湖南,怀化市,39.156,67.806,10.051,8.141,0.842,98.131,-2.572,0.776,298.809,62.236,95432.943,27.535,110.071
湖南,株洲市,40.388,61.096,11.839,11.401,0.62,119.115,-4.85,-1.127,299.412,58.971,97004.695,27.109,113.513
湖南,永州市,47.021,64.424,10.502,9.568,0.681,93.604,-2.919,-1.173,298.556,67.324,95646.279,25.748,111.723
湖南,湘潭市,38.91,66.924,14.709,22.093,0.806,128.522,-2.694,-0.378,300.01,57.039,99206.828,27.744,112.619
湖南,湘西土家族苗族自治州,36.44,65.346,8.891,7.876,0.826,89.468,-2.931,1.04,297.696,65.047,94479.043,28.708,109.718
湖南,益阳市,36.411,62.976,10.821,12.876,0.836,132.227,-2.414,1.371,299.831,55.087,97858.103,28.525,111.919
湖南,衡阳市,46.546,70.867,12.835,15.637,0.78,108.769,-2.512,-1.366,300.182,59.505,98708.417,26.781,112.565
湖南,邵阳市,50.364,72.736,12.038,11.444,0.77,102.064,-3.471,-0.091,297.831,64.215,94186.947,26.893,110.881
湖南,郴州市,40.36,60.808,11.16,12.499,1.005,92.013,-2.933,-0.78,297.988,66.821,94848.168,25.769,113.109
湖南,长沙市,35.791,61.764,11.364,18.458,0.737,133.699,-4.127,0.393,299.915,54.63,98652.455,28.235,113.159
甘肃,临夏回族自治州,28.122,40.472,5.455,8.754,0.45,93.992,-0.585,-0.874,290.039,50.994,76974.801,35.617,103.291
甘肃,兰州市,32.989,48.239,6.215,11.527,0.406,90.107,-0.367,-2.134,291.005,48.412,78545.271,36.359,103.633
甘肃,嘉峪关市,17.202,55.358,6.355,28.298,0.578,100.947,-3.887,4.757,293.67,32.482,81047.148,39.798,98.145
甘肃,天水市,26.208,43.117,10.938,3.658,0.337,109.048,-0.111,7.036,289.395,74.33,82113.911,34.645,105.739
甘肃,定西市,26.658,40.211,8.859,4.166,0.336,97.605,-1.226,2.539,288.259,65.527,76786.008,35.124,104.432
甘肃,平凉市,26.853,43.295,10.287,6.645,0.393,105.467,-0.13,6.968,290.891,68.351,83907.319,35.304,106.644
甘肃,庆阳市,29.021,45.956,12.348,6.842,0.428,102.771,-0.82,6.961,291.155,72.851,85150.527,36.149,107.596
甘肃,张掖市,27.396,35.129,2.413,2.864,0.194,98.799,-1.034,0.391,286.103,55.214,74346.396,38.94,99.855
甘肃,武威市,38.624,48.174,4.366,1.818,0.176,105.466,2.137,-3.153,292.36,43.375,80724.489,38.163,103.073
甘肃,甘南藏族自治州,19.266,23.139,3.62,1.605,0.188,75.955,-0.36,-0.459,282.19,76.796,67495.217,34.331,102.768
甘肃,白银市,31.669,46.99,8.949,5.564,0.343,97.155,0.557,0.256,291.71,52.087,80837.003,36.59,104.646
甘肃,酒泉市,22.582,25.785,1.599,2.586,0.147,87.667,-3.821,-0.775,292.468,32.955,78499.568,40.236,96.062
甘肃,金昌市,26.068,43.146,3.681,2.498,0.167,125.863,4.398,-2.392,291.703,42.542,80029.029,38.44,102.048
甘肃,陇南市,26.039,44.913,14.363,4.482,0.345,91.293,-1.189,5.204,287.821,85.697,81708.178,33.599,105.224
福建,三明市,28.412,40.596,7.535,9.219,0.537,97.622,-3.431,-1.075,295.895,66.817,94335.597,26.29,117.395
福建,南平市,25.714,35.866,6.395,5.968,0.356,114.648,-2.877,-1.051,296.049,61.676,95108.921,27.324,118.143
福建,厦门市,16.81,42.233,8.845,15.327,0.415,94.497,-5.188,-5.773,297.733,68.352,99352.977,24.642,118.11
福建,宁德市,17.169,26.135,4.493,6.613,0.29,94.725,-2.843,-3.092,294.268,70.844,94488.86,26.968,119.474
福建,泉州市,17.631,34.834,6.144,9.717,0.383,97.545,-4.104,-3.712,295.629,71.597,95718.679,25.201,118.249
福建,漳州市,20.142,42.464,7.472,12.688,0.447,97.941,-4.481,-3.305,296.865,71.666,97235.538,24.372,117.444
福建,福州市,16.782,29.474,5.205,8.178,0.357,97.939,-3.398,-4.105,295.224,73.629,96512.838,26.083,119.206
福建,莆田市,16.558,29.999,5.892,8.339,0.355,102.063,-3.942,-5.545,296.045,71.019,97221.892,25.445,118.864
福建,龙岩市,28.164,44.015,7.505,11.064,0.505,99.99,-3.204,-0.836,296.781,66.474,94275.448,25.256,116.739
西藏,山南市,17.518,19.146,2.301,1.422,0.212,88.483,2.242,3.334,282.82,82.423,65883.594,28.295,92.274
西藏,拉萨市,7.836,10.03,1.299,2.581,0.179,89.668,4.142,4.023,279.228,70.343,56485.595,30.043,91.093
西藏,日喀则市,8.385,8.96,1.016,0.51,0.168,89.313,6.457,0.311,278.109,64.329,55339.241,29.483,86.493
西藏,昌都市,10.108,10.861,1.503,0.61,0.179,90.405,2.357,3.961,279.28,77.558,59061.777,30.753,97.044
西藏,林芝市,15.332,16.293,2.144,1.312,0.182,83.793,-0.003,3.976,281.914,92.245,66180.833,29.184,95.25
西藏,玉树藏族自治州,10.418,10.762,0.553,0.423,0.112,79.721,-3.235,1.367,276.011,70.06,57335.732,34.196,94.317
西藏,那曲市,9.002,9.439,0.389,0.228,0.124,86.29,1.961,0.259,277.355,63.9,55372.754,32.709,89.262
西藏,阿里地区,5.407,6.247,0.514,0.367,0.138,88.198,5.056,-2.615,275.875,54.348,54905.057,33.013,82.553
贵州,六盘水市,24.283,45.757,7.759,10.914,0.476,70.209,-0.691,4.401,291.224,86.871,82630.643,26.106,104.896
贵州,安顺市,31.295,48.641,6.092,7.585,0.351,75.208,-1.816,4.13,294.104,76.409,87566.234,25.986,105.978
贵州,毕节市,27.449,47.922,8.793,13.824,0.433,66.248,0.128,6.178,292.146,79.002,82919.302,27.063,105.211
贵州,贵阳市,30.823,56.935,6.386,25.622,0.535,62.081,-1.221,5.531,294.236,74.716,87598.934,26.845,106.71
贵州,遵义市,37.79,56.041,8.876,10.406,0.429,80.062,-3.444,4.561,295.063,74.7,89703.06,28.167,107.102
贵州,铜仁市,33.005,65.356,10.142,7.761,0.568,77.036,-3.0,2.512,296.505,71.706,92044.141,27.937,108.534
贵州,黔东南苗族侗族自治州,39.993,61.841,10.115,7.272,0.542,74.58,-2.145,1.772,296.399,73.615,91943.736,26.495,108.574
贵州,黔南布依族苗族自治州,36.842,54.155,7.961,8.871,0.461,69.849,-1.96,2.635,294.955,76.41,89727.702,26.0,107.265
贵州,黔西南布依族苗族自治州,28.68,46.761,7.162,4.881,0.421,80.578,-1.613,2.678,294.467,80.215,87931.587,25.256,105.467
辽宁,丹东市,13.594,20.327,5.336,6.956,0.433,76.654,-0.827,6.276,289.475,83.294,98215.334,40.554,124.376
辽宁,大连市,23.286,32.736,5.676,8.072,0.367,86.616,-1.775,6.126,292.441,85.73,100246.09,39.591,122.22
辽宁,抚顺市,14.849,20.1,5.318,5.572,0.438,82.422,1.026,9.558,290.415,79.105,96321.74,41.841,124.65
辽宁,朝阳市,35.459,59.901,14.109,8.518,0.689,143.712,4.42,7.702,295.485,62.971,95541.269,41.545,120.053
辽宁,本溪市,14.532,19.93,5.13,5.815,0.471,78.95,-0.331,8.868,288.918,83.935,95798.887,41.232,124.544
辽宁,沈阳市,23.189,37.663,11.941,11.779,0.513,102.715,2.552,10.948,294.514,68.776,100106.163,42.081,123.159
辽宁,盘锦市,23.118,36.677,9.151,8.765,0.482,105.367,2.407,10.393,293.517,78.719,100818.164,41.13,122.01
辽宁,营口市,22.446,30.857,6.003,6.9,0.389,95.404,-0.917,8.607,292.627,79.674,98812.51,40.395,122.478
辽宁,葫芦岛市,32.787,54.094,12.7,8.85,0.546,115.309,2.545,7.746,293.591,81.392,98328.745,40.66,120.215
辽宁,辽阳市,17.455,26.676,7.04,8.237,0.562,90.083,-0.694,9.726,292.447,77.045,98974.256,41.153,123.261
辽宁,铁岭市,21.752,33.932,10.451,11.804,0.476,94.99,2.663,11.059,293.147,72.46,98602.076,42.653,124.158
辽宁,锦州市,26.246,43.433,10.714,8.991,0.51,104.226,2.102,10.222,293.377,82.056,99922.785,41.502,121.659
辽宁,阜新市,28.623,45.993,12.691,8.07,0.455,111.372,2.564,10.595,294.202,74.89,98362.772,42.289,121.968
辽宁,鞍山市,18.311,27.595,5.889,7.282,0.459,90.752,-0.545,8.15,291.935,81.042,99101.049,40.731,123.007
重庆,重庆城区,40.977,58.254,11.976,19.416,0.55,63.715,-2.885,1.282,296.781,68.697,94065.427,29.824,107.125
重庆,重庆郊县,41.458,59.924,14.234,7.764,0.481,85.087,-3.335,2.609,295.199,66.374,90478.298,30.334,108.755
陕西,咸阳市,30.68,54.548,7.827,23.816,0.676,89.04,-2.836,2.216,293.109,75.164,90750.684,34.779,108.367
陕西,商洛市,38.145,55.106,12.131,7.683,0.52,104.124,-2.2,3.035,293.643,59.62,88820.675,33.64,109.889
陕西,安康市,37.373,51.418,11.42,5.931,0.414,74.032,-0.897,2.135,293.408,71.439,89301.255,32.735,108.932
陕西,宝鸡市,31.636,48.976,7.269,12.175,0.425,92.722,-0.775,4.538,290.28,77.817,85775.422,34.386,107.193
陕西,延安市,34.267,51.304,14.555,15.297,0.707,95.144,-0.718,6.291,291.219,73.875,86994.864,36.432,109.316
陕西,榆林市,34.662,52.056,16.051,14.002,0.728,110.523,-0.532,6.413,292.71,63.928,87300.306,38.041,109.581
陕西,汉中市,36.04,52.113,12.249,9.657,0.466,72.005,-1.805,1.631,290.797,84.16,88371.504,33.088,107.098
陕西,渭南市,31.878,55.558,11.034,22.072,0.65,109.001,-0.532,1.399,295.633,60.042,93067.039,34.919,109.855
陕西,西安市,33.426,51.747,8.935,14.854,0.587,91.966,-1.191,3.948,293.413,69.543,89856.872,34.12,108.77
陕西,铜川市,32.586,52.122,10.241,20.47,0.659,88.966,-0.905,4.121,291.538,78.178,88593.597,35.198,109.058
青海,保亭黎族苗族自治县,19.496,27.488,4.854,11.812,0.534,49.102,2.048,-0.824,298.912,85.742,96189.602,18.566,109.618
青海,吐鲁番市,40.27,54.144,2.506,1.915,0.16,77.402,-1.51,-6.168,299.17,28.84,89237.211,42.386,89.851
青海,果洛藏族自治州,11.632,11.938,0.585,1.106,0.107,82.808,-0.554,-0.997,278.246,67.799,60048.588,34.127,99.404
青海,海东市,29.932,34.22,4.326,5.113,0.275,80.455,-0.622,-1.537,285.898,60.162,72484.823,36.347,102.34
青海,海北藏族自治州,24.587,25.912,1.704,0.915,0.124,84.723,-0.948,-1.591,277.779,81.351,65342.556,37.775,100.288
青海,海南藏族自治州,14.468,15.287,1.16,1.18,0.123,82.433,0.5,-1.684,282.045,62.497,66404.397,35.89,100.272
青海,海西蒙古族藏族自治州,11.981,12.235,0.461,0.438,0.1,87.824,-1.345,-0.335,281.793,49.774,64394.993,36.677,94.519
青海,西宁市,27.306,34.432,4.179,7.046,0.416,78.651,-0.764,-1.857,282.373,73.829,69413.601,36.842,101.423
青海,黄南藏族自治州,14.885,15.654,1.367,1.174,0.132,75.804,0.436,-1.053,281.245,71.902,65746.784,35.022,101.631
香港,香港特别行政区,14.715,24.81,4.585,14.09,0.31,100.475,-7.515,-2.665,300.28,72.91,99769.16,22.45,114.22
黑龙江,七台河市,10.958,19.746,3.807,5.983,0.24,61.739,-1.727,7.586,288.012,76.682,97665.34,45.87,130.943
黑龙江,伊春市,18.473,23.347,5.278,3.842,0.257,66.551,-2.856,5.977,287.29,91.702,95892.612,47.772,129.184
黑龙江,佳木斯市,8.374,12.838,2.842,3.843,0.213,61.847,-2.763,7.098,288.814,70.44,99646.909,47.207,132.11
黑龙江,双鸭山市,6.007,9.478,2.131,2.714,0.178,62.075,-2.718,8.138,287.716,69.752,99337.9,46.722,132.643
黑龙江,哈尔滨市,18.941,26.062,5.497,6.452,0.322,80.438,0.267,7.639,290.66,80.105,97664.473,45.634,127.964
黑龙江,大兴安岭地区,25.339,27.068,2.267,1.337,0.198,57.718,-1.763,-2.712,284.063,89.725,94196.397,52.286,124.212
黑龙江,大庆市,25.834,38.734,9.216,8.433,0.44,91.143,0.944,5.444,293.593,70.266,98539.011,46.327,124.687
黑龙江,牡丹江市,10.878,15.608,2.783,3.19,0.201,65.637,-0.482,7.421,285.581,84.861,95029.971,44.592,129.883
黑龙江,绥化市,22.841,31.533,8.119,7.782,0.407,77.518,-0.526,6.681,290.861,83.037,97890.975,46.89,126.634
黑龙江,鸡西市,6.159,10.485,1.955,2.749,0.179,57.446,-1.331,7.818,286.153,74.775,99177.935,45.626,132.289
黑龙江,鹤岗市,11.979,18.701,4.783,7.089,0.279,60.895,-3.812,5.516,287.883,83.147,98471.331,47.661,130.778
黑龙江,黑河市,22.658,26.724,6.584,3.926,0.254,66.335,-2.632,2.563,287.42,93.891,95962.49,49.268,127.004
黑龙江,齐齐哈尔市,27.682,36.805,10.358,6.386,0.374,84.651,0.237,3.656,291.92,77.723,97654.141,47.715,124.57
