province,city,PM2.5,PM10,SO2,NO2,CO,O3,U,V,TEMP,RH,PSFC,lat,lon
上海,上海市,17.409,24.037,4.972,15.612,0.354,88.836,-5.04,1.669,296.063,88.835,100787.146,31.173,121.42
云南,临沧市,7.505,10.032,1.714,2.545,0.328,40.721,6.511,0.628,293.292,86.617,83308.852,23.935,99.686
云南,丽江市,14.401,23.751,5.012,3.425,0.358,70.043,2.426,0.542,290.547,73.581,74148.34,26.96,100.515
云南,保山市,7.898,13.0,2.362,4.071,0.313,40.94,5.588,0.877,292.11,88.842,81320.689,24.953,98.962
云南,大理白族自治州,9.391,15.407,2.601,2.834,0.245,53.797,5.829,-0.066,291.695,76.417,77560.391,25.726,100.053
云南,德宏傣族景颇族自治州,8.634,11.617,1.867,4.533,0.287,38.443,4.491,1.283,293.285,93.102,85476.773,24.535,98.052
云南,怒江傈僳族自治州,12.699,18.293,1.773,1.199,0.185,56.742,4.534,0.304,286.68,93.516,72443.446,26.916,98.885
云南,文山壮族苗族自治州,9.678,12.278,3.412,4.971,0.32,39.583,3.792,3.915,294.368,86.473,85686.658,23.696,104.735
云南,昆明市,17.315,25.683,4.817,11.441,0.491,47.416,2.267,1.766,292.072,84.44,78581.242,25.384,102.863
云南,昭通市,23.595,43.478,8.759,7.123,0.65,73.508,-1.879,-0.074,294.03,84.254,83282.982,27.667,103.985
云南,普洱市,6.653,8.835,1.855,3.018,0.234,39.013,5.645,1.364,294.87,81.443,85299.253,23.159,100.718
云南,曲靖市,25.311,34.075,9.214,10.412,0.59,52.388,-1.001,1.382,291.508,89.152,79354.503,25.737,103.929
云南,楚雄彝族自治州,12.144,16.217,3.067,3.694,0.292,55.985,4.766,0.75,294.277,70.767,80270.865,25.328,101.567
云南,玉溪市,9.578,13.189,2.309,4.821,0.258,40.264,5.342,1.802,294.372,79.101,82742.634,24.136,102.217
云南,红河哈尼族彝族自治州,8.937,11.739,3.034,4.235,0.245,36.848,4.2,2.858,293.855,86.676,84413.107,23.451,103.034
云南,西双版纳傣族自治州,6.295,9.652,2.088,4.536,0.324,32.091,4.928,2.857,295.469,84.542,88294.342,21.939,100.912
云南,迪庆藏族自治州,12.724,20.339,2.52,1.258,0.213,73.188,5.118,1.232,284.857,85.824,67036.325,27.957,99.459
内蒙古,乌兰察布市,35.356,47.014,8.515,6.361,0.335,93.226,2.406,1.892,295.259,50.778,85280.301,41.691,112.44
内蒙古,乌海市,31.434,54.744,17.086,18.576,0.71,136.479,1.056,-0.556,298.752,41.459,86823.875,39.396,106.856
内蒙古,兴安盟,9.015,11.574,3.343,3.651,0.258,70.83,-3.09,3.3,292.664,57.299,93933.692,46.244,121.341
内蒙古,包头市,26.629,36.918,5.938,6.571,0.305,88.381,1.921,2.202,295.015,53.328,85218.564,41.549,110.276
内蒙古,呼伦贝尔市,8.847,10.099,1.781,1.688,0.192,60.935,-4.198,4.377,290.017,66.834,92642.759,49.636,121.171
内蒙古,呼和浩特市,36.301,68.101,12.615,17.417,0.597,103.053,1.72,2.023,296.116,47.694,85620.264,40.578,111.513
内蒙古,巴彦淖尔市,19.881,22.904,2.555,2.132,0.173,83.697,2.296,0.665,296.643,48.933,86490.872,41.446,107.582
内蒙古,赤峰市,26.491,38.789,9.328,6.609,0.358,88.662,-1.382,1.066,295.815,54.756,91069.79,43.226,118.892
内蒙古,通辽市,15.503,22.951,6.643,7.022,0.29,96.762,-4.199,0.882,298.371,40.71,96775.478,43.814,121.591
内蒙古,鄂尔多斯市,32.681,49.923,11.5,7.631,0.467,116.959,0.801,2.196,297.985,44.538,86225.928,39.407,108.63
内蒙古,锡林郭勒盟,27.975,36.592,5.269,1.631,0.242,84.813,2.083,4.686,294.252,59.392,88164.177,44.179,115.482
内蒙古,阿拉善盟,17.296,19.196,1.368,1.695,0.13,77.251,2.677,-1.941,298.43,37.571,86717.356,40.473,102.467
北京,北京市,50.623,85.444,6.415,20.605,0.689,171.19,0.144,4.985,302.654,36.01,96540.035,40.158,116.395
台湾,台湾省,7.934,10.449,4.87,16.783,0.126,40.46,0.734,2.612,297.067,77.651,92778.226,23.757,120.975
吉林,吉林市,10.369,15.033,2.853,7.69,0.292,82.137,-0.731,-1.551,293.062,56.528,96255.151,43.573,126.859
吉林,四平市,10.124,21.467,2.779,23.928,0.33,91.159,-3.987,-1.069,297.127,40.696,98334.897,43.472,124.386
吉林,延边朝鲜族自治州,15.099,17.369,2.669,5.551,0.243,78.148,1.84,-2.57,290.637,66.869,93397.167,43.141,129.147
吉林,松原市,7.7,14.751,3.209,9.226,0.258,74.263,-3.078,-1.383,296.723,41.298,98730.646,44.785,124.496
吉林,白城市,8.156,12.035,3.752,5.832,0.227,72.655,-3.71,-0.307,297.387,40.127,98808.539,45.35,123.031
吉林,白山市,27.546,36.859,8.353,7.648,0.701,92.949,1.935,-0.86,291.625,75.103,91617.762,42.063,127.256
吉林,辽源市,12.442,21.079,3.18,21.448,0.378,85.735,-2.783,-1.685,295.29,51.335,96574.256,42.836,125.32
吉林,通化市,30.279,44.09,8.754,10.37,0.687,100.999,0.332,-0.12,294.445,68.896,94877.929,41.939,125.927
吉林,长春市,9.239,19.755,2.75,15.852,0.323,79.71,-2.181,-1.703,295.44,46.442,98313.347,44.268,125.611
四川,乐山市,36.277,48.897,6.118,9.221,0.655,80.511,-0.749,-0.382,296.792,80.488,88500.713,29.218,103.569
四川,内江市,22.952,37.181,10.62,16.828,0.708,60.043,-1.636,-0.054,301.679,70.205,95212.975,29.62,104.95
四川,凉山彝族自治州,22.884,36.153,9.116,4.428,0.567,67.569,-1.81,1.334,289.103,86.828,73723.081,27.883,102.065
四川,南充市,14.059,27.366,10.345,15.322,0.654,50.179,-3.206,1.752,301.527,69.018,95309.522,31.19,106.199
四川,宜宾市,35.075,52.203,8.123,13.631,0.753,77.67,-0.61,-0.461,300.657,70.928,93643.434,28.573,104.621
四川,巴中市,21.801,37.184,11.237,9.556,0.57,48.85,-3.535,2.334,298.201,76.739,91347.303,32.033,107.031
四川,广元市,21.985,40.714,15.282,13.143,0.66,32.427,-2.607,1.673,297.255,81.987,90473.057,32.261,105.788
四川,广安市,15.624,27.619,8.946,13.804,0.597,59.461,-3.005,3.1,301.933,65.91,95320.985,30.43,106.628
四川,德阳市,15.134,26.748,6.973,12.484,0.633,55.874,-1.142,-0.898,298.802,75.813,91904.509,31.13,104.436
四川,成都市,18.367,31.222,8.067,15.201,0.65,59.99,-1.44,-1.239,299.084,74.34,92028.313,30.64,103.929
四川,攀枝花市,21.14,37.165,17.818,12.395,0.902,56.571,-1.491,0.196,295.232,70.734,80723.551,26.791,101.734
四川,泸州市,20.189,34.153,7.632,12.163,0.544,62.104,-1.601,2.055,299.641,73.048,92130.369,28.424,105.675
四川,甘孜藏族自治州,17.944,21.722,3.089,1.196,0.188,98.359,0.31,2.732,282.465,81.374,61177.988,30.936,100.009
四川,眉山市,26.04,38.38,7.598,14.097,0.68,64.631,-0.943,-0.673,299.46,74.669,92442.973,29.912,103.766
四川,绵阳市,26.846,40.419,10.834,9.211,0.582,57.226,-1.614,1.014,295.312,84.854,86997.113,31.86,104.704
四川,自贡市,33.355,47.669,10.911,17.299,0.795,65.95,-1.413,-0.572,301.624,70.257,95182.034,29.307,104.659
四川,资阳市,17.26,29.983,8.283,12.834,0.638,58.564,-2.023,0.592,301.783,69.958,95459.878,30.102,105.149
四川,达州市,18.56,31.656,11.207,12.259,0.505,66.004,-3.773,2.786,299.803,69.924,92858.279,31.335,107.636
四川,遂宁市,15.694,27.854,8.318,13.84,0.638,56.153,-2.472,1.134,301.921,68.781,95697.973,30.642,105.457
四川,阿坝藏族羌族自治州,30.027,44.02,10.229,1.875,0.35,68.463,-1.386,4.809,283.975,86.894,65409.614,32.406,102.61
四川,雅安市,32.856,45.699,6.973,5.462,0.479,75.021,-1.642,-0.448,290.735,91.468,79427.384,29.932,102.689
天津,天津市,36.058,75.974,9.413,24.548,0.691,176.464,0.712,6.213,304.382,33.204,100091.284,39.315,117.308
宁夏,中卫市,31.066,46.452,8.81,6.018,0.361,101.18,-0.144,-0.438,295.868,55.096,82937.141,37.018,105.509
宁夏,吴忠市,34.155,51.302,11.253,5.847,0.372,110.932,0.466,2.551,297.476,48.559,84391.857,37.454,106.577
宁夏,固原市,37.541,62.774,12.179,14.927,0.511,96.971,-0.874,3.121,291.497,83.668,80507.259,35.905,106.183
宁夏,石嘴山市,29.99,57.359,15.74,14.702,0.602,136.823,1.101,-1.353,298.117,44.727,85960.479,39.013,106.499
宁夏,银川市,30.127,57.966,12.454,12.157,0.517,128.001,-1.012,0.574,298.937,43.85,86217.682,38.287,106.342
安徽,亳州市,37.673,60.934,11.267,13.481,0.66,132.229,-1.876,3.493,301.621,52.658,100191.556,33.44,116.162
安徽,六安市,34.251,52.407,7.151,11.421,0.592,100.964,-1.625,2.509,299.561,71.555,97850.152,31.617,116.209
安徽,合肥市,40.978,59.575,7.355,20.82,0.695,95.248,-2.868,1.998,300.076,72.916,100150.916,31.766,117.359
安徽,安庆市,29.643,49.456,7.832,13.891,0.689,73.398,-0.82,0.955,299.107,77.393,98300.847,30.557,116.473
安徽,宣城市,26.112,37.965,6.529,15.133,0.54,67.437,-2.036,1.99,298.515,83.468,98307.03,30.676,118.846
安徽,宿州市,40.606,65.833,11.498,18.661,0.683,148.88,-3.044,3.568,300.898,54.003,100205.901,33.844,117.23
安徽,池州市,20.111,35.067,7.202,10.039,0.526,55.45,-0.343,2.448,299.667,81.981,98479.646,30.296,117.379
安徽,淮北市,40.166,62.963,14.514,19.051,0.685,147.032,-2.573,3.475,301.518,51.625,100217.32,33.722,116.747
安徽,淮南市,47.56,71.588,10.191,19.637,0.741,121.933,-2.394,2.577,300.582,65.125,100279.93,32.463,116.746
安徽,滁州市,38.462,63.072,7.814,20.899,0.601,120.945,-3.332,2.606,299.653,67.351,100094.741,32.55,118.076
安徽,芜湖市,30.584,46.466,7.764,17.904,0.644,75.636,-2.576,0.992,299.427,79.649,100347.839,31.167,118.162
安徽,蚌埠市,40.664,62.996,11.223,18.568,0.638,137.653,-2.818,3.102,301.025,57.213,100280.775,33.121,117.263
安徽,铜陵市,30.018,48.845,9.147,22.194,0.733,63.594,-1.499,0.909,299.486,81.036,100186.099,30.883,117.531
安徽,阜阳市,32.658,56.625,9.362,11.742,0.62,115.663,-2.091,3.233,301.308,55.876,100156.317,32.937,115.723
安徽,马鞍山市,31.795,52.216,7.11,20.672,0.656,88.89,-3.384,1.676,299.341,76.035,100369.136,31.622,118.386
安徽,黄山市,14.969,27.752,6.65,8.086,0.464,47.548,0.367,2.685,298.426,86.181,96415.404,29.869,118.09
山东,东营市,31.547,72.608,23.546,28.27,0.69,159.017,1.036,6.626,303.914,29.544,100395.901,37.57,118.572
山东,临沂市,29.144,66.128,11.905,21.826,0.58,145.143,-2.681,4.512,298.86,46.166,98886.236,35.289,118.27
山东,威海市,23.905,43.831,7.88,8.752,0.391,151.49,4.324,5.196,298.866,46.928,100052.455,37.148,122.028
山东,德州市,27.053,65.449,10.507,18.428,0.498,181.183,0.506,7.67,303.695,35.303,100191.374,37.233,116.679
山东,日照市,27.829,59.406,10.619,23.061,0.475,126.801,-1.774,5.099,297.408,51.43,99051.873,35.566,119.108
山东,枣庄市,33.188,69.092,10.574,19.595,0.624,153.716,-3.352,4.565,300.16,47.631,99522.131,34.925,117.383
山东,泰安市,25.792,65.268,12.242,16.83,0.555,166.403,-2.11,5.972,300.736,42.048,98671.076,35.993,117.04
山东,济南市,24.787,63.854,12.214,18.406,0.544,172.098,-0.404,7.351,301.672,37.915,98599.706,36.639,117.254
山东,济宁市,29.511,65.056,10.343,16.133,0.626,167.637,-2.778,5.465,301.528,44.094,99872.08,35.375,116.697
山东,淄博市,26.711,66.598,15.683,21.42,0.675,163.971,0.372,7.033,301.09,36.285,98064.627,36.623,118.062
山东,滨州市,28.971,67.562,16.354,24.162,0.636,171.026,1.464,6.757,304.12,30.84,100303.838,37.516,117.852
山东,潍坊市,25.289,58.313,10.8,17.819,0.475,144.823,-0.058,7.151,300.721,35.963,99506.38,36.53,119.092
山东,烟台市,23.937,50.038,7.904,13.246,0.428,140.227,2.564,6.379,300.244,36.988,99523.862,37.25,120.789
山东,聊城市,29.146,64.221,8.024,15.293,0.57,182.999,-1.219,7.344,303.343,38.614,99993.756,36.458,115.863
山东,菏泽市,29.264,61.531,8.51,15.864,0.711,160.014,-1.559,5.36,302.43,43.361,99950.733,35.134,115.69
山东,青岛市,23.064,51.034,7.735,19.032,0.398,125.167,0.566,6.399,298.719,45.729,100135.546,36.46,120.172
山西,临汾市,45.658,77.109,20.803,19.075,0.92,160.26,-0.244,4.04,298.192,46.292,89267.614,36.227,111.398
山西,吕梁市,46.185,76.782,18.701,27.929,0.873,119.647,0.82,4.651,297.727,40.578,86986.979,37.663,111.27
山西,大同市,39.699,67.728,14.576,16.838,0.871,128.824,2.426,4.43,298.134,37.194,86552.031,39.911,113.713
山西,太原市,49.056,108.427,17.177,36.623,0.922,131.57,1.587,3.845,297.708,39.24,86907.442,37.967,112.321
山西,忻州市,42.494,77.767,14.83,15.366,0.665,129.88,1.594,4.599,297.272,38.466,85488.65,38.877,112.391
山西,晋中市,48.503,89.653,15.756,31.397,0.896,151.01,1.267,3.907,297.819,41.29,87802.835,37.328,112.997
山西,晋城市,51.567,87.102,11.58,19.978,0.8,170.339,-0.192,4.417,297.443,52.278,89703.282,35.625,112.752
山西,朔州市,40.026,74.86,16.615,20.96,0.8,115.703,3.277,4.907,298.086,37.054,85904.046,39.619,112.655
山西,运城市,38.798,67.432,13.778,15.285,0.807,148.162,-2.426,3.216,300.964,47.139,93162.951,35.205,111.071
山西,长治市,48.542,81.239,11.958,18.293,0.796,173.477,1.212,4.152,297.392,45.972,88103.061,36.48,112.915
山西,阳泉市,45.719,92.273,17.872,32.479,0.906,147.855,1.973,4.046,300.024,36.067,89524.75,38.031,113.512
广东,东莞市,13.484,27.731,7.407,25.23,0.579,39.213,-2.747,6.299,301.13,82.213,100421.567,22.931,113.81
广东,中山市,6.48,13.42,3.677,11.033,0.338,36.677,-2.92,6.383,300.983,84.12,100398.563,22.5,113.383
广东,云浮市,8.764,13.085,1.577,7.859,0.377,40.225,-2.597,6.358,300.299,83.243,98309.021,22.776,111.818
广东,佛山市,12.887,24.135,6.338,28.441,0.583,34.455,-3.145,6.179,301.631,78.819,100377.962,23.035,112.979
广东,广州市,15.877,31.506,7.964,29.969,0.597,38.49,-3.304,6.089,300.808,80.791,99556.386,23.339,113.525
广东,惠州市,6.864,13.161,3.496,11.421,0.314,37.978,-2.582,5.458,299.832,84.262,98698.187,23.244,114.485
广东,揭阳市,8.426,19.939,3.869,7.601,0.647,35.368,-1.637,4.84,299.971,84.452,99388.917,23.323,116.123
广东,梅州市,10.557,22.384,4.462,10.436,0.683,38.766,-1.722,5.488,299.432,80.712,97372.049,24.169,116.07
广东,汕头市,4.111,11.573,4.143,7.414,0.362,38.786,-1.503,5.401,300.52,85.386,100503.756,23.339,116.614
广东,汕尾市,3.729,9.25,1.317,3.804,0.28,34.23,-1.891,4.986,299.604,86.791,99105.008,23.024,115.527
广东,江门市,4.545,8.36,1.402,6.579,0.225,39.279,-2.559,6.484,300.686,85.379,99801.484,22.289,112.676
广东,河源市,7.052,11.576,1.62,6.77,0.289,35.327,-1.463,5.711,299.609,80.551,97500.67,24.021,114.969
广东,深圳市,8.332,18.698,6.064,19.032,0.43,35.757,-2.952,6.497,300.551,85.578,99985.507,22.667,114.143
广东,清远市,14.357,24.427,7.244,22.954,0.518,51.401,-2.845,6.504,299.337,82.983,96872.23,24.295,112.871
广东,湛江市,12.421,20.678,3.51,6.801,0.45,52.232,0.741,5.49,302.507,76.035,100056.831,21.091,110.163
广东,潮州市,9.616,22.562,7.326,12.456,0.698,39.632,-1.584,4.629,299.355,87.144,98876.619,23.755,116.754
广东,珠海市,1.17,5.615,1.032,2.875,0.123,36.707,-2.98,7.005,300.897,86.583,100476.43,22.095,113.317
广东,肇庆市,11.663,17.156,2.893,15.045,0.443,44.238,-3.352,5.934,300.355,82.455,98424.5,23.505,112.199
广东,茂名市,9.882,17.276,3.33,6.111,0.421,50.155,-2.118,5.676,300.177,87.22,98361.678,22.013,110.952
广东,阳江市,5.825,9.065,1.422,4.437,0.232,43.255,-1.626,5.353,299.909,89.245,98933.749,22.042,111.786
广东,韶关市,12.402,21.211,9.218,16.019,0.639,48.998,-1.428,6.345,299.216,80.559,96153.998,24.785,113.819
广西,北海市,9.976,15.699,2.661,4.011,0.452,58.279,1.724,7.203,302.613,78.294,100021.109,21.674,109.37
广西,南宁市,10.416,19.648,5.253,9.446,0.628,41.142,-0.305,6.663,301.378,77.966,98093.401,23.051,108.469
广西,崇左市,9.057,17.04,4.962,4.93,0.464,43.448,2.354,5.964,301.296,73.093,96809.853,22.483,107.291
广西,来宾市,12.713,22.723,5.556,8.659,0.588,42.155,-2.244,7.119,300.311,81.856,97003.14,23.859,109.417
广西,柳州市,12.793,22.562,6.287,9.672,0.567,42.476,-2.215,6.917,299.941,82.218,96373.227,24.956,109.372
广西,桂林市,15.072,23.088,5.817,8.519,0.517,40.881,-2.238,6.623,298.938,82.703,94893.18,25.353,110.513
广西,梧州市,13.301,22.455,4.512,10.064,0.617,41.339,-2.564,5.832,300.435,81.483,97955.981,23.484,110.996
广西,河池市,10.136,18.075,6.176,6.948,0.664,44.824,-1.799,6.084,298.408,86.262,94029.723,24.628,107.843
广西,玉林市,12.572,24.439,5.031,8.088,0.628,46.941,-1.558,6.464,300.643,83.159,98333.569,22.452,110.164
广西,百色市,10.439,15.03,4.469,4.432,0.722,47.814,0.278,4.524,297.583,84.403,91971.071,23.981,106.292
广西,贵港市,14.659,28.621,6.289,10.288,0.75,42.348,-1.511,6.031,301.247,79.428,98687.492,23.322,110.021
广西,贺州市,14.444,20.793,4.218,8.228,0.547,45.361,-3.317,6.542,299.099,84.727,96209.909,24.364,111.394
广西,钦州市,11.57,19.39,3.633,6.403,0.625,52.362,0.711,6.954,301.978,79.254,99277.233,22.173,109.01
广西,防城港市,8.486,14.749,3.38,3.579,0.497,52.859,2.422,6.762,301.281,78.72,97693.369,21.88,108.002
新疆,乌鲁木齐市,13.478,21.808,2.31,7.875,0.217,92.314,-0.761,1.322,293.912,30.728,83696.837,43.746,87.818
新疆,五家渠市,21.75,37.283,4.01,16.133,0.31,86.053,-4.123,1.4,301.95,22.437,95282.22,44.363,87.517
新疆,伊犁哈萨克自治州,5.091,8.356,1.616,3.044,0.178,87.11,-0.292,1.818,289.368,48.083,79963.32,43.438,82.146
新疆,克孜勒苏柯尔克孜自治州,1.702,3.661,0.334,1.183,0.162,97.794,2.422,-1.601,282.58,52.782,70387.641,39.661,75.949
新疆,克拉玛依市,9.393,15.21,2.96,4.957,0.286,96.558,-1.737,-0.512,302.894,22.754,96037.713,45.457,85.207
新疆,北屯市,8.018,9.564,2.53,2.308,0.222,77.944,-1.308,0.15,300.606,24.972,94344.54,47.27,87.868
新疆,博尔塔拉蒙古自治州,7.985,11.143,2.278,2.272,0.159,88.794,-0.257,1.303,293.843,35.646,85500.829,44.714,82.114
新疆,双河市,8.968,13.044,2.894,3.122,0.16,85.446,-1.566,-0.336,302.266,20.586,96464.448,44.87,82.474
新疆,可克达拉市,10.176,22.712,4.326,9.606,0.328,90.778,-1.898,0.554,298.86,35.18,93624.604,43.918,80.786
新疆,和田地区,13.133,17.152,0.413,0.691,0.112,79.094,-0.898,-0.231,288.736,43.252,73642.359,37.059,80.934
新疆,哈密市,7.182,8.689,0.894,1.634,0.145,89.9,1.087,-1.944,297.539,26.043,87492.474,43.042,93.517
新疆,喀什地区,5.1,8.361,0.665,2.041,0.157,85.316,2.14,0.135,288.771,42.493,75733.849,38.125,77.178
新疆,图木舒克市,6.813,7.232,0.933,0.865,0.12,71.548,-2.208,0.098,299.257,30.117,88342.642,39.892,79.182
新疆,塔城地区,8.309,10.586,2.503,2.641,0.192,95.598,-0.651,1.123,297.009,29.622,88724.396,45.642,84.789
新疆,巴音郭楞蒙古自治州,11.882,14.694,0.558,0.498,0.107,79.466,-2.474,-0.313,291.805,42.192,78681.912,39.463,87.481
新疆,新星市,9.06,18.455,2.205,8.815,0.3,107.565,-3.39,-0.155,301.89,19.275,91603.955,42.75,93.68
新疆,昆玉市,23.863,52.627,1.833,3.05,0.137,74.46,-1.72,-1.04,299.717,26.61,86123.71,37.457,79.093
新疆,昌吉回族自治州,10.971,14.53,1.901,4.533,0.175,91.311,-1.447,0.775,297.53,27.626,89045.712,44.342,88.608
新疆,石河子市,18.86,25.595,5.58,12.12,0.265,101.265,-1.61,1.955,301.455,22.125,93492.81,44.245,86.035
新疆,胡杨河市,13.072,17.216,4.264,5.614,0.366,108.034,-0.612,0.692,302.656,24.76,96462.49,44.852,84.772
新疆,铁门关市,15.333,73.007,2.977,6.54,0.203,105.613,-1.807,-1.07,301.13,25.333,90664.097,41.773,85.66
新疆,阿克苏地区,9.209,11.351,1.054,1.098,0.129,85.283,-0.524,-0.844,295.239,40.126,84595.609,40.965,81.578
新疆,阿勒泰地区,7.209,7.972,1.664,1.252,0.153,84.404,-0.052,-0.47,296.071,30.402,87777.659,46.902,88.421
新疆,阿拉尔市,10.332,14.692,1.31,1.713,0.139,92.165,-1.299,-1.905,299.135,33.753,89182.229,40.629,80.998
江苏,南京市,34.618,55.709,7.645,20.034,0.565,102.024,-3.79,2.097,298.995,75.161,100452.599,31.899,118.876
江苏,南通市,26.568,37.427,7.512,15.305,0.363,91.738,-4.536,2.656,296.318,78.439,100767.052,32.201,120.979
江苏,宿迁市,49.772,73.507,9.465,19.484,0.671,143.566,-3.554,3.661,299.245,58.15,100540.484,33.765,118.495
江苏,常州市,32.956,51.316,6.714,21.442,0.586,94.493,-4.183,2.243,297.794,81.039,100564.431,31.613,119.666
江苏,徐州市,40.025,69.939,10.216,19.066,0.673,148.38,-3.441,4.027,300.354,51.818,100225.008,34.363,117.513
江苏,扬州市,44.372,67.373,8.632,23.149,0.658,115.829,-3.798,3.141,298.109,68.778,100655.527,32.709,119.486
江苏,无锡市,31.51,49.784,7.6,23.412,0.614,89.796,-4.406,2.325,297.097,83.605,100508.146,31.546,120.066
江苏,泰州市,37.934,57.933,8.663,22.933,0.608,104.665,-4.225,3.04,297.4,71.013,100661.458,32.605,120.048
江苏,淮安市,48.171,67.69,8.452,19.457,0.643,131.681,-3.591,3.428,298.764,61.364,100567.413,33.362,118.985
江苏,盐城市,29.142,41.712,6.185,11.917,0.404,100.363,-4.45,3.798,296.602,67.267,100723.425,33.529,120.156
江苏,苏州市,25.929,40.072,7.568,22.922,0.514,86.974,-4.675,1.958,296.54,86.24,100701.882,31.374,120.661
江苏,连云港市,37.559,59.464,8.414,17.526,0.535,124.555,-3.642,4.108,298.251,53.123,100472.095,34.519,119.133
江苏,镇江市,38.55,62.926,7.754,23.689,0.636,103.982,-4.242,2.465,297.997,77.822,100537.95,32.016,119.49
江西,上饶市,16.599,26.594,6.101,8.223,0.5,42.135,1.348,3.715,300.657,77.804,98395.832,28.778,117.47
江西,九江市,20.088,35.998,6.757,9.061,0.572,56.767,0.041,3.696,300.533,79.162,98240.821,29.313,115.444
江西,南昌市,13.078,27.147,6.366,11.817,0.614,44.314,1.445,4.634,302.185,74.045,100081.427,28.671,116.016
江西,吉安市,10.421,18.46,7.073,6.92,0.486,44.18,-0.193,6.657,301.366,71.859,97943.316,26.954,114.831
江西,宜春市,16.825,29.437,6.129,8.418,0.586,45.049,0.428,4.203,300.983,77.382,98230.375,28.29,114.974
江西,抚州市,8.829,13.139,3.267,5.248,0.29,43.309,1.479,5.772,301.071,73.448,98018.436,27.514,116.42
江西,新余市,13.753,26.487,7.9,10.657,0.617,36.135,-0.201,5.405,301.837,73.52,99116.867,27.847,114.836
江西,景德镇市,17.165,30.06,6.355,7.91,0.501,39.963,0.398,3.32,300.705,80.044,99164.926,29.287,117.24
江西,萍乡市,13.63,24.36,7.673,8.826,0.645,37.877,-0.194,5.075,301.188,71.408,96917.208,27.505,113.908
江西,赣州市,10.255,15.358,4.481,7.424,0.662,43.773,-0.344,6.488,299.654,77.807,96491.439,25.692,115.279
江西,鹰潭市,11.353,16.889,4.093,6.806,0.337,44.615,2.284,5.54,301.524,72.949,98905.009,28.222,117.094
河北,保定市,47.427,85.949,13.174,18.362,0.641,177.242,0.557,5.408,303.657,32.595,96506.39,39.018,115.159
河北,唐山市,36.785,74.536,17.063,34.836,0.875,161.095,0.539,5.096,301.956,38.935,99681.881,39.731,118.354
河北,廊坊市,39.96,76.062,9.617,19.749,0.611,177.382,1.147,7.05,305.747,29.63,100076.608,39.267,116.632
河北,张家口市,47.097,70.75,9.857,11.629,0.512,139.5,0.96,3.504,297.313,42.195,86993.242,40.877,115.042
河北,承德市,46.4,72.686,12.116,13.455,0.557,127.888,0.835,3.92,296.786,50.026,90217.634,41.339,117.578
河北,沧州市,32.015,67.514,13.296,19.987,0.531,177.029,1.205,7.504,304.899,31.632,100196.339,38.258,116.744
河北,石家庄市,43.385,88.661,15.738,24.061,0.76,161.986,-0.512,5.354,304.605,30.916,96982.725,38.135,114.407
河北,秦皇岛市,42.292,78.755,17.859,32.082,0.922,154.66,2.342,4.172,300.382,41.313,97568.673,40.12,119.193
河北,衡水市,30.861,63.7,10.318,15.47,0.495,176.327,-0.046,8.105,304.868,32.696,100043.399,37.755,115.813
河北,邢台市,33.618,68.306,9.912,16.076,0.709,162.068,-0.39,7.413,304.538,32.923,98600.259,37.195,114.815
河北,邯郸市,32.592,65.901,9.365,16.668,0.742,161.379,-0.328,6.562,303.664,35.496,98203.631,36.538,114.596
河南,三门峡市,42.369,66.179,12.681,10.85,0.695,122.885,-0.638,4.818,298.253,59.501,90936.517,34.362,111.101
河南,信阳市,30.277,48.102,7.789,10.638,0.527,99.42,-1.719,2.979,300.561,66.047,99213.768,32.091,114.907
河南,南阳市,32.865,55.937,7.105,15.217,0.756,99.05,-1.899,3.044,300.947,59.243,97110.987,33.034,112.323
河南,周口市,26.665,51.455,8.563,13.693,0.691,126.176,-1.654,3.631,301.855,47.978,99898.822,33.738,114.884
河南,商丘市,32.944,60.128,10.619,14.47,0.716,144.684,-1.781,4.005,301.734,47.761,100008.417,34.277,115.718
河南,安阳市,32.297,62.577,9.219,15.253,0.712,158.78,-0.041,6.328,303.169,37.906,97854.053,35.888,114.318
河南,平顶山市,31.961,54.476,6.863,17.966,0.756,110.42,-0.781,4.332,301.778,52.963,97726.012,33.8,113.025
河南,开封市,26.028,55.83,7.382,15.178,0.708,135.633,-1.119,4.666,302.48,43.396,99613.141,34.594,114.514
河南,新乡市,32.092,63.873,9.624,17.676,0.725,146.153,0.051,5.193,302.995,41.289,98674.652,35.256,114.111
河南,洛阳市,40.422,65.709,10.531,13.944,0.781,124.805,-0.391,4.052,299.369,57.968,93245.649,34.274,112.019
河南,济源市,46.601,78.806,11.585,21.228,0.861,149.477,-0.964,2.328,300.965,49.253,95020.499,35.105,112.445
河南,漯河市,25.249,48.677,7.351,16.087,0.671,115.869,-1.573,4.108,302.658,47.167,99690.972,33.652,113.945
河南,濮阳市,28.092,61.466,7.524,16.685,0.692,164.399,-1.073,6.422,303.322,37.976,99867.716,35.809,115.283
河南,焦作市,42.988,81.388,10.395,24.179,0.844,145.031,-0.206,2.27,303.422,42.722,98448.449,35.121,113.163
河南,许昌市,27.662,53.99,7.064,20.86,0.783,117.574,-1.099,4.138,302.468,47.663,99035.564,34.075,113.707
河南,郑州市,32.055,62.599,7.733,22.705,0.822,126.671,-0.453,4.979,302.346,46.848,97758.894,34.634,113.438
河南,驻马店市,28.121,48.755,7.278,12.591,0.57,106.745,-1.814,3.846,301.603,54.575,99432.392,32.925,114.174
河南,鹤壁市,30.378,59.574,9.699,14.633,0.691,150.886,0.188,6.629,303.637,38.448,98975.471,35.716,114.319
浙江,丽水市,11.731,16.076,4.365,7.047,0.323,49.894,2.803,3.661,298.123,80.961,93948.93,28.194,119.51
浙江,台州市,20.242,30.412,5.633,10.974,0.387,73.938,-0.233,2.406,298.273,90.326,98072.725,28.742,121.109
浙江,嘉兴市,19.439,28.775,3.234,16.372,0.377,83.485,-4.837,0.788,296.517,91.363,100698.425,30.635,120.754
浙江,宁波市,19.654,26.418,4.695,12.946,0.43,74.752,-2.965,0.553,296.941,94.244,99532.541,29.706,121.49
浙江,杭州市,25.507,37.276,6.478,18.484,0.604,65.117,-1.141,0.687,298.013,85.923,97818.703,29.891,119.464
浙江,温州市,14.873,23.851,6.1,13.935,0.432,57.386,1.463,3.728,299.128,82.744,96927.692,27.897,120.411
浙江,湖州市,30.29,41.9,5.421,23.229,0.566,84.186,-3.693,1.376,297.18,87.84,99408.184,30.757,119.871
浙江,绍兴市,25.262,33.58,5.676,16.19,0.566,74.971,-2.009,1.149,298.489,85.52,98646.356,29.709,120.64
浙江,舟山市,10.512,14.715,1.775,2.402,0.155,79.995,-5.042,-0.4,296.4,96.278,100547.338,30.038,122.23
浙江,衢州市,15.069,24.548,5.898,11.401,0.522,47.415,1.957,2.849,299.486,80.503,97083.66,28.912,118.675
浙江,金华市,19.452,28.234,5.738,15.371,0.504,64.409,0.401,1.703,299.362,81.032,97338.571,29.109,119.967
海南,万宁市,4.858,7.913,1.109,2.058,0.198,57.438,2.094,5.534,301.568,81.666,99182.026,18.842,110.294
海南,三亚市,6.289,10.479,1.619,5.863,0.416,55.666,2.066,3.063,300.579,82.181,98025.833,18.413,109.407
海南,东方市,4.762,6.557,1.075,1.516,0.185,59.9,0.808,6.434,301.662,73.297,98569.188,18.971,108.838
海南,临高县,7.963,12.55,1.734,4.996,0.264,46.911,1.616,3.939,303.356,63.877,99657.046,19.821,109.733
海南,乐东黎族自治县,5.906,8.197,0.935,2.295,0.25,57.685,0.932,3.722,299.903,83.347,97144.228,18.659,109.072
海南,五指山市,6.546,8.602,1.162,2.842,0.21,52.56,2.85,4.318,298.428,82.342,94015.748,18.81,109.518
海南,儋州市,5.439,7.819,1.219,2.767,0.201,52.691,3.054,4.645,303.554,61.717,99321.248,19.568,109.399
海南,定安县,8.125,14.893,1.915,5.672,0.327,46.352,0.36,4.38,302.232,75.567,99413.14,19.47,110.28
海南,屯昌县,6.398,10.002,1.234,3.754,0.25,48.152,0.962,4.058,302.228,71.4,98649.404,19.342,110.076
海南,文昌市,4.888,9.876,1.152,2.711,0.225,52.774,0.0,5.922,302.253,81.443,100177.193,19.707,110.773
海南,昌江黎族自治县,4.987,6.568,1.25,2.056,0.181,57.399,2.34,6.597,301.474,70.703,97555.408,19.233,109.016
海南,海口市,9.485,18.118,2.714,7.458,0.371,45.25,0.284,4.337,302.548,75.183,99958.715,19.842,110.393
海南,澄迈县,8.53,14.66,2.316,6.621,0.321,44.516,0.601,3.73,302.904,67.954,99509.427,19.676,109.989
海南,琼中黎族苗族自治县,5.683,7.874,1.074,2.77,0.208,51.139,2.887,4.726,300.977,72.373,96531.879,19.087,109.847
海南,琼海市,6.15,10.552,1.525,3.413,0.237,52.537,0.713,4.692,302.32,78.682,99967.925,19.22,110.43
海南,白沙黎族自治县,4.954,6.442,0.975,1.99,0.186,54.216,3.294,5.849,301.022,69.745,96239.021,19.2,109.388
海南,陵水黎族自治县,5.754,8.541,1.3,3.84,0.269,55.667,3.014,3.64,301.106,80.836,98545.343,18.581,109.913
湖北,仙桃市,23.831,43.416,6.025,16.084,0.732,67.761,-1.399,3.477,302.497,73.363,100070.209,30.284,113.417
湖北,十堰市,36.222,51.147,11.666,6.712,0.606,86.477,-2.73,1.229,298.501,69.47,92395.396,32.462,110.476
湖北,咸宁市,19.941,31.668,5.496,8.017,0.586,62.382,-0.071,4.819,301.349,75.982,98351.964,29.621,114.178
湖北,天门市,28.765,53.011,6.045,20.087,0.872,74.015,-2.279,2.641,302.612,70.425,100004.122,30.633,113.053
湖北,孝感市,28.614,48.566,6.778,17.552,0.783,80.671,-2.774,2.926,301.192,71.22,99497.262,31.116,113.869
湖北,宜昌市,32.038,48.921,6.655,9.627,0.702,74.152,-1.052,2.258,298.449,77.404,93230.961,30.746,111.129
湖北,恩施土家族苗族自治州,22.32,34.187,9.197,4.354,0.645,53.988,-3.046,3.137,295.633,86.096,88853.98,30.195,109.552
湖北,武汉市,27.16,45.593,7.195,20.002,0.882,77.228,-2.282,3.09,301.548,71.095,100032.39,30.606,114.349
湖北,潜江市,29.131,51.214,6.15,21.647,0.821,68.357,-1.832,3.042,302.904,70.497,99991.176,30.33,112.77
湖北,神农架林区,34.634,43.466,7.588,1.909,0.43,83.297,-0.232,4.938,292.169,89.317,82590.487,31.592,110.49
湖北,荆州市,25.828,45.103,6.69,17.26,0.785,65.097,-1.013,3.296,302.934,69.577,99759.705,30.01,112.512
湖北,荆门市,31.436,53.039,5.847,17.366,0.823,82.385,-2.453,2.547,301.806,68.559,99020.957,31.059,112.616
湖北,襄阳市,34.391,52.109,6.994,8.969,0.727,92.887,-2.036,3.974,300.471,67.461,96376.973,31.919,111.96
湖北,鄂州市,27.976,45.543,8.777,19.873,0.951,77.91,-1.826,3.14,301.789,69.657,100102.767,30.337,114.794
湖北,随州市,31.266,48.878,6.979,11.778,0.663,92.471,-2.973,2.895,300.297,69.072,98411.46,31.809,113.43
湖北,黄冈市,27.925,44.728,8.044,12.123,0.704,81.876,-2.336,2.427,300.475,70.997,98483.818,30.702,115.358
湖北,黄石市,25.638,42.539,7.974,12.77,0.78,70.04,-1.469,3.18,301.002,74.25,99188.355,29.925,115.034
湖南,娄底市,14.195,24.266,9.066,7.826,0.817,48.076,-1.567,5.461,300.439,77.316,96205.227,27.715,111.632
湖南,岳阳市,19.024,30.696,6.256,11.205,0.564,60.673,-0.929,5.189,302.059,73.732,98989.811,29.081,113.275
湖南,常德市,17.65,31.225,6.943,10.057,0.79,53.912,-1.254,2.64,301.922,72.277,98123.172,29.271,111.524
湖南,张家界市,16.504,30.915,7.169,6.676,0.786,48.198,-2.451,1.168,298.734,81.985,94370.076,29.379,110.526
湖南,怀化市,12.522,25.476,5.685,5.768,0.856,40.728,-1.831,4.59,300.221,76.229,95234.194,27.535,110.071
湖南,株洲市,11.87,20.855,9.067,9.164,0.555,46.823,0.233,5.96,301.548,68.811,97020.705,27.109,113.513
湖南,永州市,12.546,18.541,5.981,6.233,0.498,51.561,-1.194,7.096,299.962,76.415,95637.35,25.748,111.723
湖南,湘潭市,12.762,22.169,7.456,9.906,0.685,52.355,-0.532,5.73,302.608,70.196,99097.369,27.744,112.619
湖南,湘西土家族苗族自治州,15.573,29.423,6.605,6.723,0.849,37.421,-3.19,2.594,298.856,82.949,94254.659,28.708,109.718
湖南,益阳市,14.64,24.015,6.305,8.017,0.761,53.342,-1.431,5.338,301.735,73.512,97681.047,28.525,111.919
湖南,衡阳市,11.974,21.774,9.223,8.998,0.595,54.404,-0.918,6.46,302.493,68.398,98669.117,26.781,112.565
湖南,邵阳市,14.103,23.597,6.347,5.694,0.638,46.262,-1.644,5.68,299.309,78.128,94057.251,26.893,110.881
湖南,郴州市,10.933,21.282,13.331,11.045,0.808,58.617,-1.221,7.741,299.399,76.604,94944.32,25.769,113.109
湖南,长沙市,15.189,26.693,7.204,11.456,0.673,53.974,-0.954,5.09,301.852,73.319,98561.096,28.235,113.159
甘肃,临夏回族自治州,37.731,75.523,10.228,6.695,0.425,93.478,-3.346,-0.178,290.579,75.697,77063.432,35.617,103.291
甘肃,兰州市,30.628,54.974,6.501,5.684,0.286,94.135,-4.182,-2.119,292.436,62.968,78664.243,36.359,103.633
甘肃,嘉峪关市,12.927,42.713,7.117,17.33,0.408,89.765,4.107,-1.388,293.598,38.558,81266.812,39.798,98.145
甘肃,天水市,39.23,59.814,12.667,6.956,0.438,76.674,-2.055,4.248,292.473,86.081,82103.307,34.645,105.739
甘肃,定西市,39.374,65.154,12.817,4.5,0.42,86.524,-2.959,2.255,289.882,85.674,76874.39,35.124,104.432
甘肃,平凉市,38.439,63.398,10.85,13.238,0.538,93.505,-0.527,3.396,294.274,75.144,83880.78,35.304,106.644
甘肃,庆阳市,35.052,58.875,12.64,9.757,0.568,107.694,-0.248,3.495,295.765,61.345,85123.553,36.149,107.596
甘肃,张掖市,14.508,18.21,1.895,2.662,0.142,80.349,0.82,-0.686,286.964,69.689,74518.495,38.94,99.855
甘肃,武威市,23.716,28.632,3.119,2.501,0.166,80.106,0.609,-1.636,292.855,62.624,80927.254,38.163,103.073
甘肃,甘南藏族自治州,39.978,53.698,11.178,1.714,0.344,90.491,-3.331,2.213,284.775,88.723,67555.169,34.331,102.768
甘肃,白银市,31.103,49.11,8.059,4.702,0.303,91.576,-1.64,-1.404,293.772,63.664,80972.428,36.59,104.646
甘肃,酒泉市,9.854,11.094,0.839,1.38,0.118,80.096,-0.232,-1.71,291.28,39.585,78756.838,40.236,96.062
甘肃,金昌市,18.079,25.096,5.006,4.759,0.171,84.86,1.294,-1.797,292.139,60.989,80213.552,38.44,102.048
甘肃,陇南市,34.106,55.521,16.468,5.815,0.489,64.195,-2.007,3.845,291.531,92.718,81648.439,33.599,105.224
福建,三明市,8.172,13.55,4.524,9.027,0.516,41.123,1.439,5.032,298.757,78.259,94601.146,26.29,117.395
福建,南平市,10.257,15.767,4.873,7.089,0.362,48.477,1.378,3.704,298.915,79.259,95315.713,27.324,118.143
福建,厦门市,9.512,21.282,6.765,14.988,0.363,38.15,0.593,4.73,299.382,89.633,99776.787,24.642,118.11
福建,宁德市,10.478,20.22,6.102,8.992,0.371,54.657,2.202,4.229,298.227,82.858,94710.487,26.968,119.474
福建,泉州市,9.608,20.3,5.476,13.081,0.405,40.711,1.046,5.63,298.051,87.151,96095.369,25.201,118.249
福建,漳州市,6.372,13.745,3.13,8.942,0.308,35.902,-0.263,4.694,298.695,87.384,97658.377,24.372,117.444
福建,福州市,9.979,22.543,6.255,12.411,0.42,48.895,2.535,5.698,299.071,82.363,96775.828,26.083,119.206
福建,莆田市,10.309,23.584,5.884,13.497,0.429,44.011,2.093,5.772,298.475,88.415,97582.178,25.445,118.864
福建,龙岩市,8.454,15.867,4.553,10.731,0.46,38.102,-0.236,5.782,298.16,81.936,94630.675,25.256,116.739
西藏,山南市,21.585,23.996,2.307,1.338,0.194,118.83,1.451,2.954,283.992,83.15,66056.398,28.295,92.274
西藏,拉萨市,10.751,15.222,1.621,1.703,0.168,113.819,1.72,3.27,281.011,69.299,56729.338,30.043,91.093
西藏,日喀则市,10.255,11.073,1.14,0.485,0.156,110.969,4.81,1.236,279.866,55.501,55524.808,29.483,86.493
西藏,昌都市,14.872,15.857,1.281,0.64,0.161,127.128,3.267,3.191,282.061,67.49,59160.013,30.753,97.044
西藏,林芝市,22.941,24.868,2.104,1.505,0.184,109.948,0.318,2.334,283.041,89.727,66326.915,29.184,95.25
西藏,玉树藏族自治州,7.481,7.898,0.324,0.332,0.105,76.051,-1.769,-0.139,278.438,79.661,57489.107,34.196,94.317
西藏,那曲市,6.174,6.904,0.348,0.232,0.13,89.814,2.955,0.046,281.207,51.162,55597.731,32.709,89.262
西藏,阿里地区,2.69,2.856,0.303,0.31,0.132,86.781,4.639,-1.333,277.74,43.315,55099.137,33.013,82.553
贵州,六盘水市,14.182,23.192,5.154,8.303,0.496,59.162,-1.466,1.043,292.385,92.155,82436.628,26.106,104.896
贵州,安顺市,7.612,14.389,2.976,4.968,0.284,47.542,-2.593,2.789,294.89,91.335,87318.807,25.986,105.978
贵州,毕节市,15.755,27.071,5.688,8.905,0.507,54.345,-1.405,2.499,293.013,88.508,82776.828,27.063,105.211
贵州,贵阳市,8.799,19.788,2.948,14.734,0.464,33.695,-1.699,4.825,295.331,87.539,87381.122,26.845,106.71
贵州,遵义市,14.37,21.934,5.85,6.556,0.363,52.133,-3.4,3.944,296.673,84.953,89477.523,28.167,107.102
贵州,铜仁市,14.36,27.09,8.142,5.369,0.535,43.29,-2.925,3.838,297.599,85.036,91814.239,27.937,108.534
贵州,黔东南苗族侗族自治州,11.349,21.789,7.848,5.156,0.444,43.581,-2.263,5.602,297.184,87.574,91732.82,26.495,108.574
贵州,黔南布依族苗族自治州,9.245,17.363,4.822,5.049,0.337,40.801,-2.504,4.659,295.612,92.56,89491.674,26.0,107.265
贵州,黔西南布依族苗族自治州,8.838,14.924,3.242,3.829,0.323,53.851,-1.471,1.919,295.199,89.428,87670.596,25.256,105.467
辽宁,丹东市,47.622,71.625,16.72,10.959,0.806,138.099,0.911,2.311,295.479,69.31,97636.545,40.554,124.376
辽宁,大连市,40.062,60.41,13.391,18.432,0.757,166.512,4.333,4.093,299.021,49.724,99711.811,39.591,122.22
辽宁,抚顺市,37.39,58.754,12.105,17.06,0.825,121.392,0.342,1.214,296.547,59.223,95953.503,41.841,124.65
辽宁,朝阳市,43.514,72.812,17.523,18.684,0.881,135.457,1.617,2.418,300.85,44.598,95316.201,41.545,120.053
辽宁,本溪市,44.351,69.165,15.184,13.925,0.946,123.592,1.923,2.052,296.254,61.651,95352.145,41.232,124.544
辽宁,沈阳市,41.65,74.71,17.11,30.64,1.028,172.815,-1.433,1.791,299.724,49.504,99766.603,42.081,123.159
辽宁,盘锦市,48.582,78.481,18.017,20.245,1.047,209.299,1.075,4.619,298.031,57.914,100339.415,41.13,122.01
辽宁,营口市,39.023,64.188,14.423,17.347,0.846,191.46,4.4,4.886,299.01,46.151,98346.695,40.395,122.478
辽宁,葫芦岛市,50.835,82.232,20.532,25.578,1.003,164.922,3.949,3.777,301.545,39.94,97928.815,40.66,120.215
辽宁,辽阳市,44.427,77.627,17.536,23.834,1.256,173.805,2.617,4.025,299.102,47.938,98516.257,41.153,123.261
辽宁,铁岭市,21.613,40.326,6.686,28.002,0.554,120.418,-3.213,-0.304,297.969,49.217,98376.817,42.653,124.158
辽宁,锦州市,49.5,75.87,18.73,22.316,0.947,174.419,-0.547,2.517,300.103,51.01,99514.656,41.502,121.659
辽宁,阜新市,34.893,54.634,13.635,17.347,0.654,149.857,-3.381,1.048,300.442,48.276,98148.368,42.289,121.968
辽宁,鞍山市,41.946,70.966,15.377,17.946,0.987,181.282,2.474,3.7,298.856,49.601,98592.512,40.731,123.007
重庆,重庆城区,17.08,28.953,9.811,13.255,0.517,59.332,-3.595,2.73,300.51,70.435,93762.332,29.824,107.125
重庆,重庆郊县,21.914,33.381,11.761,5.138,0.49,64.198,-3.66,2.872,297.427,78.446,90255.623,30.334,108.755
陕西,咸阳市,35.313,66.021,9.472,19.167,0.84,114.777,-2.113,2.426,299.91,52.52,90464.897,34.779,108.367
陕西,商洛市,41.863,62.249,12.879,8.143,0.631,92.867,-1.833,2.613,295.491,72.749,88633.366,33.64,109.889
陕西,安康市,34.208,49.055,9.793,4.909,0.505,78.398,-2.538,1.534,296.525,74.255,89090.36,32.735,108.932
陕西,宝鸡市,37.482,62.646,7.436,13.71,0.544,85.418,-1.049,3.164,295.367,73.105,85639.656,34.386,107.193
陕西,延安市,35.649,63.221,15.031,18.92,0.79,100.452,-0.159,4.363,297.179,52.114,86827.564,36.432,109.316
陕西,榆林市,35.948,60.559,15.681,16.751,0.761,114.127,0.909,5.565,299.074,40.663,87110.563,38.041,109.581
陕西,汉中市,32.784,49.882,11.219,7.147,0.515,70.001,-3.009,1.896,295.621,80.992,88152.115,33.088,107.098
陕西,渭南市,36.227,64.242,12.648,19.059,0.8,122.701,-1.67,2.174,301.308,47.853,92719.267,34.919,109.855
陕西,西安市,35.566,59.319,8.631,11.32,0.68,99.429,-1.224,4.929,298.693,60.417,89592.458,34.12,108.77
陕西,铜川市,37.793,64.143,11.992,19.179,0.924,118.253,-1.377,3.384,298.439,52.646,88347.841,35.198,109.058
青海,保亭黎族苗族自治县,7.142,10.738,2.174,7.38,0.342,52.412,3.252,2.906,299.836,81.974,96460.14,18.566,109.618
青海,吐鲁番市,9.316,11.673,1.549,2.026,0.145,82.428,-1.261,-0.546,299.64,22.442,89380.738,42.386,89.851
青海,果洛藏族自治州,16.112,16.65,1.858,0.638,0.137,73.123,-0.393,0.121,280.645,82.291,60119.08,34.127,99.404
青海,海东市,33.513,40.83,7.088,4.16,0.236,85.213,-5.443,-0.617,287.468,76.286,72581.302,36.347,102.34
青海,海北藏族自治州,20.407,21.849,2.571,0.996,0.14,77.489,-2.489,-1.768,280.271,88.316,65506.296,37.775,100.288
青海,海南藏族自治州,28.678,30.446,4.968,1.38,0.2,79.842,-2.763,-1.97,283.603,83.071,66471.864,35.89,100.272
青海,海西蒙古族藏族自治州,11.493,11.776,0.636,0.359,0.107,74.503,-0.146,-1.062,282.127,64.23,64607.825,36.677,94.519
青海,西宁市,30.359,44.916,5.731,6.899,0.403,84.745,-3.584,-0.775,284.576,82.929,69529.858,36.842,101.423
青海,黄南藏族自治州,40.839,43.839,8.785,1.459,0.261,86.56,-4.336,1.046,283.989,85.485,65775.803,35.022,101.631
香港,香港特别行政区,1.87,6.86,1.98,10.66,0.15,34.985,-2.99,6.705,300.47,87.385,100177.035,22.45,114.22
黑龙江,七台河市,8.784,16.541,2.802,6.837,0.245,55.621,0.681,-2.871,288.892,69.277,97440.722,45.87,130.943
黑龙江,伊春市,6.107,8.9,0.916,1.552,0.192,53.031,-0.222,-3.573,288.588,63.314,96135.111,47.772,129.184
黑龙江,佳木斯市,5.73,9.047,1.437,3.237,0.202,50.22,-0.762,-3.403,287.918,67.861,99410.965,47.207,132.11
黑龙江,双鸭山市,6.63,10.104,1.673,3.394,0.196,51.31,0.294,-3.039,286.974,72.099,98972.236,46.722,132.643
黑龙江,哈尔滨市,8.108,12.557,1.52,5.401,0.239,62.963,-1.065,-2.397,292.117,58.119,97764.357,45.634,127.964
黑龙江,大兴安岭地区,9.928,10.842,0.546,1.028,0.197,60.036,-3.402,2.719,289.67,58.62,94480.477,52.286,124.212
黑龙江,大庆市,7.899,13.375,4.205,7.862,0.277,67.711,-3.456,-1.889,295.091,46.29,99043.471,46.327,124.687
黑龙江,牡丹江市,10.725,16.325,1.953,5.243,0.225,63.355,0.319,-3.047,289.406,70.121,94721.775,44.592,129.883
黑龙江,绥化市,5.977,8.978,0.87,3.499,0.229,57.922,-2.204,-3.214,292.263,55.186,98324.683,46.89,126.634
黑龙江,鸡西市,10.317,15.32,2.601,5.289,0.23,53.855,0.443,-2.8,287.829,72.855,98660.409,45.626,132.289
黑龙江,鹤岗市,5.688,9.594,1.21,2.646,0.213,52.071,0.526,-3.337,288.7,64.491,98468.666,47.661,130.778
黑龙江,黑河市,5.329,7.984,0.645,1.553,0.207,57.957,-2.156,-2.84,288.92,61.516,96615.551,49.268,127.004
黑龙江,齐齐哈尔市,6.324,8.81,1.981,4.087,0.223,61.061,-3.633,-1.086,293.111,52.533,98331.941,47.715,124.57
