province,city,PM2.5,PM10,SO2,NO2,CO,O3,U,V,TEMP,RH,PSFC,lat,lon
上海,上海市,12.794,18.328,5.156,17.924,0.359,99.543,-5.607,-0.525,293.962,87.024,100646.619,31.173,121.42
云南,临沧市,7.778,10.675,1.626,2.982,0.368,41.664,6.179,0.904,293.427,84.882,83418.176,23.935,99.686
云南,丽江市,14.479,23.565,6.559,3.639,0.375,64.337,4.231,0.952,290.851,70.737,74212.826,26.96,100.515
云南,保山市,8.635,13.946,2.344,4.444,0.356,44.827,5.467,1.261,292.113,87.796,81428.875,24.953,98.962
云南,大理白族自治州,10.71,17.045,2.872,2.989,0.279,54.868,6.75,0.463,291.409,78.455,77663.615,25.726,100.053
云南,德宏傣族景颇族自治州,8.458,11.199,1.924,5.544,0.332,39.619,3.837,1.461,293.647,91.851,85576.475,24.535,98.052
云南,怒江傈僳族自治州,12.92,17.746,1.856,1.062,0.195,56.355,5.366,0.91,286.641,94.029,72526.712,26.916,98.885
云南,文山壮族苗族自治州,9.971,12.778,3.817,5.006,0.291,42.311,6.586,1.26,295.851,76.559,85731.579,23.696,104.735
云南,昆明市,17.779,26.158,5.48,12.534,0.483,51.847,5.005,0.815,292.532,79.553,78667.129,25.384,102.863
云南,昭通市,20.816,39.474,10.228,6.512,0.649,77.49,-1.683,-0.86,293.394,86.875,83379.145,27.667,103.985
云南,普洱市,6.906,9.409,1.767,2.83,0.241,39.799,5.216,1.056,294.863,80.273,85414.526,23.159,100.718
云南,曲靖市,23.958,35.014,10.096,10.74,0.599,58.517,0.24,0.098,292.161,86.853,79415.82,25.737,103.929
云南,楚雄彝族自治州,13.324,17.19,4.131,4.08,0.319,51.914,6.444,1.149,294.293,70.14,80377.337,25.328,101.567
云南,玉溪市,10.78,15.11,2.469,5.889,0.268,41.328,6.261,1.826,293.961,80.438,82865.908,24.136,102.217
云南,红河哈尼族彝族自治州,8.877,12.431,2.969,4.426,0.224,40.184,5.961,1.492,294.233,82.499,84515.825,23.451,103.034
云南,西双版纳傣族自治州,5.537,9.279,1.791,3.799,0.303,33.603,4.747,1.708,296.392,78.635,88378.319,21.939,100.912
云南,迪庆藏族自治州,12.5,20.179,2.809,1.293,0.223,72.2,6.27,1.22,284.807,86.087,67101.597,27.957,99.459
内蒙古,乌兰察布市,41.772,50.799,8.276,9.063,0.364,94.912,4.256,1.857,298.269,34.724,85183.459,41.691,112.44
内蒙古,乌海市,30.594,70.035,30.455,21.731,0.808,106.076,-1.088,4.679,301.498,25.964,86768.712,39.396,106.856
内蒙古,兴安盟,8.765,11.179,1.603,2.056,0.194,65.81,-2.178,-3.667,294.14,53.476,93752.602,46.244,121.341
内蒙古,包头市,37.193,47.504,5.727,11.952,0.275,92.473,4.45,1.56,298.818,30.646,85179.53,41.549,110.276
内蒙古,呼伦贝尔市,7.551,9.02,1.324,1.583,0.194,61.985,-2.012,-2.233,291.817,48.631,92682.013,49.636,121.171
内蒙古,呼和浩特市,40.552,64.204,11.011,21.945,0.548,118.101,2.299,2.259,298.205,35.818,85590.169,40.578,111.513
内蒙古,巴彦淖尔市,31.858,36.731,3.852,3.297,0.181,82.195,3.455,0.29,298.261,35.196,86518.344,41.446,107.582
内蒙古,赤峰市,25.457,36.741,8.045,3.862,0.328,96.966,0.156,-0.226,296.88,49.181,90864.025,43.226,118.892
内蒙古,通辽市,20.106,24.397,5.504,3.851,0.263,93.513,-0.643,-2.857,299.214,46.392,96454.515,43.814,121.591
内蒙古,鄂尔多斯市,32.701,50.781,11.529,8.549,0.44,110.73,0.582,3.991,299.95,30.038,86220.623,39.407,108.63
内蒙古,锡林郭勒盟,26.635,37.116,5.802,2.173,0.233,76.286,-1.196,0.189,297.156,43.108,88084.179,44.179,115.482
内蒙古,阿拉善盟,27.544,32.588,2.907,2.265,0.156,82.646,2.09,-1.338,298.636,36.738,86729.774,40.473,102.467
北京,北京市,48.625,75.554,7.26,20.785,0.657,185.997,0.146,2.479,300.306,42.439,96468.204,40.158,116.395
台湾,台湾省,4.997,7.569,3.932,13.638,0.112,33.819,1.33,4.062,297.246,76.848,92640.739,23.757,120.975
吉林,吉林市,33.742,46.615,11.018,10.671,0.654,137.713,2.7,1.784,295.466,62.376,95798.538,43.573,126.859
吉林,四平市,33.313,48.577,9.638,13.128,0.657,139.582,2.069,1.8,298.852,50.834,97882.379,43.472,124.386
吉林,延边朝鲜族自治州,35.499,42.499,11.736,10.923,0.467,107.054,5.588,0.424,293.55,66.785,92989.166,43.141,129.147
吉林,松原市,12.202,19.747,3.709,5.883,0.274,81.428,-0.733,-4.52,298.461,44.561,98255.667,44.785,124.496
吉林,白城市,9.037,12.207,2.603,3.38,0.191,70.918,-1.803,-5.819,297.933,46.53,98452.576,45.35,123.031
吉林,白山市,34.242,47.995,14.458,6.501,0.627,109.516,4.95,4.174,292.267,70.194,91339.116,42.063,127.256
吉林,辽源市,40.481,60.864,14.507,15.376,0.829,166.922,4.799,2.954,296.502,61.572,96166.837,42.836,125.32
吉林,通化市,32.401,52.214,14.559,9.027,0.748,123.228,3.723,4.234,294.39,67.381,94594.837,41.939,125.927
吉林,长春市,23.527,37.237,6.098,13.451,0.557,114.091,1.769,-0.917,298.286,47.578,97792.46,44.268,125.611
四川,乐山市,31.776,50.305,7.956,11.827,0.69,69.228,-0.68,-0.2,296.348,77.588,88607.294,29.218,103.569
四川,内江市,22.964,38.894,9.606,18.102,0.717,63.846,-1.382,-0.16,300.753,70.588,95346.211,29.62,104.95
四川,凉山彝族自治州,23.051,35.671,12.522,5.345,0.584,68.826,-1.254,1.516,289.149,85.993,73783.26,27.883,102.065
四川,南充市,20.396,37.22,10.47,16.588,0.739,60.323,-2.112,-0.173,300.679,70.491,95393.145,31.19,106.199
四川,宜宾市,26.519,45.38,9.784,15.658,0.757,73.605,-0.516,-0.643,299.743,72.356,93783.362,28.573,104.621
四川,巴中市,24.939,41.974,10.197,9.183,0.632,57.957,-3.067,0.422,298.013,73.473,91387.491,32.033,107.031
四川,广元市,23.907,42.521,13.574,11.34,0.599,53.764,-1.434,0.957,297.419,73.862,90533.082,32.261,105.788
四川,广安市,26.47,44.907,9.379,18.023,0.794,63.87,-1.929,0.132,300.49,73.496,95400.605,30.43,106.628
四川,德阳市,24.29,43.529,8.365,15.455,0.656,62.443,-1.594,0.142,298.999,67.026,91993.829,31.13,104.436
四川,成都市,26.538,49.006,10.013,22.208,0.706,58.102,-1.364,0.103,299.269,66.097,92121.418,30.64,103.929
四川,攀枝花市,26.602,44.395,49.33,17.483,1.04,57.353,-0.757,0.954,295.571,67.965,80791.618,26.791,101.734
四川,泸州市,23.598,37.783,7.702,12.858,0.568,69.842,-0.422,-1.013,298.274,79.477,92250.027,28.424,105.675
四川,甘孜藏族自治州,16.861,21.111,3.292,1.268,0.189,106.3,1.309,2.805,282.939,77.416,61206.996,30.936,100.009
四川,眉山市,24.644,44.371,8.577,15.423,0.723,61.078,-0.981,0.482,299.266,69.338,92552.16,29.912,103.766
四川,绵阳市,31.173,45.925,10.091,8.881,0.535,70.072,-1.098,1.067,295.43,74.945,87070.328,31.86,104.704
四川,自贡市,30.231,47.243,10.604,20.73,0.822,63.632,-1.218,-0.342,300.699,70.757,95320.938,29.307,104.659
四川,资阳市,18.582,34.405,8.139,11.549,0.654,68.663,-1.573,0.131,300.863,70.188,95584.504,30.102,105.149
四川,达州市,25.857,44.172,11.592,14.619,0.721,69.259,-3.309,1.038,298.96,73.803,92893.036,31.335,107.636
四川,遂宁市,20.138,36.659,8.524,14.149,0.69,68.292,-1.803,0.017,301.018,69.3,95814.825,30.642,105.457
四川,阿坝藏族羌族自治州,31.941,44.339,9.577,1.974,0.334,67.289,-1.253,4.375,283.59,86.23,65440.333,32.406,102.61
四川,雅安市,28.985,49.927,9.813,5.805,0.5,67.101,-1.633,-0.189,290.63,87.567,79499.844,29.932,102.689
天津,天津市,38.634,77.221,9.533,25.927,0.665,174.575,1.418,5.304,303.314,29.334,99997.754,39.315,117.308
宁夏,中卫市,29.997,53.71,9.305,5.975,0.406,122.468,-0.648,5.373,298.368,41.578,82877.374,37.018,105.509
宁夏,吴忠市,29.949,51.169,10.079,5.853,0.379,122.874,-1.331,5.656,299.197,36.664,84384.533,37.454,106.577
宁夏,固原市,36.333,57.024,9.713,13.767,0.459,122.361,-0.911,5.387,293.713,59.363,80516.54,35.905,106.183
宁夏,石嘴山市,26.675,69.507,21.116,21.436,0.75,115.318,-0.043,4.308,300.942,27.642,85910.377,39.013,106.499
宁夏,银川市,24.59,59.03,12.3,17.762,0.525,124.322,-1.526,4.462,301.255,29.636,86185.23,38.287,106.342
安徽,亳州市,25.85,42.014,9.05,11.393,0.485,122.207,-2.467,2.231,298.336,58.718,100219.274,33.44,116.162
安徽,六安市,25.074,37.621,5.581,10.059,0.455,110.495,-2.363,0.144,296.245,70.633,97823.506,31.617,116.209
安徽,合肥市,27.097,40.224,5.382,16.815,0.562,96.947,-3.078,0.324,296.75,71.55,100127.661,31.766,117.359
安徽,安庆市,26.849,37.584,7.086,7.907,0.546,96.904,-2.678,-2.058,296.482,77.078,98216.785,30.557,116.473
安徽,宣城市,16.561,24.814,5.625,10.876,0.427,76.392,-3.337,-0.262,295.973,84.694,98184.922,30.676,118.846
安徽,宿州市,24.487,43.228,9.876,16.743,0.508,124.6,-2.967,2.786,297.962,55.633,100212.019,33.844,117.23
安徽,池州市,21.639,32.327,7.719,7.502,0.488,75.447,-1.951,-1.838,296.669,81.101,98369.383,30.296,117.379
安徽,淮北市,25.922,43.547,12.516,17.333,0.52,125.139,-2.878,2.589,298.126,58.478,100238.766,33.722,116.747
安徽,淮南市,31.89,49.001,8.705,17.637,0.575,103.908,-2.507,1.213,296.945,67.753,100287.043,32.463,116.746
安徽,滁州市,24.384,39.757,7.142,19.45,0.458,110.836,-3.529,1.299,296.593,67.269,100062.474,32.55,118.076
安徽,芜湖市,21.303,31.492,5.614,13.131,0.487,92.264,-4.08,-0.867,296.645,77.26,100284.957,31.167,118.162
安徽,蚌埠市,27.417,42.047,9.378,17.814,0.475,113.24,-3.202,1.842,297.438,62.52,100286.299,33.121,117.263
安徽,铜陵市,24.2,35.13,7.375,12.257,0.539,88.292,-3.118,-1.87,296.566,76.921,100125.864,30.883,117.531
安徽,阜阳市,23.06,39.84,8.287,10.438,0.478,116.815,-2.872,1.699,298.178,60.249,100186.313,32.937,115.723
安徽,马鞍山市,22.724,36.561,5.374,17.912,0.538,102.548,-4.325,0.099,296.523,74.066,100316.344,31.622,118.386
安徽,黄山市,15.624,29.603,8.724,8.038,0.527,50.053,-1.494,-0.545,296.2,89.936,96239.59,29.869,118.09
山东,东营市,28.731,66.631,22.381,25.596,0.652,152.088,3.76,5.662,303.268,26.192,100300.968,37.57,118.572
山东,临沂市,24.578,58.526,14.171,22.005,0.568,135.359,-0.55,4.574,298.358,43.793,98830.042,35.289,118.27
山东,威海市,27.31,54.321,11.692,16.283,0.558,152.195,3.46,2.163,298.715,44.337,99857.21,37.148,122.028
山东,德州市,24.362,57.848,9.394,16.527,0.424,168.82,1.56,7.728,303.202,30.34,100132.507,37.233,116.679
山东,日照市,27.321,59.668,13.133,24.471,0.519,128.521,0.717,4.801,298.001,45.534,98949.61,35.566,119.108
山东,枣庄市,23.066,55.109,14.958,21.284,0.558,137.392,-1.82,4.591,298.506,46.151,99509.335,34.925,117.383
山东,泰安市,19.664,54.519,13.1,16.414,0.483,156.0,-0.305,6.002,299.759,39.348,98637.476,35.993,117.04
山东,济南市,19.371,54.895,11.403,16.99,0.478,161.115,1.361,7.19,300.831,34.192,98548.5,36.639,117.254
山东,济宁市,20.397,49.954,11.871,15.936,0.525,152.038,-1.444,5.489,300.078,42.118,99866.339,35.375,116.697
山东,淄博市,22.935,59.907,16.329,19.943,0.637,154.605,2.502,6.593,300.347,34.344,97992.598,36.623,118.062
山东,滨州市,24.757,59.028,14.712,20.319,0.563,161.601,3.33,6.485,303.271,26.622,100230.639,37.516,117.852
山东,潍坊市,24.508,56.851,11.989,18.958,0.492,143.334,2.205,5.759,300.85,34.53,99385.411,36.53,119.092
山东,烟台市,24.928,54.873,12.061,19.406,0.523,135.634,3.298,3.459,299.895,37.415,99351.053,37.25,120.789
山东,聊城市,26.531,57.582,8.278,14.231,0.487,165.831,-0.194,7.245,302.877,35.247,99958.376,36.458,115.863
山东,菏泽市,22.543,48.858,8.691,13.161,0.585,148.955,-1.212,5.265,300.983,43.143,99955.715,35.134,115.69
山东,青岛市,24.835,54.42,9.623,22.529,0.461,131.015,2.489,5.056,299.335,42.889,99965.856,36.46,120.172
山西,临汾市,40.668,71.644,22.814,19.322,0.903,168.548,0.31,3.139,297.717,40.328,89280.991,36.227,111.398
山西,吕梁市,49.86,72.644,18.207,28.589,0.848,120.064,1.025,3.811,297.578,37.927,86986.618,37.663,111.27
山西,大同市,45.086,61.737,14.593,14.248,0.723,133.63,2.336,2.001,297.666,37.501,86488.597,39.911,113.713
山西,太原市,48.988,94.069,15.039,37.373,0.812,122.041,1.524,2.749,297.459,37.916,86880.786,37.967,112.321
山西,忻州市,45.304,67.334,13.823,13.823,0.56,124.933,1.73,2.245,297.158,38.526,85456.048,38.877,112.391
山西,晋中市,42.598,73.71,15.151,28.671,0.766,140.32,1.897,2.479,297.353,36.547,87773.524,37.328,112.997
山西,晋城市,47.643,85.828,15.272,23.772,0.92,187.72,0.401,3.013,297.432,39.78,89679.502,35.625,112.752
山西,朔州市,46.236,68.691,14.661,18.939,0.695,122.939,3.004,2.13,297.956,37.563,85868.454,39.619,112.655
山西,运城市,36.998,66.642,16.017,16.958,0.781,170.523,-2.099,2.552,300.205,42.544,93201.034,35.205,111.071
山西,长治市,40.909,68.622,12.65,18.315,0.771,172.83,1.569,2.835,297.124,37.766,88077.017,36.48,112.915
山西,阳泉市,41.314,76.014,16.426,29.826,0.707,130.873,3.671,2.594,299.589,32.765,89483.456,38.031,113.512
广东,东莞市,15.008,28.642,6.891,38.574,0.66,20.466,-0.821,6.994,300.949,87.072,100247.251,22.931,113.81
广东,中山市,6.998,13.329,3.049,18.258,0.42,35.821,-0.051,6.918,301.122,85.978,100232.851,22.5,113.383
广东,云浮市,11.074,18.241,2.639,8.974,0.466,42.175,-0.137,6.104,301.004,80.654,98154.183,22.776,111.818
广东,佛山市,13.227,23.398,6.503,36.385,0.627,25.465,-0.762,5.885,301.609,82.543,100205.071,23.035,112.979
广东,广州市,17.712,32.531,8.366,42.775,0.68,20.617,-1.748,5.895,300.592,86.4,99379.543,23.339,113.525
广东,惠州市,10.93,18.16,5.356,20.522,0.451,28.068,-0.822,5.84,299.614,89.283,98525.424,23.244,114.485
广东,揭阳市,9.435,17.26,3.437,8.462,0.666,32.63,0.293,5.4,299.59,89.384,99214.384,23.323,116.123
广东,梅州市,12.04,21.066,4.462,12.277,0.734,31.707,-0.62,5.127,299.109,85.782,97191.542,24.169,116.07
广东,汕头市,4.54,11.497,3.89,8.101,0.394,34.086,0.55,6.457,300.247,89.223,100325.639,23.339,116.614
广东,汕尾市,4.125,8.303,1.468,4.788,0.29,34.89,0.437,5.698,299.314,91.77,98935.027,23.024,115.527
广东,江门市,6.633,10.901,1.529,7.932,0.311,46.313,0.746,6.803,301.096,85.729,99648.832,22.289,112.676
广东,河源市,9.749,13.722,2.823,8.557,0.358,36.692,-0.394,5.42,299.18,86.647,97320.104,24.021,114.969
广东,深圳市,10.604,21.151,6.299,32.47,0.523,23.447,-0.48,7.411,300.543,88.901,99820.73,22.667,114.143
广东,清远市,17.247,27.428,7.332,25.737,0.576,41.609,-1.834,5.258,299.133,88.17,96703.093,24.295,112.871
广东,湛江市,10.388,18.909,3.272,6.522,0.432,52.868,2.929,6.188,302.988,72.196,99962.086,21.091,110.163
广东,潮州市,11.926,23.217,8.376,16.508,0.835,29.583,0.086,4.871,298.906,92.228,98696.569,23.755,116.754
广东,珠海市,2.248,6.29,0.965,5.03,0.185,49.15,0.613,7.815,301.095,87.915,100332.1,22.095,113.317
广东,肇庆市,12.912,19.456,2.998,13.675,0.48,39.505,-1.48,5.118,300.686,83.288,98261.611,23.505,112.199
广东,茂名市,12.518,24.067,5.113,8.381,0.582,48.337,0.337,5.528,300.745,83.778,98241.094,22.013,110.952
广东,阳江市,8.619,14.719,2.248,5.361,0.335,48.91,0.729,5.737,300.575,87.113,98795.817,22.042,111.786
广东,韶关市,19.275,29.257,12.042,18.596,0.721,51.72,-0.918,4.85,298.675,87.326,95983.468,24.785,113.819
广西,北海市,9.364,16.884,3.061,3.504,0.359,63.783,3.07,7.356,302.669,79.785,99916.326,21.674,109.37
广西,南宁市,13.757,26.359,5.418,9.434,0.621,46.764,-0.001,5.88,301.928,76.061,97980.071,23.051,108.469
广西,崇左市,13.991,23.275,4.644,5.092,0.466,49.026,2.874,4.974,302.641,67.107,96706.889,22.483,107.291
广西,来宾市,13.358,23.467,5.359,8.11,0.578,44.554,-1.146,6.246,300.51,81.34,96889.589,23.859,109.417
广西,柳州市,11.981,20.245,6.266,9.853,0.578,46.84,-1.128,5.581,299.948,83.52,96269.17,24.956,109.372
广西,桂林市,15.853,24.036,6.99,8.332,0.511,49.174,-0.713,5.192,299.206,82.727,94766.523,25.353,110.513
广西,梧州市,12.844,23.954,6.035,9.583,0.654,42.896,-0.412,5.307,300.818,80.837,97811.61,23.484,110.996
广西,河池市,10.729,18.537,6.296,6.721,0.688,51.183,-1.378,4.194,299.082,84.412,93959.625,24.628,107.843
广西,玉林市,13.277,23.796,4.947,7.731,0.622,47.519,0.433,6.869,301.001,82.847,98209.361,22.452,110.164
广西,百色市,13.547,19.774,4.863,6.01,0.831,52.662,0.931,2.685,299.294,75.308,91926.832,23.981,106.292
广西,贵港市,14.764,29.668,6.359,10.13,0.763,40.346,-0.163,5.428,301.378,80.57,98558.366,23.322,110.021
广西,贺州市,13.113,21.716,4.894,7.061,0.53,48.504,-1.758,5.377,299.509,84.157,96059.509,24.364,111.394
广西,钦州市,12.847,24.312,4.143,6.146,0.549,56.722,1.243,6.889,302.303,78.842,99161.366,22.173,109.01
广西,防城港市,12.196,22.972,3.979,4.002,0.463,55.738,2.979,5.947,302.126,74.002,97585.162,21.88,108.002
新疆,乌鲁木齐市,12.436,20.104,3.141,8.132,0.245,91.169,0.762,-1.124,291.671,41.006,83878.888,43.746,87.818
新疆,五家渠市,15.453,31.837,6.413,19.377,0.4,84.63,-0.103,1.15,300.097,29.707,95589.85,44.363,87.517
新疆,伊犁哈萨克自治州,5.942,7.768,1.902,2.223,0.171,88.776,0.27,0.425,287.881,53.115,80207.822,43.438,82.146
新疆,克孜勒苏柯尔克孜自治州,1.759,3.556,0.408,0.725,0.145,100.046,0.703,-0.844,282.303,55.74,70541.568,39.661,75.949
新疆,克拉玛依市,8.598,16.076,2.658,3.419,0.234,89.542,1.126,-0.048,301.063,27.259,96312.619,45.457,85.207
新疆,北屯市,11.222,13.376,3.31,2.598,0.274,72.424,2.568,-1.942,298.722,29.134,94540.446,47.27,87.868
新疆,博尔塔拉蒙古自治州,6.92,8.197,1.707,1.583,0.158,87.412,0.97,0.573,292.783,38.303,85737.692,44.714,82.114
新疆,双河市,6.878,8.586,2.16,2.626,0.182,82.97,-0.758,-0.612,301.516,21.6,96757.712,44.87,82.474
新疆,可克达拉市,8.964,14.98,4.104,5.956,0.262,91.598,-2.816,0.218,297.924,38.566,93966.406,43.918,80.786
新疆,和田地区,15.117,25.267,0.593,0.696,0.117,79.37,-1.197,-0.817,288.705,44.062,73762.035,37.059,80.934
新疆,哈密市,9.263,10.009,0.893,1.406,0.179,80.705,3.606,-3.556,295.271,36.694,87583.92,43.042,93.517
新疆,喀什地区,4.11,6.224,0.771,1.303,0.143,86.817,0.227,-0.233,288.346,45.434,75879.683,38.125,77.178
新疆,图木舒克市,6.335,7.685,1.11,0.948,0.13,76.342,-3.888,-0.818,298.825,30.738,88522.177,39.892,79.182
新疆,塔城地区,7.091,8.762,1.891,1.695,0.166,85.544,0.705,-0.12,295.0,35.358,88952.994,45.642,84.789
新疆,巴音郭楞蒙古自治州,12.4,12.96,0.662,0.5,0.106,76.345,-1.858,-0.811,290.88,47.149,78841.43,39.463,87.481
新疆,新星市,10.015,14.715,2.39,8.835,0.5,98.885,1.67,0.56,299.58,28.09,91714.465,42.75,93.68
新疆,昆玉市,44.19,100.163,2.163,2.17,0.14,78.483,-0.27,0.307,300.63,21.873,86263.507,37.457,79.093
新疆,昌吉回族自治州,9.777,12.225,2.181,3.751,0.171,86.199,1.34,-0.264,295.326,36.556,89257.136,44.342,88.608
新疆,石河子市,13.29,19.065,6.395,10.61,0.25,93.81,0.965,0.665,299.39,30.64,93804.535,44.245,86.035
新疆,胡杨河市,9.376,12.004,2.044,2.66,0.216,89.662,3.708,1.216,300.322,30.75,96787.61,44.852,84.772
新疆,铁门关市,12.36,21.187,2.52,5.12,0.19,91.143,-0.563,-1.49,299.87,30.417,90859.043,41.773,85.66
新疆,阿克苏地区,11.615,18.677,1.395,1.58,0.145,82.152,-1.51,-1.398,294.998,38.532,84761.474,40.965,81.578
新疆,阿勒泰地区,7.783,8.623,1.742,1.233,0.167,76.458,1.523,-0.92,293.992,36.89,87921.009,46.902,88.421
新疆,阿拉尔市,16.251,31.842,1.65,3.035,0.177,81.162,-2.427,-2.416,299.258,32.173,89349.968,40.629,80.998
江苏,南京市,23.192,38.972,6.881,19.83,0.503,107.276,-4.333,0.852,296.112,74.202,100397.134,31.899,118.876
江苏,南通市,13.733,20.701,6.206,8.216,0.302,106.958,-4.704,1.029,294.818,70.898,100652.892,32.201,120.979
江苏,宿迁市,24.143,41.235,8.976,16.201,0.464,122.735,-3.166,2.825,297.428,52.503,100509.281,33.765,118.495
江苏,常州市,23.748,37.571,6.426,20.804,0.582,108.947,-4.868,0.915,295.298,79.748,100484.352,31.613,119.666
江苏,徐州市,23.667,48.057,10.979,18.531,0.53,129.178,-2.546,3.685,298.227,49.943,100220.957,34.363,117.513
江苏,扬州市,22.084,34.781,7.288,15.369,0.445,117.99,-4.126,1.912,296.711,61.833,100580.844,32.709,119.486
江苏,无锡市,21.906,35.766,7.268,22.63,0.6,104.763,-5.158,0.952,294.91,80.886,100413.739,31.546,120.066
江苏,泰州市,18.948,30.44,7.087,13.29,0.439,115.107,-4.535,1.677,296.177,62.375,100575.839,32.605,120.048
江苏,淮安市,21.984,34.76,7.554,13.653,0.429,119.468,-3.701,2.25,297.15,53.932,100519.042,33.362,118.985
江苏,盐城市,17.375,27.363,6.461,9.126,0.349,110.947,-3.475,2.636,295.951,54.862,100647.308,33.529,120.156
江苏,苏州市,16.883,26.652,6.821,22.294,0.472,101.841,-5.36,0.402,294.433,83.537,100589.079,31.374,120.661
江苏,连云港市,28.572,50.981,10.374,17.31,0.52,123.308,-1.901,3.659,297.757,45.581,100420.355,34.519,119.133
江苏,镇江市,26.518,42.624,7.799,21.706,0.591,110.623,-4.396,1.552,295.553,75.819,100467.677,32.016,119.49
江西,上饶市,17.656,28.609,8.89,7.758,0.541,44.883,0.674,1.058,298.942,84.134,98202.615,28.778,117.47
江西,九江市,23.039,39.581,7.09,7.211,0.6,70.746,-1.8,-0.785,297.696,87.446,98125.12,29.313,115.444
江西,南昌市,15.787,33.658,6.616,11.282,0.706,55.302,-1.093,-0.912,299.583,85.832,99922.886,28.671,116.016
江西,吉安市,12.992,21.97,8.752,6.372,0.516,56.568,0.314,4.742,300.878,76.864,97760.91,26.954,114.831
江西,宜春市,15.862,29.765,5.553,7.605,0.571,49.608,-0.03,0.884,299.686,83.336,98062.463,28.29,114.974
江西,抚州市,10.404,16.015,5.927,5.532,0.329,50.719,1.485,4.718,300.21,80.433,97816.729,27.514,116.42
江西,新余市,14.455,29.084,6.553,10.828,0.615,34.605,-0.188,1.189,300.575,80.211,98945.981,27.847,114.836
江西,景德镇市,19.097,32.504,9.258,6.731,0.587,46.457,-0.302,-0.665,298.48,85.251,98991.996,29.287,117.24
江西,萍乡市,12.684,24.837,6.758,8.254,0.568,43.057,-0.257,2.98,300.398,77.952,96763.493,27.505,113.908
江西,赣州市,12.64,17.564,6.47,7.241,0.674,53.499,0.009,5.474,299.184,83.515,96309.553,25.692,115.279
江西,鹰潭市,12.75,20.442,7.523,7.677,0.401,48.484,1.527,3.87,300.231,80.988,98699.873,28.222,117.094
河北,保定市,40.937,74.119,14.062,19.428,0.559,194.224,0.345,3.25,302.627,29.688,96429.301,39.018,115.159
河北,唐山市,41.122,76.084,14.922,31.619,0.798,169.809,1.548,4.666,301.516,34.321,99567.612,39.731,118.354
河北,廊坊市,39.489,77.683,10.991,23.294,0.639,179.88,1.235,5.083,303.95,28.262,99999.369,39.267,116.632
河北,张家口市,42.276,56.706,10.797,10.713,0.439,132.34,1.419,2.353,296.65,43.871,86898.224,40.877,115.042
河北,承德市,40.687,60.689,12.234,10.867,0.512,159.032,2.085,3.412,295.545,54.783,90082.032,41.339,117.578
河北,沧州市,32.743,67.468,13.689,19.043,0.503,172.918,2.109,7.278,304.334,26.922,100113.963,38.258,116.744
河北,石家庄市,38.79,77.583,16.587,25.767,0.668,168.762,0.136,3.791,304.081,27.147,96922.027,38.135,114.407
河北,秦皇岛市,42.278,75.265,17.637,32.376,0.965,160.951,4.565,4.201,300.201,37.521,97427.276,40.12,119.193
河北,衡水市,31.648,65.878,12.256,15.464,0.509,176.406,0.838,7.685,304.55,30.23,99970.32,37.755,115.813
河北,邢台市,34.764,72.157,13.356,19.444,0.754,168.915,0.481,6.281,304.338,30.441,98550.045,37.195,114.815
河北,邯郸市,34.283,69.905,12.067,19.395,0.76,166.41,0.598,5.714,303.3,35.732,98169.771,36.538,114.596
河南,三门峡市,41.392,65.122,12.61,10.768,0.613,139.132,-0.574,3.425,297.666,56.612,90963.571,34.362,111.101
河南,信阳市,25.181,39.495,7.392,9.913,0.417,106.355,-3.231,0.515,297.89,66.395,99225.175,32.091,114.907
河南,南阳市,31.671,52.144,6.884,11.847,0.636,110.662,-0.911,2.151,299.689,59.227,97156.523,33.034,112.323
河南,周口市,23.478,45.365,8.518,11.712,0.588,133.864,-2.461,3.003,299.681,55.99,99926.233,33.738,114.884
河南,商丘市,24.476,46.623,9.964,12.454,0.571,136.167,-2.078,3.726,299.411,52.158,100031.077,34.277,115.718
河南,安阳市,33.611,65.428,10.498,16.175,0.717,167.706,-0.04,5.428,302.634,39.477,97835.693,35.888,114.318
河南,平顶山市,37.543,58.973,6.541,18.229,0.737,126.27,-0.908,2.81,300.716,51.523,97747.909,33.8,113.025
河南,开封市,27.235,53.732,7.661,12.969,0.636,138.461,-1.56,4.665,301.183,50.964,99615.258,34.594,114.514
河南,新乡市,34.701,65.752,10.185,17.52,0.702,155.85,-0.407,4.637,302.185,44.98,98662.695,35.256,114.111
河南,洛阳市,41.821,66.402,10.377,15.245,0.706,143.934,-0.239,2.502,298.545,51.831,93270.174,34.274,112.019
河南,济源市,50.0,88.801,15.412,30.309,0.962,170.699,-0.191,1.9,300.643,36.577,95020.953,35.105,112.445
河南,漯河市,25.329,46.262,7.69,13.934,0.622,126.14,-1.922,3.503,301.005,55.058,99718.646,33.652,113.945
河南,濮阳市,27.527,58.534,8.698,14.622,0.616,155.761,-0.607,6.196,302.54,40.069,99851.348,35.809,115.283
河南,焦作市,45.767,88.734,13.442,31.769,0.942,158.188,-0.279,2.069,302.667,36.829,98446.039,35.121,113.163
河南,许昌市,30.343,55.5,6.867,20.558,0.749,127.445,-1.374,3.794,301.215,52.665,99049.021,34.075,113.707
河南,郑州市,39.431,71.411,8.332,26.625,0.829,135.676,-0.798,3.914,301.396,47.251,97756.882,34.634,113.438
河南,驻马店市,27.305,43.626,7.795,10.319,0.48,117.858,-2.584,2.291,299.581,60.758,99464.915,32.925,114.174
河南,鹤壁市,33.367,63.83,10.467,15.793,0.689,158.417,-0.039,5.916,303.02,43.251,98956.634,35.716,114.319
浙江,丽水市,12.683,15.477,5.566,8.94,0.328,43.079,2.905,4.55,297.465,84.978,93720.317,28.194,119.51
浙江,台州市,16.491,22.827,6.399,15.449,0.403,52.748,0.687,3.088,297.756,90.839,97836.805,28.742,121.109
浙江,嘉兴市,11.803,16.623,2.07,13.227,0.288,92.032,-5.701,-0.469,294.261,91.569,100564.367,30.635,120.754
浙江,宁波市,12.814,18.156,4.495,17.073,0.388,75.641,-2.881,-1.214,294.94,96.296,99337.192,29.706,121.49
浙江,杭州市,16.449,25.085,7.204,19.512,0.571,55.411,-2.871,-1.31,294.867,94.208,97659.861,29.891,119.464
浙江,温州市,14.003,20.006,6.34,18.674,0.506,34.172,1.936,5.779,298.594,86.346,96701.942,27.897,120.411
浙江,湖州市,16.319,22.072,3.327,17.049,0.406,86.896,-4.821,0.057,294.56,89.43,99291.546,30.757,119.871
浙江,绍兴市,15.844,21.342,5.499,21.877,0.524,56.437,-2.793,-0.799,295.214,94.362,98479.381,29.709,120.64
浙江,舟山市,9.33,13.445,1.482,2.098,0.158,95.912,-6.373,-2.1,294.59,95.158,100349.54,30.038,122.23
浙江,衢州市,19.194,27.806,8.868,14.521,0.568,35.552,1.298,1.249,297.807,87.472,96871.48,28.912,118.675
浙江,金华市,17.084,24.656,7.554,20.5,0.525,40.482,-0.463,0.268,297.139,90.188,97134.428,29.109,119.967
海南,万宁市,4.556,7.503,1.166,2.022,0.201,58.831,3.194,6.129,301.677,80.659,99148.506,18.842,110.294
海南,三亚市,6.49,12.39,1.639,7.19,0.423,58.144,2.479,3.919,300.674,83.713,97998.634,18.413,109.407
海南,东方市,4.738,6.712,1.215,1.453,0.185,59.539,1.655,6.985,301.945,73.703,98525.885,18.971,108.838
海南,临高县,5.824,9.694,1.639,3.456,0.234,48.666,3.671,5.244,303.976,60.546,99591.64,19.821,109.733
海南,乐东黎族自治县,5.814,8.807,1.028,2.728,0.257,58.132,1.642,4.165,300.018,84.454,97112.871,18.659,109.072
海南,五指山市,5.688,7.63,1.114,2.404,0.212,53.908,3.608,4.934,298.57,83.024,93988.02,18.81,109.518
海南,儋州市,4.687,7.008,1.379,2.358,0.192,53.387,4.224,5.739,303.771,61.428,99265.222,19.568,109.399
海南,定安县,6.447,11.48,1.883,4.883,0.31,46.143,1.808,5.013,302.92,68.318,99361.935,19.47,110.28
海南,屯昌县,5.182,8.194,1.314,3.234,0.24,49.126,2.532,4.526,302.886,65.962,98601.772,19.342,110.076
海南,文昌市,5.069,10.102,1.5,3.42,0.254,51.926,1.751,6.564,302.448,76.693,100122.972,19.707,110.773
海南,昌江黎族自治县,4.83,6.641,1.419,1.943,0.182,57.358,3.202,7.132,301.623,71.817,97509.779,19.233,109.016
海南,海口市,7.937,15.349,2.878,7.359,0.368,42.828,1.883,5.202,303.162,67.864,99894.801,19.842,110.393
海南,澄迈县,6.45,11.296,2.109,4.97,0.293,45.03,2.61,4.741,303.524,63.614,99448.75,19.676,109.989
海南,琼中黎族苗族自治县,4.802,6.778,1.115,2.347,0.203,52.701,4.127,5.561,301.249,71.345,96492.682,19.087,109.847
海南,琼海市,5.327,9.025,1.563,3.333,0.237,53.395,2.015,5.422,302.665,73.785,99928.445,19.22,110.43
海南,白沙黎族自治县,4.568,6.064,1.099,1.776,0.185,54.621,4.178,6.265,301.145,70.622,96195.125,19.2,109.388
海南,陵水黎族自治县,5.291,8.503,1.316,4.711,0.266,57.894,3.417,4.257,301.144,81.759,98518.56,18.581,109.913
湖北,仙桃市,18.753,35.03,5.546,14.979,0.714,88.877,-3.374,-0.344,300.052,75.446,100067.612,30.284,113.417
湖北,十堰市,35.73,52.923,12.078,6.819,0.585,92.413,-2.504,0.847,296.785,73.193,92454.69,32.462,110.476
湖北,咸宁市,23.169,37.494,6.542,8.335,0.702,74.14,-2.693,0.332,299.023,83.765,98273.56,29.621,114.178
湖北,天门市,17.021,35.608,5.087,17.968,0.753,96.24,-3.292,-0.204,299.95,74.413,100028.487,30.633,113.053
湖北,孝感市,18.877,32.664,5.687,11.701,0.602,89.535,-3.034,-0.24,299.531,70.506,99495.591,31.116,113.869
湖北,宜昌市,31.815,48.871,8.066,9.666,0.726,79.795,-1.892,0.555,296.153,84.262,93252.282,30.746,111.129
湖北,恩施土家族苗族自治州,28.097,46.17,12.216,5.083,0.763,57.943,-3.218,1.808,294.52,90.813,88834.935,30.195,109.552
湖北,武汉市,21.055,35.933,6.454,19.239,0.747,90.553,-3.062,-0.063,299.596,72.432,100004.799,30.606,114.349
湖北,潜江市,19.166,36.806,5.841,16.8,0.772,83.15,-2.93,-0.672,299.75,76.07,100023.307,30.33,112.77
湖北,神农架林区,41.974,55.144,10.684,3.136,0.553,86.935,-1.328,2.073,291.098,90.642,82573.199,31.592,110.49
湖北,荆州市,22.276,37.88,7.313,11.716,0.762,77.466,-2.743,-1.364,299.982,76.148,99784.206,30.01,112.512
湖北,荆门市,20.054,38.969,6.117,15.087,0.712,88.39,-2.508,0.3,299.366,72.897,99062.035,31.059,112.616
湖北,襄阳市,27.823,45.22,7.749,9.01,0.625,99.06,-1.6,1.908,298.39,69.734,96437.415,31.919,111.96
湖北,鄂州市,18.029,33.84,7.44,19.034,0.813,80.831,-3.163,0.744,299.339,75.49,100058.51,30.337,114.794
湖北,随州市,25.826,39.783,6.406,9.49,0.538,96.785,-2.558,0.979,298.868,69.255,98426.938,31.809,113.43
湖北,黄冈市,21.381,33.949,6.867,8.157,0.537,91.44,-2.662,-0.185,298.324,71.805,98414.819,30.702,115.358
湖北,黄石市,22.742,40.515,7.791,13.028,0.775,79.012,-3.462,0.447,298.022,83.56,99122.72,29.925,115.034
湖南,娄底市,16.955,29.326,9.491,7.081,0.935,55.768,-2.544,1.921,299.679,83.643,96093.91,27.715,111.632
湖南,岳阳市,24.211,37.152,6.738,8.673,0.669,67.851,-2.022,0.324,300.423,80.265,98905.926,29.081,113.275
湖南,常德市,19.148,34.608,8.521,8.283,0.859,66.723,-2.841,-1.644,299.772,78.499,98116.761,29.271,111.524
湖南,张家界市,18.935,38.571,9.723,7.899,0.872,60.663,-4.354,-1.129,296.966,87.926,94349.478,29.379,110.526
湖南,怀化市,13.367,26.861,6.649,5.361,0.878,52.779,-2.451,1.883,299.179,83.794,95157.285,27.535,110.071
湖南,株洲市,13.084,23.89,8.611,8.574,0.532,51.609,-0.416,3.842,300.973,74.171,96870.432,27.109,113.513
湖南,永州市,14.289,21.052,5.396,5.241,0.449,53.225,-0.552,5.507,300.041,77.958,95496.515,25.748,111.723
湖南,湘潭市,17.388,29.185,6.914,10.685,0.725,52.756,-1.553,2.446,301.851,76.443,98971.532,27.744,112.619
湖南,湘西土家族苗族自治州,17.517,35.008,6.891,6.387,0.926,46.769,-4.61,-0.09,297.695,88.795,94207.265,28.708,109.718
湖南,益阳市,21.977,35.935,6.562,6.868,0.944,61.795,-3.004,-0.048,299.903,83.124,97620.966,28.525,111.919
湖南,衡阳市,13.378,24.475,8.26,9.224,0.559,52.046,-0.854,4.669,302.244,72.014,98519.268,26.781,112.565
湖南,邵阳市,16.815,26.901,7.443,5.953,0.648,54.806,-1.348,3.209,298.916,82.769,93940.091,26.893,110.881
湖南,郴州市,13.376,25.659,12.852,10.09,0.74,63.848,-0.748,5.953,299.252,80.107,94791.466,25.769,113.109
湖南,长沙市,21.591,35.036,5.88,11.253,0.769,57.5,-1.833,1.826,300.702,80.806,98437.908,28.235,113.159
甘肃,临夏回族自治州,33.906,57.006,9.679,8.69,0.465,102.901,-2.772,2.17,292.956,57.154,77003.906,35.617,103.291
甘肃,兰州市,30.174,57.375,10.846,16.881,0.398,104.284,-3.989,1.433,294.743,45.899,78606.063,36.359,103.633
甘肃,嘉峪关市,19.41,44.193,7.482,28.518,0.595,80.757,3.162,-0.497,293.037,48.62,81312.688,39.798,98.145
甘肃,天水市,36.515,54.762,9.468,7.456,0.38,92.51,-2.019,5.223,293.381,69.736,82138.36,34.645,105.739
甘肃,定西市,35.144,55.432,9.718,5.48,0.363,96.944,-3.189,5.275,290.984,68.569,76873.829,35.124,104.432
甘肃,平凉市,34.775,58.735,8.794,13.326,0.473,116.446,-0.839,4.827,295.519,57.33,83905.864,35.304,106.644
甘肃,庆阳市,32.634,57.599,11.088,9.991,0.518,123.897,-0.985,4.457,296.853,47.862,85141.741,36.149,107.596
甘肃,张掖市,26.637,37.922,2.282,2.927,0.167,82.094,0.355,-1.358,286.399,73.442,74544.441,38.94,99.855
甘肃,武威市,36.465,54.307,3.857,2.384,0.168,97.863,1.051,-4.272,295.724,41.373,80845.487,38.163,103.073
甘肃,甘南藏族自治州,40.37,51.362,9.635,2.082,0.324,90.742,-2.931,2.619,284.625,84.466,67591.25,34.331,102.768
甘肃,白银市,30.768,54.415,10.563,7.338,0.359,108.089,-2.033,4.233,296.032,46.626,80921.831,36.59,104.646
甘肃,酒泉市,16.703,18.606,1.116,1.897,0.134,74.883,1.89,-2.035,290.713,51.37,78810.936,40.236,96.062
甘肃,金昌市,28.582,64.128,3.402,2.345,0.147,111.571,3.716,-5.164,292.658,54.078,80200.503,38.44,102.048
甘肃,陇南市,36.69,53.891,12.318,4.68,0.406,79.768,-1.393,3.942,291.858,81.339,81697.652,33.599,105.224
福建,三明市,10.843,15.575,5.447,9.968,0.559,42.432,1.586,4.838,297.975,84.422,94410.255,26.29,117.395
福建,南平市,10.338,14.575,5.767,7.235,0.372,46.871,1.349,4.295,298.088,85.764,95109.479,27.324,118.143
福建,厦门市,9.488,19.818,7.403,20.45,0.412,25.227,0.775,5.373,299.123,93.115,99577.927,24.642,118.11
福建,宁德市,12.064,20.489,6.606,11.145,0.479,37.255,1.674,4.835,297.042,90.384,94525.718,26.968,119.474
福建,泉州市,11.232,20.887,6.368,17.138,0.511,27.316,1.02,5.682,297.552,92.167,95905.667,25.201,118.249
福建,漳州市,7.314,15.309,4.026,12.156,0.394,28.366,0.551,4.953,298.451,90.945,97467.839,24.372,117.444
福建,福州市,10.656,21.086,6.613,13.614,0.51,31.247,1.932,5.833,298.165,88.574,96600.719,26.083,119.206
福建,莆田市,10.904,21.569,6.222,15.425,0.501,28.131,1.765,6.018,297.872,94.026,97394.115,25.445,118.864
福建,龙岩市,10.812,18.881,5.431,12.442,0.542,33.915,0.046,4.913,297.5,88.37,94451.354,25.256,116.739
西藏,山南市,18.839,20.838,2.03,1.32,0.182,121.713,1.512,2.801,284.274,79.321,66121.131,28.295,92.274
西藏,拉萨市,8.971,12.818,1.505,2.121,0.16,118.053,2.246,3.209,282.472,52.805,56772.412,30.043,91.093
西藏,日喀则市,10.076,10.942,1.201,0.497,0.159,112.371,4.851,1.556,279.597,54.941,55597.925,29.483,86.493
西藏,昌都市,14.697,15.667,1.416,0.634,0.161,130.055,4.267,3.181,282.097,65.259,59212.922,30.753,97.044
西藏,林芝市,22.487,24.222,2.271,1.497,0.183,109.663,0.152,2.355,283.004,90.576,66400.475,29.184,95.25
西藏,玉树藏族自治州,8.828,9.548,0.412,0.423,0.108,77.957,-1.342,-1.607,278.443,79.094,57557.205,34.196,94.317
西藏,那曲市,6.373,6.975,0.396,0.238,0.126,90.518,2.25,0.564,280.963,53.383,55668.644,32.709,89.262
西藏,阿里地区,3.98,4.314,0.452,0.353,0.135,90.21,4.993,-1.317,277.58,44.44,55161.438,33.013,82.553
贵州,六盘水市,20.308,33.715,8.153,7.719,0.602,68.733,-1.491,-1.297,292.966,89.87,82483.983,26.106,104.896
贵州,安顺市,17.539,27.278,4.47,6.524,0.388,59.13,-1.756,0.256,295.379,89.051,87335.749,25.986,105.978
贵州,毕节市,18.997,31.559,6.623,6.484,0.574,69.726,-1.012,-1.268,292.773,89.978,82841.009,27.063,105.211
贵州,贵阳市,14.473,23.891,1.912,15.434,0.505,42.108,-0.211,0.393,295.231,89.159,87388.075,26.845,106.71
贵州,遵义市,27.582,36.651,9.419,7.223,0.486,62.364,-2.298,0.262,295.977,88.842,89494.625,28.167,107.102
贵州,铜仁市,17.64,34.238,10.684,4.944,0.664,50.077,-2.846,0.929,297.106,88.576,91768.424,27.937,108.534
贵州,黔东南苗族侗族自治州,11.786,21.776,8.322,4.888,0.465,51.901,-1.08,3.212,297.325,89.132,91668.059,26.495,108.574
贵州,黔南布依族苗族自治州,10.634,17.88,4.54,4.665,0.362,53.816,-1.065,2.529,296.218,90.7,89467.362,26.0,107.265
贵州,黔西南布依族苗族自治州,15.791,25.034,5.117,5.072,0.436,63.502,-0.764,-0.25,295.864,87.229,87686.124,25.256,105.467
辽宁,丹东市,37.455,62.296,14.463,9.416,0.69,111.898,1.206,3.668,293.172,81.538,97481.872,40.554,124.376
辽宁,大连市,36.833,59.786,11.24,14.541,0.82,144.858,2.346,3.614,296.348,62.516,99568.106,39.591,122.22
辽宁,抚顺市,33.975,58.584,16.15,13.986,0.86,157.274,5.029,5.147,296.418,56.567,95678.345,41.841,124.65
辽宁,朝阳市,33.986,53.916,14.692,12.221,0.75,157.735,4.605,2.241,299.986,41.088,95125.539,41.545,120.053
辽宁,本溪市,32.831,58.117,14.461,10.792,0.826,132.063,3.621,4.987,294.749,65.524,95142.52,41.232,124.544
辽宁,沈阳市,42.015,66.366,16.97,17.887,0.912,164.578,3.441,5.374,300.424,46.121,99450.653,42.081,123.159
辽宁,盘锦市,47.293,72.046,15.423,18.274,1.019,185.402,3.397,6.445,297.888,55.883,100132.647,41.13,122.01
辽宁,营口市,34.338,62.267,11.238,12.619,0.87,175.0,4.216,5.799,297.935,49.1,98168.89,40.395,122.478
辽宁,葫芦岛市,41.893,65.989,17.594,22.019,0.952,168.85,6.061,4.418,301.27,36.184,97749.794,40.66,120.215
辽宁,辽阳市,38.288,69.265,16.044,19.643,1.131,169.092,4.253,6.317,298.448,48.231,98306.961,41.153,123.261
辽宁,铁岭市,41.219,65.141,15.289,19.205,0.839,164.821,2.502,3.892,298.504,54.745,98008.258,42.653,124.158
辽宁,锦州市,44.56,65.238,17.458,18.902,0.943,175.494,4.353,5.061,300.998,41.312,99276.213,41.502,121.659
辽宁,阜新市,37.432,47.119,12.696,9.42,0.581,133.595,3.232,2.14,301.232,42.05,97834.806,42.289,121.968
辽宁,鞍山市,40.131,69.413,13.62,14.727,0.943,162.47,2.796,5.144,296.91,58.826,98417.653,40.731,123.007
重庆,重庆城区,27.843,44.209,12.505,15.567,0.706,64.042,-2.685,0.448,299.215,77.175,93827.777,29.824,107.125
重庆,重庆郊县,30.84,49.291,16.739,6.248,0.667,64.315,-3.737,1.139,296.423,83.067,90258.805,30.334,108.755
陕西,咸阳市,32.874,66.347,9.945,19.954,0.759,137.171,-2.618,1.737,299.628,44.996,90518.934,34.779,108.367
陕西,商洛市,41.919,64.557,12.907,8.867,0.577,99.282,-1.271,2.087,294.852,72.465,88664.893,33.64,109.889
陕西,安康市,40.778,61.089,11.738,5.868,0.538,87.123,-2.964,0.704,295.495,75.067,89134.176,32.735,108.932
陕西,宝鸡市,35.222,62.548,6.795,15.078,0.517,106.838,-1.21,3.05,295.672,63.41,85683.709,34.386,107.193
陕西,延安市,32.121,60.308,14.763,19.401,0.761,99.514,-0.387,4.207,297.231,43.889,86861.917,36.432,109.316
陕西,榆林市,35.336,58.623,15.156,18.582,0.781,112.965,0.122,4.915,299.232,36.698,87135.216,38.041,109.581
陕西,汉中市,35.707,54.571,11.946,7.559,0.519,78.392,-2.986,1.377,295.746,74.293,88196.338,33.088,107.098
陕西,渭南市,34.767,65.029,14.572,20.724,0.784,138.097,-2.156,0.933,300.613,44.684,92774.694,34.919,109.855
陕西,西安市,38.555,67.864,10.972,15.767,0.692,113.755,-0.995,3.198,298.406,56.96,89647.799,34.12,108.77
陕西,铜川市,35.522,62.942,13.052,19.252,0.853,127.307,-2.732,2.318,297.727,46.381,88395.562,35.198,109.058
青海,保亭黎族苗族自治县,6.512,10.836,2.034,8.628,0.338,55.012,3.654,3.794,299.91,83.194,96434.592,18.566,109.618
青海,吐鲁番市,10.522,12.049,1.671,1.735,0.138,80.598,0.398,-1.463,297.317,33.246,89559.881,42.386,89.851
青海,果洛藏族自治州,20.27,21.711,2.818,1.419,0.161,81.655,-0.794,-0.098,280.882,83.524,60135.131,34.127,99.404
青海,海东市,37.693,45.203,8.226,5.193,0.325,95.625,-5.176,0.038,289.548,58.265,72561.385,36.347,102.34
青海,海北藏族自治州,29.759,32.706,3.83,1.659,0.167,80.676,-2.561,-0.237,281.279,80.688,65508.066,37.775,100.288
青海,海南藏族自治州,32.223,34.585,5.457,1.327,0.227,86.112,-1.994,-1.156,284.331,76.837,66491.235,35.89,100.272
青海,海西蒙古族藏族自治州,13.585,13.952,0.732,0.41,0.107,72.576,0.927,-1.986,282.016,68.479,64674.608,36.677,94.519
青海,西宁市,32.992,44.075,8.076,8.693,0.574,94.153,-4.351,0.241,286.523,63.061,69525.352,36.842,101.423
青海,黄南藏族自治州,42.894,45.833,9.055,1.163,0.258,91.94,-3.79,2.018,284.195,81.879,65818.664,35.022,101.631
香港,香港特别行政区,3.0,8.33,2.37,19.54,0.195,33.11,-0.15,7.695,300.435,90.87,100019.87,22.45,114.22
黑龙江,七台河市,11.063,21.802,3.44,6.202,0.253,82.379,3.056,-3.511,292.355,61.617,96816.316,45.87,130.943
黑龙江,伊春市,8.592,12.073,1.155,1.372,0.19,58.383,2.506,-5.38,289.59,67.102,95562.366,47.772,129.184
黑龙江,佳木斯市,9.93,14.066,2.143,3.262,0.213,61.645,1.765,-3.466,289.597,73.305,98709.158,47.207,132.11
黑龙江,双鸭山市,10.158,13.84,2.517,3.622,0.206,64.09,2.895,-3.007,289.695,75.288,98273.381,46.722,132.643
黑龙江,哈尔滨市,12.113,17.436,3.879,6.642,0.288,76.144,1.615,-2.838,294.833,53.925,97216.696,45.634,127.964
黑龙江,大兴安岭地区,7.381,7.906,0.644,1.062,0.184,59.333,-0.547,-2.76,289.445,57.904,94242.518,52.286,124.212
黑龙江,大庆市,7.603,11.99,2.644,4.508,0.248,69.974,-0.859,-6.049,296.173,47.261,98624.913,46.327,124.687
黑龙江,牡丹江市,20.889,28.458,5.81,7.096,0.329,91.533,4.491,-0.886,293.457,62.891,94196.778,44.592,129.883
黑龙江,绥化市,7.038,9.392,1.055,2.681,0.224,63.341,-0.097,-5.944,293.802,53.939,97831.917,46.89,126.634
黑龙江,鸡西市,12.804,18.409,4.154,5.157,0.243,76.558,3.592,-2.544,292.711,61.855,97978.133,45.626,132.289
黑龙江,鹤岗市,10.03,15.519,1.716,2.414,0.226,58.458,3.045,-4.408,289.681,71.298,97817.779,47.661,130.778
黑龙江,黑河市,7.593,10.075,0.819,1.308,0.196,57.401,0.736,-5.962,289.677,63.722,96143.227,49.268,127.004
黑龙江,齐齐哈尔市,6.057,7.673,1.289,2.856,0.213,58.177,-0.882,-6.06,293.917,51.243,97968.435,47.715,124.57
