province,city,PM2.5,PM10,SO2,NO2,CO,O3,U,V,TEMP,RH,PSFC,lat,lon
上海,上海市,35.292,51.534,9.566,32.442,0.61,105.458,1.68,6.536,302.982,71.525,100705.037,31.173,121.42
云南,临沧市,9.74,12.641,2.308,3.664,0.357,36.456,3.422,2.376,291.545,93.879,83387.578,23.935,99.686
云南,丽江市,18.854,32.643,18.827,7.009,0.845,59.54,-0.645,0.993,289.76,85.792,74286.874,26.96,100.515
云南,保山市,10.148,16.74,3.085,4.775,0.355,41.204,3.281,1.78,291.322,92.813,81370.203,24.953,98.962
云南,大理白族自治州,10.674,19.087,3.861,4.098,0.333,49.319,2.869,1.258,290.77,86.063,77657.843,25.726,100.053
云南,德宏傣族景颇族自治州,11.03,14.733,2.587,4.409,0.276,42.021,1.878,2.48,293.201,92.809,85481.149,24.535,98.052
云南,怒江傈僳族自治州,12.968,16.997,2.01,1.27,0.207,52.941,3.048,0.46,287.071,95.309,72496.434,26.916,98.885
云南,文山壮族苗族自治州,11.095,16.098,4.215,3.786,0.299,45.419,1.417,5.045,293.383,88.549,86021.442,23.696,104.735
云南,昆明市,11.169,19.746,5.619,8.861,0.352,35.675,0.159,5.444,290.763,89.393,78797.469,25.384,102.863
云南,昭通市,18.577,29.313,9.652,7.542,0.421,59.281,-0.089,2.61,295.602,73.018,83420.471,27.667,103.985
云南,普洱市,8.085,10.271,2.678,2.737,0.233,36.909,2.134,3.682,292.471,93.228,85445.181,23.159,100.718
云南,曲靖市,11.057,18.401,7.988,8.024,0.362,43.169,-0.455,5.12,291.067,87.618,79597.781,25.737,103.929
云南,楚雄彝族自治州,11.12,18.168,5.507,3.684,0.369,42.545,1.713,3.934,292.273,85.673,80452.939,25.328,101.567
云南,玉溪市,8.989,13.375,3.27,3.723,0.205,37.124,1.533,4.861,291.686,92.52,82975.813,24.136,102.217
云南,红河哈尼族彝族自治州,8.474,12.136,4.056,3.233,0.2,39.264,1.079,4.542,292.007,93.063,84682.016,23.451,103.034
云南,西双版纳傣族自治州,6.691,9.057,4.399,2.792,0.263,35.772,2.366,4.67,293.738,92.023,88439.591,21.939,100.912
云南,迪庆藏族自治州,13.406,19.772,2.694,1.771,0.223,66.55,2.104,1.545,285.014,90.217,67140.619,27.957,99.459
内蒙古,乌兰察布市,27.87,30.83,1.91,3.729,0.189,75.588,4.279,-3.22,295.309,31.53,85393.776,41.691,112.44
内蒙古,乌海市,23.118,43.382,14.318,22.732,0.851,100.714,-3.21,-1.28,299.884,33.05,87049.732,39.396,106.856
内蒙古,兴安盟,20.639,26.273,5.433,3.003,0.29,73.496,1.086,-1.187,293.1,70.258,93252.443,46.244,121.341
内蒙古,包头市,16.594,20.06,1.704,4.104,0.185,79.323,1.721,-2.837,296.43,25.542,85426.53,41.549,110.276
内蒙古,呼伦贝尔市,17.32,19.859,4.074,2.103,0.223,63.482,-1.412,-0.256,288.568,83.105,92218.544,49.636,121.171
内蒙古,呼和浩特市,25.397,42.495,7.192,19.297,0.393,91.189,1.317,-1.7,296.238,37.851,85742.922,40.578,111.513
内蒙古,巴彦淖尔市,9.04,11.449,1.407,3.931,0.166,80.974,-0.23,-1.882,298.731,20.361,86771.137,41.446,107.582
内蒙古,赤峰市,25.539,31.141,5.273,3.453,0.266,76.915,5.739,-0.659,296.679,46.802,90648.808,43.226,118.892
内蒙古,通辽市,39.461,48.935,11.145,5.309,0.365,104.428,2.003,4.323,297.976,58.473,96187.263,43.814,121.591
内蒙古,鄂尔多斯市,19.787,29.659,6.194,8.788,0.355,96.296,-0.142,-0.551,298.159,39.226,86430.669,39.407,108.63
内蒙古,锡林郭勒盟,25.333,27.148,1.291,1.04,0.18,64.187,5.462,-2.412,293.826,42.676,88089.757,44.179,115.482
内蒙古,阿拉善盟,12.101,14.942,2.515,2.931,0.166,85.142,-3.39,1.012,300.558,23.049,86879.796,40.473,102.467
北京,北京市,83.652,84.898,6.995,20.97,1.064,132.559,1.188,1.709,300.628,53.142,96407.569,40.158,116.395
台湾,台湾省,9.561,11.925,5.46,16.623,0.126,39.692,-1.068,-0.656,297.002,72.85,92916.13,23.757,120.975
吉林,吉林市,28.576,34.042,6.39,7.678,0.433,115.537,1.298,6.103,295.168,55.996,95903.263,43.573,126.859
吉林,四平市,29.174,42.973,9.998,14.962,0.453,132.389,1.244,8.06,296.624,61.225,97846.765,43.472,124.386
吉林,延边朝鲜族自治州,24.059,31.721,5.693,3.831,0.277,82.634,-1.233,3.713,290.032,78.196,93323.721,43.141,129.147
吉林,松原市,34.273,47.006,12.087,8.208,0.386,117.368,0.5,7.385,296.527,68.496,98077.745,44.785,124.496
吉林,白城市,39.912,53.444,13.133,4.617,0.374,106.084,-0.084,4.713,297.688,64.956,98031.781,45.35,123.031
吉林,白山市,28.823,34.545,7.069,5.332,0.469,95.762,0.239,5.235,292.149,64.817,91414.206,42.063,127.256
吉林,辽源市,23.353,30.154,5.418,8.175,0.345,111.731,1.984,7.318,295.472,55.785,96207.572,42.836,125.32
吉林,通化市,25.949,33.533,6.804,6.553,0.547,100.468,1.109,6.04,293.547,64.653,94625.02,41.939,125.927
吉林,长春市,27.835,41.395,6.6,14.124,0.456,120.262,1.603,6.83,296.065,62.479,97796.018,44.268,125.611
四川,乐山市,30.684,44.157,8.463,12.49,0.607,54.941,0.835,-2.767,296.989,84.071,88618.116,29.218,103.569
四川,内江市,15.829,29.356,10.689,15.547,0.536,64.396,-1.565,2.566,302.515,66.116,95297.339,29.62,104.95
四川,凉山彝族自治州,25.609,36.245,11.861,5.262,0.6,62.389,-1.24,2.207,289.218,87.078,73882.673,27.883,102.065
四川,南充市,14.447,29.352,8.032,17.084,0.565,57.653,-3.277,3.058,302.472,62.626,95476.67,31.19,106.199
四川,宜宾市,28.872,42.025,8.792,12.948,0.623,64.164,1.349,-0.49,301.804,66.954,93740.482,28.573,104.621
四川,巴中市,15.275,27.149,8.794,10.962,0.509,48.409,-2.315,3.353,299.156,71.852,91523.438,32.033,107.031
四川,广元市,14.989,28.103,11.817,12.666,0.58,37.134,-2.486,1.163,297.765,79.945,90654.218,32.261,105.788
四川,广安市,14.059,26.729,7.717,14.94,0.465,64.048,-2.962,5.477,303.145,58.153,95489.81,30.43,106.628
四川,德阳市,11.731,23.805,6.408,11.22,0.544,55.773,-3.522,-2.741,299.053,76.874,92054.302,31.13,104.436
四川,成都市,12.187,23.993,8.224,13.357,0.518,55.011,-3.249,-3.304,299.192,76.81,92154.04,30.64,103.929
四川,攀枝花市,20.88,37.788,37.548,16.443,1.322,45.502,-1.372,2.124,294.628,74.04,80913.117,26.791,101.734
四川,泸州市,9.912,17.58,8.478,8.069,0.295,63.536,-1.409,6.85,301.758,58.373,92265.838,28.424,105.675
四川,甘孜藏族自治州,21.304,26.139,4.503,1.306,0.201,103.706,-0.961,3.341,282.483,83.651,61320.663,30.936,100.009
四川,眉山市,17.223,29.576,8.681,15.391,0.565,50.087,-0.655,-2.761,299.188,80.384,92555.729,29.912,103.766
四川,绵阳市,20.222,30.77,9.012,9.098,0.484,55.309,-2.636,-0.476,295.59,84.442,87172.056,31.86,104.704
四川,自贡市,22.433,35.009,9.557,16.509,0.637,58.189,0.174,0.475,301.906,71.436,95265.419,29.307,104.659
四川,资阳市,12.506,25.504,9.192,13.009,0.456,65.249,-3.286,2.797,302.946,62.089,95557.5,30.102,105.149
四川,达州市,16.964,27.83,9.227,14.925,0.429,61.732,-2.116,4.314,300.925,63.882,93039.233,31.335,107.636
四川,遂宁市,14.147,28.391,7.708,15.13,0.511,62.931,-4.349,2.35,302.927,61.23,95831.786,30.642,105.457
四川,阿坝藏族羌族自治州,29.227,42.454,12.68,2.029,0.339,66.033,-2.291,3.54,283.944,89.382,65601.893,32.406,102.61
四川,雅安市,28.049,41.693,11.077,5.481,0.428,68.105,-1.881,-1.163,291.398,90.891,79565.996,29.932,102.689
天津,天津市,59.241,78.847,6.567,22.963,1.008,124.483,-0.874,3.24,300.713,66.566,99927.523,39.315,117.308
宁夏,中卫市,25.826,40.213,9.468,6.561,0.447,98.108,-1.859,1.649,296.533,51.817,83115.028,37.018,105.509
宁夏,吴忠市,29.59,42.129,9.796,5.387,0.362,99.432,-1.244,1.005,297.202,51.014,84601.691,37.454,106.577
宁夏,固原市,27.49,39.872,10.15,9.862,0.446,82.092,-2.223,0.191,292.923,69.233,80677.857,35.905,106.183
宁夏,石嘴山市,27.606,55.602,15.341,23.522,0.958,108.161,-1.976,-0.902,299.001,37.656,86182.737,39.013,106.499
宁夏,银川市,29.629,54.694,12.29,15.566,0.596,117.683,-0.715,0.145,298.937,42.121,86448.271,38.287,106.342
安徽,亳州市,19.002,36.591,9.498,12.116,0.462,84.824,5.454,6.247,305.669,54.787,100005.298,33.44,116.162
安徽,六安市,15.013,26.467,7.053,8.654,0.316,79.846,4.572,7.263,303.279,61.645,97859.746,31.617,116.209
安徽,合肥市,16.989,36.131,7.159,14.373,0.452,77.603,3.968,7.497,304.714,59.342,100126.313,31.766,117.359
安徽,安庆市,14.039,29.18,7.771,10.004,0.395,68.965,3.419,7.491,302.424,67.176,98426.276,30.557,116.473
安徽,宣城市,10.776,19.608,3.783,9.408,0.336,54.548,4.428,6.461,302.898,64.871,98411.452,30.676,118.846
安徽,宿州市,21.588,40.322,9.365,15.433,0.523,81.599,5.396,4.996,305.33,56.519,99949.436,33.844,117.23
安徽,池州市,11.471,21.809,5.757,9.45,0.327,56.859,3.396,7.909,302.523,66.749,98640.08,30.296,117.379
安徽,淮北市,20.451,39.11,10.099,16.102,0.505,83.287,5.609,5.511,305.559,55.49,99990.776,33.722,116.747
安徽,淮南市,19.98,37.385,8.726,12.877,0.401,87.591,5.203,6.356,305.197,56.079,100182.487,32.463,116.746
安徽,滁州市,16.615,35.305,7.655,13.784,0.408,80.189,5.374,7.21,305.094,57.543,99956.457,32.55,118.076
安徽,芜湖市,13.118,29.37,6.707,16.536,0.459,60.737,5.0,7.319,304.157,62.084,100390.081,31.167,118.162
安徽,蚌埠市,21.073,38.291,10.45,15.398,0.41,86.684,6.203,6.778,305.913,53.543,100093.882,33.121,117.263
安徽,铜陵市,14.871,31.376,8.139,18.204,0.469,60.512,4.456,7.908,303.779,63.378,100270.159,30.883,117.531
安徽,阜阳市,18.688,35.997,10.614,12.109,0.43,82.048,5.289,7.219,305.544,55.572,100024.73,32.937,115.723
安徽,马鞍山市,14.456,37.475,8.344,19.116,0.536,65.709,5.072,7.257,304.353,61.474,100351.48,31.622,118.386
安徽,黄山市,11.383,20.262,5.066,8.536,0.335,48.081,3.673,6.304,300.85,71.905,96623.655,29.869,118.09
山东,东营市,26.791,41.144,11.106,9.054,0.508,105.167,-0.973,0.778,299.14,79.019,100110.779,37.57,118.572
山东,临沂市,19.375,38.974,7.294,21.148,0.619,61.064,4.078,1.691,300.157,79.461,98523.047,35.289,118.27
山东,威海市,13.573,25.062,7.801,6.595,0.376,87.487,2.49,3.242,296.274,89.875,99468.85,37.148,122.028
山东,德州市,25.762,38.309,6.543,11.169,0.65,115.588,0.979,1.928,300.361,74.917,100003.795,37.233,116.679
山东,日照市,20.452,35.749,8.409,22.415,0.597,61.156,4.23,1.384,298.904,86.277,98619.129,35.566,119.108
山东,枣庄市,20.578,43.487,7.616,21.276,0.67,57.217,3.434,0.85,301.696,72.27,99227.51,34.925,117.383
山东,泰安市,15.742,31.634,4.603,14.599,0.661,70.764,1.103,0.846,297.17,94.618,98424.006,35.993,117.04
山东,济南市,20.235,33.832,6.012,15.541,0.706,89.331,1.79,1.835,298.256,86.142,98355.719,36.639,117.254
山东,济宁市,18.925,34.871,5.534,14.582,0.745,69.05,1.409,0.335,299.18,85.526,99648.632,35.375,116.697
山东,淄博市,26.67,38.934,8.781,17.426,0.974,90.255,2.452,1.491,298.002,85.753,97759.696,36.623,118.062
山东,滨州市,31.515,43.432,9.329,9.499,0.68,112.853,0.482,0.912,300.208,74.968,100054.916,37.516,117.852
山东,潍坊市,25.603,36.679,8.043,15.115,0.649,84.931,2.838,1.621,298.008,88.133,99104.57,36.53,119.092
山东,烟台市,13.112,24.55,6.664,7.563,0.385,82.101,1.24,0.695,296.716,87.857,99027.058,37.25,120.789
山东,聊城市,27.93,39.125,5.564,11.475,0.936,98.852,1.167,2.484,298.737,84.267,99865.817,36.458,115.863
山东,菏泽市,24.115,35.636,5.675,10.634,0.929,87.132,0.437,-0.459,299.839,81.611,99791.389,35.134,115.69
山东,青岛市,17.405,31.082,6.106,15.113,0.443,71.773,3.709,2.617,297.844,90.398,99613.034,36.46,120.172
山西,临汾市,54.385,67.309,19.418,13.536,1.205,110.888,0.718,0.498,296.337,73.586,89281.962,36.227,111.398
山西,吕梁市,50.576,72.513,14.873,20.518,0.967,92.982,-0.243,-0.408,296.301,63.247,87017.824,37.663,111.27
山西,大同市,36.146,51.354,9.227,11.356,0.48,100.619,3.268,-1.441,296.115,47.002,86566.232,39.911,113.713
山西,太原市,57.976,91.874,12.285,26.738,0.95,96.821,0.586,-1.675,295.459,63.207,86919.412,37.967,112.321
山西,忻州市,45.367,67.536,12.442,11.901,0.585,106.883,0.871,-1.308,295.013,56.388,85523.466,38.877,112.391
山西,晋中市,62.414,89.085,11.339,20.688,1.057,112.842,0.302,-0.722,295.841,66.353,87770.081,37.328,112.997
山西,晋城市,46.47,66.03,12.578,15.288,1.28,92.641,1.239,-0.062,294.904,87.036,89654.731,35.625,112.752
山西,朔州市,40.711,69.942,13.405,20.469,0.602,103.236,2.243,-0.912,295.572,51.528,85976.673,39.619,112.655
山西,运城市,39.253,51.061,13.775,20.688,2.005,83.506,-0.518,-0.503,298.33,76.841,93229.222,35.205,111.071
山西,长治市,60.182,77.94,12.885,16.917,1.094,116.546,1.347,0.048,295.71,71.025,88049.446,36.48,112.915
山西,阳泉市,60.667,90.909,13.027,18.506,0.916,115.811,1.146,-0.593,297.537,56.29,89523.944,38.031,113.512
广东,东莞市,17.356,30.398,7.208,31.126,0.583,32.704,-2.501,5.419,300.919,82.129,100723.848,22.931,113.81
广东,中山市,7.841,14.263,3.356,12.554,0.356,34.081,-2.511,5.832,300.778,84.281,100709.056,22.5,113.383
广东,云浮市,8.813,14.345,1.527,8.457,0.409,32.112,-1.883,5.367,300.002,82.862,98644.481,22.776,111.818
广东,佛山市,16.36,28.96,6.445,31.085,0.677,35.727,-2.551,5.153,301.147,81.093,100700.827,23.035,112.979
广东,广州市,18.563,33.207,7.546,34.112,0.621,35.61,-2.993,5.179,300.493,82.148,99859.892,23.339,113.525
广东,惠州市,8.544,12.67,3.226,13.763,0.284,37.156,-2.406,4.691,299.695,84.117,98979.199,23.244,114.485
广东,揭阳市,9.994,20.229,4.512,7.614,0.579,38.511,-1.54,3.438,300.115,82.442,99635.292,23.323,116.123
广东,梅州市,11.968,23.433,4.694,10.123,0.606,39.922,-1.493,4.425,299.641,78.171,97621.178,24.169,116.07
广东,汕头市,6.445,11.958,4.727,7.154,0.33,44.501,-1.573,3.689,300.635,83.012,100742.954,23.339,116.614
广东,汕尾市,5.331,9.241,1.597,4.81,0.262,36.709,-1.81,3.774,299.749,84.363,99363.581,23.024,115.527
广东,江门市,5.475,9.026,1.509,7.374,0.247,34.464,-1.73,5.778,300.453,85.052,100124.217,22.289,112.676
广东,河源市,10.392,13.777,1.676,8.339,0.31,35.803,-1.154,4.701,299.384,80.979,97772.147,24.021,114.969
广东,深圳市,11.357,20.169,6.09,24.532,0.41,29.544,-2.644,5.8,300.57,83.81,100279.003,22.667,114.143
广东,清远市,15.196,26.245,7.806,24.736,0.536,51.997,-2.146,5.425,298.951,84.416,97187.034,24.295,112.871
广东,湛江市,10.507,20.497,4.297,9.593,0.497,45.993,-0.565,4.694,301.55,78.217,100431.731,21.091,110.163
广东,潮州市,10.984,22.811,7.111,11.344,0.603,41.966,-1.264,3.096,299.589,84.16,99106.844,23.755,116.754
广东,珠海市,1.398,4.362,1.068,3.09,0.12,35.037,-2.495,6.41,300.773,85.202,100791.46,22.095,113.317
广东,肇庆市,13.055,20.111,3.224,18.086,0.487,40.676,-2.62,4.701,299.93,83.622,98757.427,23.505,112.199
广东,茂名市,7.325,14.756,3.176,7.015,0.425,38.316,-1.908,5.178,299.772,85.737,98716.33,22.013,110.952
广东,阳江市,5.116,8.842,1.412,4.852,0.254,33.513,-1.148,4.879,299.663,87.901,99270.496,22.042,111.786
广东,韶关市,11.617,19.165,8.698,14.477,0.559,51.726,-0.908,5.294,298.795,81.973,96454.487,24.785,113.819
广西,北海市,9.254,14.579,2.689,5.379,0.429,50.106,0.249,5.671,301.353,80.739,100424.046,21.674,109.37
广西,南宁市,8.662,15.653,4.582,7.758,0.554,40.454,-1.038,5.765,300.01,82.008,98512.68,23.051,108.469
广西,崇左市,8.625,15.291,4.008,4.339,0.367,43.778,0.523,5.072,299.357,79.925,97224.528,22.483,107.291
广西,来宾市,10.441,19.058,4.593,6.361,0.493,45.148,-1.934,6.387,299.598,81.273,97401.237,23.859,109.417
广西,柳州市,10.286,19.225,4.975,6.51,0.478,49.361,-1.199,6.413,299.344,80.693,96775.458,24.956,109.372
广西,桂林市,10.505,17.587,4.69,5.346,0.409,48.199,-0.616,6.239,298.66,80.202,95255.522,25.353,110.513
广西,梧州市,9.831,18.753,3.677,8.509,0.567,37.982,-1.866,4.707,300.081,79.878,98314.908,23.484,110.996
广西,河池市,9.81,17.976,5.179,5.218,0.515,49.037,-1.619,5.966,297.702,85.409,94438.923,24.628,107.843
广西,玉林市,10.68,21.75,4.974,8.746,0.623,41.049,-1.662,5.726,300.11,82.946,98705.747,22.452,110.164
广西,百色市,11.403,17.539,5.313,3.992,0.501,52.44,-1.207,4.944,296.883,84.608,92356.373,23.981,106.292
广西,贵港市,11.177,23.802,5.633,8.495,0.648,40.012,-1.386,4.897,300.617,78.98,99076.526,23.322,110.021
广西,贺州市,10.927,18.026,3.644,7.326,0.503,45.671,-2.295,5.421,298.849,83.184,96555.258,24.364,111.394
广西,钦州市,9.712,15.841,3.427,6.932,0.58,43.075,-0.338,5.875,300.524,82.89,99686.461,22.173,109.01
广西,防城港市,7.783,11.409,2.902,3.566,0.434,44.766,0.858,6.151,299.481,84.034,98094.388,21.88,108.002
新疆,乌鲁木齐市,13.765,18.65,2.999,7.63,0.221,87.508,1.442,-1.804,292.104,50.67,83851.977,43.746,87.818
新疆,五家渠市,13.927,19.117,5.107,12.893,0.263,84.143,1.003,-0.647,299.503,41.293,95580.513,44.363,87.517
新疆,伊犁哈萨克自治州,4.875,6.478,1.833,1.861,0.183,84.899,0.748,0.31,286.614,55.851,80161.554,43.438,82.146
新疆,克孜勒苏柯尔克孜自治州,1.108,2.725,0.265,0.87,0.174,103.694,2.782,-2.715,281.745,50.192,70392.145,39.661,75.949
新疆,克拉玛依市,8.004,13.574,3.194,4.268,0.35,83.824,0.753,-1.632,299.394,33.414,96339.114,45.457,85.207
新疆,北屯市,8.624,15.588,3.426,1.906,0.314,71.738,2.094,-2.366,297.882,43.836,94589.952,47.27,87.868
新疆,博尔塔拉蒙古自治州,6.073,6.838,1.646,1.539,0.154,78.293,1.331,1.592,290.883,44.561,85704.814,44.714,82.114
新疆,双河市,6.334,7.242,2.144,2.486,0.164,74.57,-1.206,-0.858,299.326,29.44,96815.776,44.87,82.474
新疆,可克达拉市,8.724,12.956,3.818,3.18,0.268,80.782,0.358,0.07,295.368,45.604,94056.928,43.918,80.786
新疆,和田地区,11.94,19.906,0.361,0.728,0.108,77.902,0.133,0.241,287.754,46.942,73633.25,37.059,80.934
新疆,哈密市,9.992,13.182,0.855,2.376,0.168,85.451,-1.653,-0.422,300.539,23.424,87449.816,43.042,93.517
新疆,喀什地区,3.861,6.422,0.526,1.497,0.171,93.821,1.245,-0.263,288.098,38.313,75743.208,38.125,77.178
新疆,图木舒克市,3.665,4.028,0.545,0.762,0.13,83.217,-1.78,0.448,300.088,20.477,88328.962,39.892,79.182
新疆,塔城地区,6.936,8.149,2.117,2.08,0.212,77.464,0.205,-0.042,293.531,44.972,88949.892,45.642,84.789
新疆,巴音郭楞蒙古自治州,8.19,9.161,0.557,0.61,0.109,76.997,-1.61,-0.959,292.18,45.024,78648.673,39.463,87.481
新疆,新星市,9.225,24.045,0.98,8.425,0.38,103.42,-5.31,0.52,305.72,14.6,91496.505,42.75,93.68
新疆,昆玉市,31.34,71.033,1.577,4.227,0.13,78.32,1.603,-0.667,297.58,29.42,86182.72,37.457,79.093
新疆,昌吉回族自治州,15.473,17.695,2.88,3.805,0.16,79.901,1.622,-0.637,295.61,45.517,89230.969,44.342,88.608
新疆,石河子市,10.565,13.41,6.855,8.95,0.22,89.6,0.77,-0.105,298.435,36.175,93811.545,44.245,86.035
新疆,胡杨河市,8.952,10.522,1.748,2.41,0.274,79.902,1.884,0.046,299.726,30.252,96805.018,44.852,84.772
新疆,铁门关市,8.43,25.387,1.767,4.313,0.223,102.22,-0.053,-1.87,301.283,23.487,90624.05,41.773,85.66
新疆,阿克苏地区,5.242,6.608,0.727,0.926,0.129,90.776,-0.2,-1.057,295.785,28.499,84573.509,40.965,81.578
新疆,阿勒泰地区,10.946,13.021,1.7,1.12,0.16,75.996,0.721,-0.61,294.294,47.432,87956.745,46.902,88.421
新疆,阿拉尔市,7.178,9.651,0.818,1.336,0.139,92.589,-1.63,-2.012,299.994,22.104,89125.082,40.629,80.998
江苏,南京市,14.485,38.223,8.915,19.248,0.531,66.291,5.166,6.858,304.719,60.132,100379.041,31.899,118.876
江苏,南通市,30.399,55.734,13.57,34.479,0.565,85.065,4.233,7.05,304.54,62.063,100552.405,32.201,120.979
江苏,宿迁市,22.48,40.13,8.322,14.377,0.503,79.625,5.114,5.329,304.994,58.422,100220.442,33.765,118.495
江苏,常州市,17.536,34.784,6.155,17.431,0.489,69.642,4.838,6.243,304.458,60.961,100489.482,31.613,119.666
江苏,徐州市,22.831,43.77,8.732,18.381,0.64,71.749,4.054,3.027,304.207,62.157,99917.658,34.363,117.513
江苏,扬州市,19.318,43.509,9.894,20.051,0.538,74.656,5.422,6.997,305.149,58.777,100431.083,32.709,119.486
江苏,无锡市,22.51,43.971,8.463,22.69,0.554,72.832,4.328,6.167,304.31,61.626,100423.394,31.546,120.066
江苏,泰州市,24.553,49.115,9.749,21.56,0.561,82.78,5.329,6.899,305.025,59.187,100430.391,32.605,120.048
江苏,淮安市,19.734,37.685,8.505,14.532,0.479,76.109,5.595,6.539,305.165,57.984,100280.607,33.362,118.985
江苏,盐城市,26.284,45.246,11.002,17.252,0.539,79.016,5.051,5.837,304.419,62.314,100361.199,33.529,120.156
江苏,苏州市,30.293,55.109,9.55,30.617,0.653,82.249,3.208,6.168,303.926,64.994,100612.492,31.374,120.661
江苏,连云港市,21.911,39.489,9.384,18.772,0.563,65.262,3.52,3.719,302.957,68.659,100076.789,34.519,119.133
江苏,镇江市,17.778,40.246,8.155,19.904,0.529,72.532,5.269,6.511,304.701,60.146,100416.097,32.016,119.49
江西,上饶市,11.874,20.697,5.67,7.891,0.367,46.569,2.337,5.527,302.264,66.293,98646.336,28.778,117.47
江西,九江市,9.033,17.674,6.166,6.32,0.332,62.288,2.338,7.047,302.237,67.316,98460.806,29.313,115.444
江西,南昌市,8.291,18.909,7.849,9.367,0.486,52.359,2.533,6.663,303.384,64.209,100335.846,28.671,116.016
江西,吉安市,8.874,16.485,6.919,5.764,0.479,49.656,0.436,6.654,301.644,67.917,98228.508,26.954,114.831
江西,宜春市,10.002,18.153,7.858,7.405,0.464,49.884,1.961,6.255,301.945,67.85,98488.238,28.29,114.974
江西,抚州市,7.684,11.62,3.109,4.933,0.276,46.591,1.449,6.183,301.594,68.534,98284.934,27.514,116.42
江西,新余市,10.589,20.715,11.187,8.949,0.613,45.815,0.701,6.345,302.569,66.327,99388.179,27.847,114.836
江西,景德镇市,13.234,22.53,5.683,8.696,0.361,47.561,2.435,6.248,302.67,66.689,99405.738,29.287,117.24
江西,萍乡市,9.746,20.277,9.314,8.611,0.424,44.618,1.846,5.891,301.471,65.733,97209.364,27.505,113.908
江西,赣州市,10.628,15.646,4.437,6.526,0.626,47.505,0.099,5.918,299.709,76.093,96770.328,25.692,115.279
江西,鹰潭市,8.879,13.63,3.748,6.074,0.273,46.491,2.207,6.439,302.473,65.936,99164.493,28.222,117.094
河北,保定市,59.288,78.103,9.866,12.624,0.623,144.094,1.017,0.95,301.972,46.995,96417.349,39.018,115.159
河北,唐山市,57.316,84.695,14.088,26.591,1.247,103.971,-0.033,3.714,298.174,77.155,99482.661,39.731,118.354
河北,廊坊市,62.917,83.283,6.895,19.514,0.91,137.587,0.4,2.752,302.937,55.672,99934.429,39.267,116.632
河北,张家口市,38.15,44.146,5.369,7.518,0.285,87.627,4.639,-2.392,295.762,44.838,86946.814,40.877,115.042
河北,承德市,53.687,68.597,9.431,11.463,0.635,91.068,4.557,0.78,295.898,57.57,89984.56,41.339,117.578
河北,沧州市,37.647,54.381,9.114,12.602,0.589,132.181,0.113,2.283,302.246,62.779,100021.297,38.258,116.744
河北,石家庄市,59.775,93.173,12.2,18.855,0.897,144.777,0.902,0.722,302.429,45.9,96953.451,38.135,114.407
河北,秦皇岛市,46.069,74.864,14.003,16.365,0.757,110.932,1.638,3.756,296.674,81.57,97330.875,40.12,119.193
河北,衡水市,39.252,56.338,9.654,13.333,0.744,131.157,0.4,2.877,302.564,60.764,99914.897,37.755,115.813
河北,邢台市,48.526,76.47,10.656,17.551,1.216,133.734,0.303,1.991,301.773,57.992,98544.705,37.195,114.815
河北,邯郸市,50.299,73.865,9.835,22.199,1.674,107.252,0.638,2.385,299.216,74.47,98159.327,36.538,114.596
河南,三门峡市,22.697,31.776,6.179,15.098,1.091,61.085,0.897,1.196,298.122,77.326,90977.395,34.362,111.101
河南,信阳市,17.172,29.817,10.089,10.973,0.375,82.779,4.307,8.447,304.339,59.606,99179.937,32.091,114.907
河南,南阳市,16.433,28.423,6.449,10.16,0.494,78.087,1.912,4.357,304.15,56.859,97036.322,33.034,112.323
河南,周口市,19.435,35.697,8.385,13.064,0.644,82.38,3.63,4.005,305.23,56.079,99721.823,33.738,114.884
河南,商丘市,20.061,37.122,8.027,11.978,0.678,79.332,3.234,2.693,304.246,60.437,99793.97,34.277,115.718
河南,安阳市,45.186,64.172,10.277,20.492,1.548,95.445,0.339,0.93,297.789,85.144,97820.039,35.888,114.318
河南,平顶山市,19.867,30.975,5.725,15.487,0.83,74.52,2.174,1.791,303.136,63.474,97637.234,33.8,113.025
河南,开封市,21.368,34.43,5.437,14.727,0.99,82.173,1.211,0.032,302.116,69.912,99477.463,34.594,114.514
河南,新乡市,37.84,51.205,8.866,17.109,1.311,91.606,-0.505,-0.851,298.795,84.516,98615.181,35.256,114.111
河南,洛阳市,23.957,32.607,6.121,14.756,1.061,64.641,0.684,0.638,298.596,80.639,93251.371,34.274,112.019
河南,济源市,33.29,51.178,9.102,17.232,1.272,77.682,-0.145,-0.554,298.132,82.581,95002.43,35.105,112.445
河南,漯河市,20.604,34.66,7.794,14.13,0.712,83.055,2.808,3.362,305.558,54.738,99543.972,33.652,113.945
河南,濮阳市,30.32,41.078,5.161,12.625,1.211,98.264,-0.366,0.568,297.717,90.931,99779.694,35.809,115.283
河南,焦作市,30.722,46.018,5.656,20.793,1.321,71.457,-0.642,-0.366,299.415,81.696,98429.031,35.121,113.163
河南,许昌市,19.558,32.017,4.789,20.995,0.937,70.68,2.056,1.558,303.84,61.462,98910.633,34.075,113.707
河南,郑州市,23.937,34.611,2.924,22.519,1.312,70.249,-0.32,-0.529,300.188,78.463,97699.725,34.634,113.438
河南,驻马店市,16.794,29.67,8.438,9.874,0.43,85.071,4.256,6.936,305.707,52.622,99317.085,32.925,114.174
河南,鹤壁市,43.626,62.794,10.896,21.619,1.579,90.691,0.459,0.494,297.754,89.63,98945.08,35.716,114.319
浙江,丽水市,10.332,16.997,4.206,8.319,0.283,47.157,2.138,4.632,299.533,69.095,94210.862,28.194,119.51
浙江,台州市,18.931,30.515,5.85,10.23,0.346,68.88,1.288,6.256,299.97,82.872,98321.618,28.742,121.109
浙江,嘉兴市,28.317,44.936,6.788,27.201,0.655,84.863,2.408,5.596,303.815,66.605,100691.566,30.635,120.754
浙江,宁波市,20.756,31.187,5.748,11.471,0.438,75.661,1.108,6.715,301.693,75.895,99657.874,29.706,121.49
浙江,杭州市,14.319,23.452,4.713,14.252,0.422,52.115,4.284,5.299,302.47,65.509,97973.443,29.891,119.464
浙江,温州市,20.191,34.738,6.425,13.083,0.444,62.103,0.536,4.532,299.339,82.328,97212.744,27.897,120.411
浙江,湖州市,16.133,27.312,4.619,17.201,0.45,59.364,4.151,5.446,303.916,61.758,99434.757,30.757,119.871
浙江,绍兴市,18.627,28.473,5.554,13.709,0.496,66.164,2.365,5.693,302.884,66.529,98805.811,29.709,120.64
浙江,舟山市,14.06,24.762,4.297,5.692,0.185,61.668,0.71,10.148,299.615,89.218,100662.103,30.038,122.23
浙江,衢州市,12.057,20.81,5.499,10.629,0.378,44.693,3.661,4.994,301.831,65.513,97321.742,28.912,118.675
浙江,金华市,15.503,24.941,5.229,14.181,0.404,54.77,2.213,4.376,301.997,66.534,97567.054,29.109,119.967
海南,万宁市,1.816,4.784,0.583,1.798,0.123,35.179,0.336,5.409,299.986,87.828,99521.587,18.842,110.294
海南,三亚市,9.979,22.226,1.406,11.606,0.489,35.677,-1.841,3.071,298.946,90.691,98327.047,18.413,109.407
海南,东方市,3.266,5.046,0.732,1.881,0.16,48.958,-1.216,5.675,300.753,76.279,98866.706,18.971,108.838
海南,临高县,7.476,13.629,1.57,5.721,0.28,45.601,-1.163,3.25,301.184,74.277,100015.266,19.821,109.733
海南,乐东黎族自治县,4.647,8.312,0.604,3.831,0.247,42.871,-1.872,3.683,298.704,88.806,97433.446,18.659,109.072
海南,五指山市,4.768,6.814,1.044,3.916,0.202,40.93,-1.138,4.228,296.918,91.262,94294.678,18.81,109.518
海南,儋州市,5.96,9.066,1.114,4.033,0.209,46.705,-0.476,2.898,301.561,69.912,99670.191,19.568,109.399
海南,定安县,4.587,11.648,1.48,5.285,0.27,35.557,-1.075,4.86,300.542,83.47,99759.32,19.47,110.28
海南,屯昌县,3.362,7.316,0.74,3.464,0.2,37.544,-1.304,4.854,300.204,82.834,98985.434,19.342,110.076
海南,文昌市,1.91,6.887,0.722,2.502,0.157,35.64,-0.668,5.901,301.073,84.039,100529.687,19.707,110.773
海南,昌江黎族自治县,4.04,5.691,1.04,2.71,0.164,48.449,0.267,5.361,300.487,73.858,97862.798,19.233,109.016
海南,海口市,6.014,15.458,2.241,7.546,0.336,35.832,-0.816,4.718,301.155,80.202,100314.111,19.842,110.393
海南,澄迈县,6.357,14.306,2.084,6.789,0.311,39.411,-1.271,3.88,300.821,78.756,99862.003,19.676,109.989
海南,琼中黎族苗族自治县,3.616,5.981,0.598,3.128,0.169,39.673,-0.277,4.974,299.093,83.083,96847.057,19.087,109.847
海南,琼海市,2.815,7.208,0.995,3.187,0.168,34.755,-0.36,4.872,300.707,84.833,100320.473,19.22,110.43
海南,白沙黎族自治县,3.985,5.614,0.74,2.811,0.168,45.322,0.098,4.715,299.706,75.465,96545.971,19.2,109.388
海南,陵水黎族自治县,3.86,8.037,0.441,4.291,0.231,35.477,0.2,3.18,299.156,90.604,98878.331,18.581,109.913
湖北,仙桃市,11.52,23.706,6.01,9.223,0.428,71.64,2.131,7.968,304.484,60.18,100231.314,30.284,113.417
湖北,十堰市,17.413,24.493,5.636,5.067,0.355,58.336,2.429,2.045,301.106,61.31,92451.678,32.462,110.476
湖北,咸宁市,9.855,17.476,5.226,6.277,0.352,66.086,2.686,7.5,302.69,64.89,98562.487,29.621,114.178
湖北,天门市,12.996,26.904,6.016,10.263,0.47,71.689,2.232,7.909,305.036,57.682,100122.218,30.633,113.053
湖北,孝感市,14.018,27.755,5.226,10.254,0.437,78.297,2.506,8.095,304.394,59.83,99573.726,31.116,113.869
湖北,宜昌市,11.364,20.218,4.167,6.783,0.363,57.818,2.688,4.852,300.855,65.66,93336.717,30.746,111.129
湖北,恩施土家族苗族自治州,15.098,21.16,5.573,4.634,0.383,48.82,0.501,4.958,296.486,81.032,89076.536,30.195,109.552
湖北,武汉市,13.696,30.146,4.964,14.949,0.542,67.426,2.481,7.334,304.122,60.953,100167.418,30.606,114.349
湖北,潜江市,12.022,23.842,6.293,9.5,0.428,68.563,2.042,7.934,305.033,57.568,100136.279,30.33,112.77
湖北,神农架林区,12.208,16.192,2.975,2.028,0.216,57.978,2.97,5.435,293.988,77.547,82727.62,31.592,110.49
湖北,荆州市,11.02,21.922,6.445,8.705,0.427,65.122,2.292,7.545,304.676,58.62,99931.475,30.01,112.512
湖北,荆门市,13.377,26.041,6.35,9.803,0.46,72.077,2.165,7.957,304.694,57.322,99092.008,31.059,112.616
湖北,襄阳市,13.272,23.363,5.531,6.822,0.404,74.244,1.745,6.322,303.91,56.209,96378.68,31.919,111.96
湖北,鄂州市,12.13,24.116,6.421,10.98,0.506,63.973,2.709,6.357,304.126,61.077,100264.866,30.337,114.794
湖北,随州市,14.585,25.44,6.465,6.194,0.381,88.074,2.807,8.098,304.301,57.871,98413.304,31.809,113.43
湖北,黄冈市,13.604,25.348,6.568,9.726,0.408,68.594,2.368,6.742,302.942,64.595,98624.003,30.702,115.358
湖北,黄石市,9.436,17.686,5.619,6.557,0.386,65.714,2.588,6.296,303.246,63.628,99373.327,29.925,115.034
湖南,娄底市,13.125,22.165,8.25,7.495,0.656,52.576,0.744,6.369,301.155,68.557,96500.346,27.715,111.632
湖南,岳阳市,10.715,19.977,6.766,8.855,0.388,64.507,1.371,7.658,303.025,64.5,99231.596,29.081,113.275
湖南,常德市,10.327,18.158,6.095,6.063,0.442,56.755,2.522,5.408,303.294,62.483,98349.518,29.271,111.524
湖南,张家界市,11.112,18.827,4.687,4.362,0.508,48.483,2.263,3.911,299.782,74.456,94609.626,29.379,110.526
湖南,怀化市,10.707,23.16,4.914,4.622,0.638,50.595,0.961,6.027,300.244,71.946,95571.548,27.535,110.071
湖南,株洲市,9.388,18.94,10.163,8.339,0.403,49.552,1.603,6.444,301.566,65.535,97325.215,27.109,113.513
湖南,永州市,10.372,16.714,5.057,5.074,0.417,51.067,0.291,6.791,299.883,73.566,95974.207,25.748,111.723
湖南,湘潭市,10.76,20.145,8.212,8.973,0.564,54.242,1.085,6.914,302.919,64.586,99399.486,27.744,112.619
湖南,湘西土家族苗族自治州,12.905,25.264,5.705,6.087,0.654,39.184,-0.215,5.28,299.678,74.59,94544.138,28.708,109.718
湖南,益阳市,11.8,19.682,6.78,6.678,0.564,60.152,1.11,6.427,302.493,65.152,97951.391,28.525,111.919
湖南,衡阳市,11.031,21.37,9.448,8.238,0.528,51.956,0.646,6.552,302.48,65.169,98997.625,26.781,112.565
湖南,邵阳市,12.373,21.094,5.426,5.184,0.448,52.009,0.738,6.255,299.543,71.87,94381.579,26.893,110.881
湖南,郴州市,9.84,21.084,15.25,9.861,0.769,62.118,-0.189,7.074,299.236,75.234,95258.171,25.769,113.109
湖南,长沙市,11.047,22.276,8.557,11.027,0.504,54.966,1.177,6.882,302.442,65.986,98841.494,28.235,113.159
甘肃,临夏回族自治州,39.962,56.959,10.99,8.983,0.556,87.848,-2.189,1.102,291.724,69.482,77282.455,35.617,103.291
甘肃,兰州市,29.987,50.431,10.216,13.649,0.469,90.886,-2.757,0.862,293.632,55.26,78856.351,36.359,103.633
甘肃,嘉峪关市,9.498,44.41,7.175,41.88,0.698,87.497,-6.71,2.877,295.525,38.937,81216.858,39.798,98.145
甘肃,天水市,25.145,36.53,11.638,6.436,0.335,67.582,-0.831,2.297,293.065,80.588,82294.339,34.645,105.739
甘肃,定西市,38.539,51.964,11.6,7.257,0.416,81.821,-2.416,0.764,290.63,79.079,77088.6,35.124,104.432
甘肃,平凉市,24.786,37.463,9.836,10.215,0.442,79.836,-0.646,0.624,295.106,70.681,84038.448,35.304,106.644
甘肃,庆阳市,25.472,36.864,9.681,4.963,0.466,82.302,-0.946,0.029,295.712,68.122,85261.318,36.149,107.596
甘肃,张掖市,17.578,26.294,3.091,4.172,0.199,91.303,-3.836,1.693,290.156,58.73,74545.331,38.94,99.855
甘肃,武威市,21.108,29.728,5.652,3.149,0.198,91.289,-2.82,0.587,296.332,41.779,81004.088,38.163,103.073
甘肃,甘南藏族自治州,43.707,52.653,13.307,2.334,0.374,83.4,-3.905,1.057,284.684,91.292,67796.417,34.331,102.768
甘肃,白银市,27.451,43.617,10.342,8.186,0.403,92.245,-2.431,1.994,295.065,55.207,81136.7,36.59,104.646
甘肃,酒泉市,10.41,12.382,1.152,2.619,0.133,79.689,-4.743,0.823,294.224,35.351,78714.416,40.236,96.062
甘肃,金昌市,15.71,33.366,4.385,6.059,0.192,93.902,-2.528,1.053,295.448,43.95,80274.525,38.44,102.048
甘肃,陇南市,25.896,38.403,14.533,6.204,0.405,50.468,-1.067,1.355,291.753,90.89,81850.828,33.599,105.224
福建,三明市,8.655,13.246,3.853,8.631,0.427,43.648,1.215,4.385,299.118,72.133,94855.622,26.29,117.395
福建,南平市,9.837,14.742,4.453,7.121,0.31,48.361,0.634,3.673,299.591,71.587,95579.221,27.324,118.143
福建,厦门市,11.442,24.198,6.803,15.872,0.33,46.59,0.802,2.448,299.443,87.018,99989.873,24.642,118.11
福建,宁德市,15.954,27.127,5.828,8.884,0.358,67.241,0.786,3.313,298.536,75.74,94979.975,26.968,119.474
福建,泉州市,11.547,22.636,5.054,12.614,0.355,48.003,1.062,3.363,298.38,81.333,96313.088,25.201,118.249
福建,漳州市,8.142,16.217,3.119,8.645,0.257,44.25,-0.174,2.839,298.805,84.808,97878.994,24.372,117.444
福建,福州市,15.29,30.08,6.372,12.645,0.415,66.015,1.407,3.475,299.452,74.095,97019.76,26.083,119.206
福建,莆田市,14.227,27.971,5.983,12.861,0.396,58.185,1.926,3.101,298.708,83.021,97796.803,25.445,118.864
福建,龙岩市,8.757,16.878,4.229,9.501,0.37,41.749,-0.138,4.688,298.341,78.064,94880.677,25.256,116.739
西藏,山南市,25.283,27.45,3.138,1.305,0.208,134.309,0.472,2.626,284.462,80.897,66069.742,28.295,92.274
西藏,拉萨市,11.521,14.38,1.598,1.546,0.158,151.724,1.137,3.665,281.347,68.999,56761.595,30.043,91.093
西藏,日喀则市,10.433,11.319,1.213,0.492,0.163,136.332,3.698,2.633,279.781,59.717,55492.81,29.483,86.493
西藏,昌都市,16.21,17.275,1.361,0.787,0.162,151.359,1.35,3.585,282.287,70.455,59258.424,30.753,97.044
西藏,林芝市,24.416,26.31,2.418,1.48,0.184,117.739,-0.311,2.103,283.592,89.039,66360.52,29.184,95.25
西藏,玉树藏族自治州,10.899,11.406,0.798,0.346,0.123,97.319,-2.265,2.434,280.972,73.109,57550.147,34.196,94.317
西藏,那曲市,7.073,7.712,0.518,0.256,0.135,103.669,2.159,2.295,282.278,50.669,55593.019,32.709,89.262
西藏,阿里地区,3.347,3.554,0.458,0.326,0.128,88.743,5.306,-0.076,278.207,44.477,55009.178,33.013,82.553
贵州,六盘水市,10.0,18.935,6.732,7.537,0.357,49.883,-1.437,5.494,292.32,89.349,82710.039,26.106,104.896
贵州,安顺市,8.947,15.95,4.878,4.28,0.255,48.246,-1.895,5.94,294.726,86.899,87658.181,25.986,105.978
贵州,毕节市,9.389,17.765,7.087,8.108,0.287,51.332,-0.121,7.785,293.799,80.062,82990.347,27.063,105.211
贵州,贵阳市,7.612,17.337,4.019,10.191,0.342,40.342,-0.294,8.29,295.763,79.154,87672.897,26.845,106.71
贵州,遵义市,9.79,16.588,5.726,5.569,0.274,54.395,-2.057,7.774,297.775,73.393,89727.125,28.167,107.102
贵州,铜仁市,11.069,22.44,5.937,4.129,0.38,46.37,-0.818,6.659,298.459,74.844,92114.348,27.937,108.534
贵州,黔东南苗族侗族自治州,9.81,19.066,6.523,3.933,0.348,51.597,-0.664,6.987,297.297,81.222,92084.855,26.495,108.574
贵州,黔南布依族苗族自治州,8.234,15.088,4.228,3.864,0.281,45.899,-1.418,6.515,295.706,86.018,89848.797,26.0,107.265
贵州,黔西南布依族苗族自治州,10.473,16.344,4.893,3.29,0.308,50.397,-1.539,4.653,295.038,85.65,88020.164,25.256,105.467
辽宁,丹东市,21.258,30.42,7.525,7.229,0.506,91.897,-1.838,2.827,292.48,79.984,97415.474,40.554,124.376
辽宁,大连市,18.189,27.323,5.769,5.824,0.377,104.366,-2.114,1.645,294.279,84.147,99431.024,39.591,122.22
辽宁,抚顺市,21.816,29.585,6.462,5.582,0.459,110.733,0.156,6.793,293.892,65.214,95689.791,41.841,124.65
辽宁,朝阳市,46.772,65.806,12.842,9.612,0.748,118.136,2.859,4.342,298.072,63.027,95011.865,41.545,120.053
辽宁,本溪市,21.784,30.269,6.817,5.969,0.545,102.499,-1.054,6.181,292.233,75.429,95117.178,41.232,124.544
辽宁,沈阳市,23.013,42.915,14.632,13.176,0.637,141.569,0.487,7.617,297.148,64.918,99472.294,42.081,123.159
辽宁,盘锦市,20.957,34.965,9.317,8.026,0.545,125.095,1.086,6.435,296.089,77.447,100120.577,41.13,122.01
辽宁,营口市,18.183,28.672,6.134,5.828,0.397,109.896,-1.374,4.113,294.512,78.579,98090.554,40.395,122.478
辽宁,葫芦岛市,39.525,60.512,13.657,10.246,0.621,115.699,1.801,5.15,296.056,83.397,97701.855,40.66,120.215
辽宁,辽阳市,19.128,33.659,9.004,9.997,0.685,122.864,-1.271,6.182,295.001,72.961,98282.337,41.153,123.261
辽宁,铁岭市,23.805,38.86,11.659,13.902,0.473,136.462,0.887,8.066,296.271,60.811,98017.175,42.653,124.158
辽宁,锦州市,27.062,41.889,10.816,9.079,0.547,116.976,0.949,6.909,295.905,81.166,99283.249,41.502,121.659
辽宁,阜新市,33.091,47.348,12.777,8.455,0.494,122.939,1.318,8.042,296.725,74.968,97801.993,42.289,121.968
辽宁,鞍山市,18.748,30.973,7.194,7.328,0.526,114.368,-1.297,4.357,294.316,78.805,98366.015,40.731,123.007
重庆,重庆城区,12.583,21.169,8.617,11.611,0.349,59.731,-2.635,5.756,302.037,60.371,93939.947,29.824,107.125
重庆,重庆郊县,13.969,20.195,6.922,5.514,0.305,53.75,-1.131,5.016,298.555,70.877,90465.933,30.334,108.755
陕西,咸阳市,15.833,30.979,5.778,16.673,0.916,65.873,-0.704,0.683,298.422,73.247,90623.835,34.779,108.367
陕西,商洛市,16.925,21.71,4.753,5.281,0.386,58.835,2.721,1.5,297.668,74.417,88679.498,33.64,109.889
陕西,安康市,16.531,23.252,6.1,4.296,0.3,55.74,2.626,2.52,298.088,71.901,89206.952,32.735,108.932
陕西,宝鸡市,15.443,27.542,5.718,8.946,0.466,64.879,0.268,1.631,295.059,79.396,85810.739,34.386,107.193
陕西,延安市,34.182,45.574,10.836,11.322,0.778,80.157,0.001,0.15,296.254,67.447,86929.204,36.432,109.316
陕西,榆林市,31.816,49.125,12.157,16.352,0.749,98.291,-0.298,-0.715,297.85,52.269,87252.846,38.041,109.581
陕西,汉中市,15.745,25.108,9.269,7.466,0.502,45.535,-0.129,1.942,296.434,80.67,88307.88,33.088,107.098
陕西,渭南市,26.543,38.433,8.149,20.568,1.471,67.257,-0.262,-0.229,299.24,71.966,92848.039,34.919,109.855
陕西,西安市,15.964,26.794,4.935,14.179,0.738,54.386,1.214,1.328,297.769,74.822,89757.151,34.12,108.77
陕西,铜川市,22.546,35.959,8.636,16.817,1.178,63.116,0.023,0.585,296.461,79.122,88469.366,35.198,109.058
青海,保亭黎族苗族自治县,10.022,20.064,2.124,13.198,0.436,36.036,-0.858,2.416,297.76,93.932,96768.208,18.566,109.618
青海,吐鲁番市,17.747,25.556,1.985,1.887,0.152,75.54,-0.466,-3.327,300.799,25.719,89283.03,42.386,89.851
青海,果洛藏族自治州,30.538,33.738,5.999,0.77,0.208,94.553,-3.285,2.212,282.066,81.352,60279.749,34.127,99.404
青海,海东市,40.185,48.366,12.275,5.498,0.33,90.682,-3.955,0.669,288.593,68.788,72795.094,36.347,102.34
青海,海北藏族自治州,30.786,33.625,6.122,1.745,0.187,84.631,-3.126,1.672,282.398,82.879,65654.295,37.775,100.288
青海,海南藏族自治州,43.082,45.879,9.681,1.599,0.272,89.124,-4.731,1.37,284.777,79.298,66665.286,35.89,100.272
青海,海西蒙古族藏族自治州,16.596,17.219,1.818,0.477,0.13,82.069,-2.052,0.496,285.586,54.382,64561.286,36.677,94.519
青海,西宁市,32.748,44.157,10.946,7.496,0.43,86.842,-3.283,0.906,285.671,77.914,69730.472,36.842,101.423
青海,黄南藏族自治州,47.296,51.535,12.179,1.462,0.316,89.858,-4.824,1.403,284.09,86.259,66033.182,35.022,101.631
香港,香港特别行政区,2.575,5.64,1.96,14.185,0.14,31.015,-2.785,6.02,300.515,85.19,100470.4,22.45,114.22
黑龙江,七台河市,21.5,30.623,5.76,7.63,0.368,76.677,1.084,6.086,293.843,70.591,97079.696,45.87,130.943
黑龙江,伊春市,16.417,27.35,7.399,3.514,0.294,72.568,-1.211,0.757,289.985,84.94,95581.202,47.772,129.184
黑龙江,佳木斯市,21.108,26.917,5.447,4.998,0.306,75.613,-0.778,5.356,292.548,76.562,98984.773,47.207,132.11
黑龙江,双鸭山市,22.6,27.537,5.053,3.418,0.274,79.888,-0.919,7.932,292.048,78.34,98655.345,46.722,132.643
黑龙江,哈尔滨市,26.392,35.297,7.267,6.578,0.363,99.169,1.734,5.487,295.128,67.263,97241.618,45.634,127.964
黑龙江,大兴安岭地区,19.494,21.093,2.995,1.46,0.212,66.959,-2.646,0.132,286.709,87.927,93971.529,52.286,124.212
黑龙江,大庆市,29.6,42.661,9.994,7.517,0.422,95.826,-0.517,3.455,295.693,73.29,98249.997,46.327,124.687
黑龙江,牡丹江市,24.23,31.86,4.995,4.9,0.301,72.17,0.945,6.805,292.153,71.432,94518.309,44.592,129.883
黑龙江,绥化市,26.078,37.793,9.482,5.444,0.4,89.36,-0.843,2.537,293.981,78.843,97592.922,46.89,126.634
黑龙江,鸡西市,24.188,30.227,4.67,3.726,0.284,71.311,-0.016,8.394,291.277,81.644,98506.148,45.626,132.289
黑龙江,鹤岗市,14.164,22.966,5.985,5.392,0.322,70.631,-1.712,0.004,291.109,83.247,97948.581,47.661,130.778
黑龙江,黑河市,16.902,21.337,4.57,2.235,0.238,67.207,-3.349,-1.293,288.433,83.451,95979.656,49.268,127.004
黑龙江,齐齐哈尔市,23.447,32.251,7.725,4.238,0.31,75.274,-2.798,-0.927,292.374,81.462,97552.015,47.715,124.57
