province,city,PM2.5,PM10,SO2,NO2,CO,O3,U,V,TEMP,RH,PSFC,lat,lon
上海,上海市,12.98,18.513,5.399,21.922,0.429,69.384,-3.347,-3.886,295.359,93.033,100421.03,31.173,121.42
云南,临沧市,22.044,36.848,3.795,3.605,0.381,67.383,4.641,0.309,294.486,79.196,83430.273,23.935,99.686
云南,丽江市,16.617,34.787,4.975,3.664,0.33,74.508,1.867,0.892,291.112,72.133,74328.344,26.96,100.515
云南,保山市,21.526,45.575,4.078,4.753,0.315,64.75,4.281,0.053,292.933,81.718,81447.608,24.953,98.962
云南,大理白族自治州,17.611,34.446,3.508,3.448,0.316,70.865,4.421,0.44,292.529,72.541,77718.635,25.726,100.053
云南,德宏傣族景颇族自治州,22.292,40.957,4.398,5.162,0.231,63.599,3.24,0.052,294.585,86.94,85577.957,24.535,98.052
云南,怒江傈僳族自治州,18.176,33.006,2.529,1.456,0.308,65.814,3.122,0.005,286.897,92.084,72599.251,26.916,98.885
云南,文山壮族苗族自治州,17.11,24.06,4.697,3.743,0.332,65.86,3.199,3.673,297.078,75.492,85856.526,23.696,104.735
云南,昆明市,19.701,34.351,5.147,9.834,0.424,62.229,2.878,2.818,293.183,79.27,78797.388,25.384,102.863
云南,昭通市,21.417,41.871,9.527,7.018,0.591,81.753,-1.713,-0.924,293.242,86.191,83534.772,27.667,103.985
云南,普洱市,16.914,25.518,3.313,2.883,0.295,64.842,3.092,1.687,295.838,78.336,85426.473,23.159,100.718
云南,曲靖市,19.691,34.547,8.09,7.096,0.447,68.049,0.705,1.514,293.091,83.0,79557.565,25.737,103.929
云南,楚雄彝族自治州,17.54,25.069,3.519,3.229,0.285,69.537,3.712,2.923,294.979,71.207,80468.589,25.328,101.567
云南,玉溪市,17.521,25.189,3.379,4.461,0.299,65.545,3.257,3.08,295.099,78.388,82943.828,24.136,102.217
云南,红河哈尼族彝族自治州,16.691,23.863,4.223,3.834,0.263,63.612,2.832,2.665,295.37,81.214,84593.07,23.451,103.034
云南,西双版纳傣族自治州,13.892,22.454,3.869,3.518,0.319,53.728,2.775,2.605,296.802,80.679,88378.155,21.939,100.912
云南,迪庆藏族自治州,13.05,23.856,2.685,1.818,0.242,76.927,4.488,1.567,284.956,83.601,67196.976,27.957,99.459
内蒙古,乌兰察布市,13.296,16.375,1.411,3.387,0.201,74.366,-0.604,-1.181,293.384,25.712,85695.756,41.691,112.44
内蒙古,乌海市,20.961,42.711,19.566,16.854,0.516,121.696,-4.184,3.186,297.979,24.228,87067.963,39.396,106.856
内蒙古,兴安盟,4.971,6.134,1.376,1.523,0.192,61.649,3.656,-6.089,289.898,50.647,93815.747,46.244,121.341
内蒙古,包头市,13.31,19.2,2.686,6.903,0.216,82.678,-2.431,0.642,294.456,21.846,85627.002,41.549,110.276
内蒙古,呼伦贝尔市,7.4,9.081,1.421,1.672,0.202,61.684,2.522,-3.972,288.898,55.16,92625.319,49.636,121.171
内蒙古,呼和浩特市,10.849,26.604,4.249,15.347,0.358,82.616,-2.519,-0.313,294.458,24.585,85985.303,40.578,111.513
内蒙古,巴彦淖尔市,14.432,21.285,4.315,6.138,0.201,85.78,-3.418,0.695,295.999,19.931,86875.751,41.446,107.582
内蒙古,赤峰市,3.246,5.033,1.302,3.145,0.188,59.055,3.704,-6.572,291.353,37.558,91286.988,43.226,118.892
内蒙古,通辽市,5.036,6.615,2.067,3.187,0.192,63.03,3.804,-6.072,293.375,40.269,96794.174,43.814,121.591
内蒙古,鄂尔多斯市,18.347,32.802,8.825,14.423,0.348,100.356,-3.588,1.583,296.308,25.03,86535.709,39.407,108.63
内蒙古,锡林郭勒盟,3.065,3.82,0.57,1.384,0.167,60.799,0.804,-3.435,291.365,37.383,88656.325,44.179,115.482
内蒙古,阿拉善盟,36.26,41.834,5.903,3.18,0.198,92.372,-4.209,0.881,297.869,27.486,86845.213,40.473,102.467
北京,北京市,19.955,24.978,2.32,14.885,0.399,93.659,-0.183,-3.282,300.009,29.09,96887.359,40.158,116.395
台湾,台湾省,4.732,6.553,2.935,11.65,0.126,37.665,1.967,4.187,297.591,75.957,92436.268,23.757,120.975
吉林,吉林市,15.496,22.788,6.64,9.963,0.38,78.664,4.488,-0.446,289.347,77.061,95758.106,43.573,126.859
吉林,四平市,10.965,15.017,2.278,9.533,0.328,63.853,3.767,-4.508,292.752,54.279,98065.736,43.472,124.386
吉林,延边朝鲜族自治州,17.633,26.181,8.631,5.247,0.277,83.062,4.674,0.75,288.116,81.905,92829.389,43.141,129.147
吉林,松原市,8.176,12.817,2.564,3.854,0.241,62.642,3.478,-5.185,292.063,57.25,98392.169,44.785,124.496
吉林,白城市,7.154,9.229,1.952,2.537,0.214,61.274,2.852,-5.089,292.615,48.927,98595.574,45.35,123.031
吉林,白山市,19.014,28.23,9.866,7.398,0.447,66.188,4.624,1.057,286.823,86.429,91178.503,42.063,127.256
吉林,辽源市,14.069,21.54,4.775,14.06,0.434,63.733,5.421,-2.225,291.019,66.87,96227.857,42.836,125.32
吉林,通化市,15.57,25.472,7.877,9.304,0.489,60.458,3.816,-0.051,289.143,79.721,94541.489,41.939,125.927
吉林,长春市,9.578,16.396,2.877,8.393,0.332,68.173,4.253,-4.376,291.588,62.848,97877.611,44.268,125.611
四川,乐山市,31.566,50.18,9.248,13.398,0.599,73.778,-0.445,-0.421,296.58,71.975,88778.621,29.218,103.569
四川,内江市,22.529,40.459,9.792,20.113,0.704,82.397,-0.728,-0.383,301.113,62.648,95525.285,29.62,104.95
四川,凉山彝族自治州,21.506,34.567,9.583,4.766,0.463,75.365,-1.242,1.75,289.133,85.367,73909.749,27.883,102.065
四川,南充市,17.067,35.139,11.2,16.479,0.703,68.713,-3.515,-1.062,300.369,65.891,95582.084,31.19,106.199
四川,宜宾市,26.516,46.671,8.737,18.012,0.702,75.487,-0.235,-0.198,299.806,68.793,93966.23,28.573,104.621
四川,巴中市,21.957,39.068,11.466,8.393,0.562,69.464,-4.611,-0.507,296.979,69.077,91584.213,32.033,107.031
四川,广元市,21.063,40.777,13.2,10.085,0.547,66.615,-2.985,-0.186,297.027,67.144,90724.919,32.261,105.788
四川,广安市,26.459,45.524,8.896,22.522,0.872,52.197,-1.512,0.316,300.182,70.661,95585.127,30.43,106.628
四川,德阳市,24.482,47.455,9.242,21.132,0.636,80.097,-1.36,-1.202,299.18,58.397,92174.914,31.13,104.436
四川,成都市,25.135,48.417,9.612,24.226,0.63,84.307,-0.886,-1.324,299.551,56.925,92305.376,30.64,103.929
四川,攀枝花市,25.64,47.83,17.245,11.614,0.634,64.148,-1.187,0.716,295.983,67.373,80913.633,26.791,101.734
四川,泸州市,28.507,42.817,6.804,13.522,0.575,82.16,-0.295,-0.677,298.263,76.28,92431.638,28.424,105.675
四川,甘孜藏族自治州,13.814,16.866,2.571,1.162,0.174,100.2,0.895,3.007,282.434,77.653,61279.703,30.936,100.009
四川,眉山市,23.84,46.346,9.449,21.114,0.667,75.918,-0.399,-0.457,299.613,60.391,92735.066,29.912,103.766
四川,绵阳市,26.432,42.465,9.284,10.079,0.469,80.143,-1.634,-0.173,295.418,66.465,87241.737,31.86,104.704
四川,自贡市,26.553,44.921,10.183,21.267,0.741,77.721,-0.518,-0.606,301.254,61.99,95499.694,29.307,104.659
四川,资阳市,20.402,39.041,8.839,15.936,0.678,82.74,-0.93,-0.426,300.926,62.669,95763.682,30.102,105.149
四川,达州市,22.291,38.151,12.921,15.786,0.613,76.235,-4.145,0.299,298.187,66.56,93082.044,31.335,107.636
四川,遂宁市,21.599,41.048,9.638,19.599,0.77,70.595,-1.791,-0.719,300.907,64.087,95992.887,30.642,105.457
四川,阿坝藏族羌族自治州,27.315,35.87,6.52,1.813,0.257,74.863,-1.405,2.631,282.429,87.164,65543.626,32.406,102.61
四川,雅安市,29.571,45.608,9.312,5.009,0.395,84.773,-1.348,-0.479,290.011,84.299,79650.547,29.932,102.689
天津,天津市,36.259,52.043,4.214,27.186,0.692,112.169,0.12,-0.92,300.405,46.295,100367.675,39.315,117.308
宁夏,中卫市,29.963,55.491,13.047,10.26,0.51,112.448,-1.241,4.957,296.023,46.184,83053.175,37.018,105.509
宁夏,吴忠市,31.207,51.045,13.032,6.319,0.404,114.008,-3.117,4.646,296.613,39.884,84588.414,37.454,106.577
宁夏,固原市,35.282,61.067,11.417,17.551,0.483,101.084,-1.313,4.47,291.984,62.225,80671.972,35.905,106.183
宁夏,石嘴山市,21.242,46.662,16.759,15.307,0.554,119.076,-2.802,1.78,297.184,28.543,86192.263,39.013,106.499
宁夏,银川市,23.699,47.387,12.292,12.882,0.489,117.22,-3.163,2.145,298.175,30.087,86435.562,38.287,106.342
安徽,亳州市,42.244,62.132,10.467,15.512,0.615,126.299,-2.932,-1.098,299.143,66.316,100237.23,33.44,116.162
安徽,六安市,29.879,44.328,7.161,11.534,0.456,97.039,-3.77,-2.652,296.794,80.961,97784.341,31.617,116.209
安徽,合肥市,24.642,36.889,5.301,11.19,0.449,95.186,-3.733,-3.142,298.507,74.166,100042.481,31.766,117.359
安徽,安庆市,22.574,32.051,6.948,7.823,0.505,83.11,-4.528,-4.891,297.278,82.733,98116.466,30.557,116.473
安徽,宣城市,18.401,25.906,6.114,15.579,0.602,72.523,-4.651,-2.191,295.835,89.979,98061.99,30.676,118.846
安徽,宿州市,45.636,66.305,9.926,16.838,0.624,130.568,-2.285,-0.467,298.521,68.522,100195.712,33.844,117.23
安徽,池州市,19.915,29.051,8.577,11.226,0.605,71.826,-4.12,-3.841,297.262,86.355,98239.253,30.296,117.379
安徽,淮北市,45.967,64.599,12.788,21.277,0.687,130.145,-2.66,-0.649,298.901,66.804,100240.761,33.722,116.747
安徽,淮南市,34.816,50.531,9.542,14.963,0.487,107.379,-3.839,-2.647,298.346,72.95,100250.665,32.463,116.746
安徽,滁州市,24.6,37.695,6.515,10.085,0.352,99.331,-4.024,-3.013,297.826,74.203,99992.352,32.55,118.076
安徽,芜湖市,22.584,33.639,7.042,16.418,0.615,84.597,-4.732,-2.418,297.51,82.195,100179.783,31.167,118.162
安徽,蚌埠市,36.792,51.8,8.74,13.368,0.483,120.528,-3.808,-1.6,298.163,71.875,100260.048,33.121,117.263
安徽,铜陵市,24.319,34.13,8.267,14.538,0.618,82.956,-4.566,-3.717,297.754,82.162,100022.226,30.883,117.531
安徽,阜阳市,38.878,60.076,10.723,13.325,0.594,115.661,-3.657,-1.768,299.05,68.656,100203.188,32.937,115.723
安徽,马鞍山市,21.666,36.555,5.588,16.559,0.513,87.432,-4.242,-2.439,298.233,76.496,100194.726,31.622,118.386
安徽,黄山市,13.154,23.456,7.593,9.718,0.613,62.156,-3.157,-1.477,296.794,87.604,96086.757,29.869,118.09
山东,东营市,46.961,74.578,14.336,16.629,0.621,139.817,-0.909,-1.46,298.828,59.908,100471.286,37.57,118.572
山东,临沂市,42.414,78.288,10.706,25.244,0.682,131.42,-1.324,-0.464,298.767,56.173,98777.85,35.289,118.27
山东,威海市,26.403,39.705,7.341,11.825,0.374,85.947,2.274,0.281,295.318,74.253,99864.508,37.148,122.028
山东,德州市,45.353,77.559,9.201,23.691,0.593,154.278,-0.801,-1.384,302.043,46.142,100304.22,37.233,116.679
山东,日照市,39.031,67.763,10.75,28.043,0.729,114.943,-0.893,-0.047,296.854,66.79,98891.445,35.566,119.108
山东,枣庄市,49.299,91.274,10.824,24.384,0.692,136.746,-0.808,0.268,300.038,54.064,99463.867,34.925,117.383
山东,泰安市,46.402,88.255,9.689,25.798,0.684,152.622,-1.106,-1.839,301.026,47.71,98646.579,35.993,117.04
山东,济南市,49.336,93.435,10.199,30.887,0.748,144.626,-0.608,-1.705,300.804,48.941,98620.893,36.639,117.254
山东,济宁市,44.501,83.573,9.509,22.411,0.694,149.031,-0.516,-0.251,301.586,46.92,99865.793,35.375,116.697
山东,淄博市,53.954,97.329,14.447,31.568,0.972,142.274,-0.819,-1.542,299.508,51.854,98051.6,36.623,118.062
山东,滨州市,46.346,73.6,11.542,19.682,0.64,141.639,-1.007,-1.341,300.619,53.064,100393.195,37.516,117.852
山东,潍坊市,45.275,71.552,10.641,25.3,0.68,116.156,-0.107,-1.459,298.533,57.964,99423.486,36.53,119.092
山东,烟台市,27.238,47.775,7.429,18.978,0.441,80.334,1.011,-1.314,296.423,66.728,99395.59,37.25,120.789
山东,聊城市,44.677,80.544,8.987,25.814,0.659,157.781,-1.161,-1.691,303.246,40.932,100086.676,36.458,115.863
山东,菏泽市,42.257,74.87,7.678,21.483,0.714,144.786,0.489,0.727,302.111,45.305,100018.754,35.134,115.69
山东,青岛市,28.852,52.145,8.205,23.504,0.523,96.694,0.625,0.287,297.197,66.114,99946.695,36.46,120.172
山西,临汾市,61.298,87.42,19.277,15.425,1.29,144.186,-1.864,2.243,296.792,50.975,89499.326,36.227,111.398
山西,吕梁市,49.97,73.456,15.524,23.936,1.087,104.101,-1.6,2.271,295.545,44.052,87219.162,37.663,111.27
山西,大同市,12.291,26.586,4.458,8.46,0.415,87.405,-0.21,-1.39,294.639,24.697,86895.625,39.911,113.713
山西,太原市,50.977,87.588,12.552,28.182,0.929,122.349,-0.627,1.037,294.392,47.425,87168.898,37.967,112.321
山西,忻州市,21.539,43.258,6.447,12.813,0.441,99.597,-1.459,1.039,294.185,36.55,85753.192,38.877,112.391
山西,晋中市,43.051,64.201,9.124,18.983,0.783,129.143,-1.26,1.765,295.279,46.235,88052.649,37.328,112.997
山西,晋城市,51.512,81.262,11.486,18.427,0.911,154.426,-1.802,1.404,296.456,49.578,89896.958,35.625,112.752
山西,朔州市,13.068,45.33,7.612,18.062,0.538,88.008,-2.303,-0.047,294.228,30.219,86245.916,39.619,112.655
山西,运城市,56.604,84.39,12.787,17.087,1.011,145.841,-3.066,2.31,299.729,45.154,93428.67,35.205,111.071
山西,长治市,47.395,69.651,10.101,17.419,0.996,147.045,-1.631,0.43,295.444,47.302,88324.611,36.48,112.915
山西,阳泉市,37.716,66.201,10.279,26.991,0.642,108.59,-0.064,1.649,296.621,40.202,89843.463,38.031,113.512
广东,东莞市,19.032,40.347,5.65,20.986,0.587,55.958,1.779,4.663,302.168,82.709,100186.536,22.931,113.81
广东,中山市,11.989,22.659,4.167,10.283,0.414,53.559,2.733,4.544,302.587,79.869,100188.142,22.5,113.383
广东,云浮市,16.468,27.148,3.282,8.638,0.458,56.805,2.743,4.03,302.236,74.279,98186.633,22.776,111.818
广东,佛山市,17.56,31.744,5.613,17.576,0.537,57.958,2.265,3.522,303.343,73.639,100174.755,23.035,112.979
广东,广州市,21.85,43.925,7.145,25.282,0.632,64.174,1.516,3.475,302.224,79.036,99329.797,23.339,113.525
广东,惠州市,17.492,30.986,5.036,15.269,0.452,65.625,2.32,4.063,301.041,84.041,98433.479,23.244,114.485
广东,揭阳市,12.727,24.586,4.83,8.231,0.6,51.245,3.229,4.32,300.944,83.991,99043.217,23.323,116.123
广东,梅州市,16.086,28.469,6.728,11.024,0.66,52.131,2.63,3.806,300.374,81.191,97030.498,24.169,116.07
广东,汕头市,10.378,22.184,5.825,9.37,0.531,48.676,2.914,4.898,301.052,87.158,100142.392,23.339,116.614
广东,汕尾市,8.344,15.648,2.973,5.565,0.305,55.775,3.265,4.387,300.511,87.998,98799.726,23.024,115.527
广东,江门市,10.729,18.199,2.421,5.387,0.32,58.815,3.275,4.783,302.37,79.609,99638.989,22.289,112.676
广东,河源市,19.035,27.648,5.951,10.301,0.456,67.854,2.997,4.185,300.623,81.861,97201.727,24.021,114.969
广东,深圳市,16.178,33.801,6.117,21.338,0.497,46.63,2.637,5.243,301.399,86.574,99753.226,22.667,114.143
广东,清远市,18.887,27.911,4.294,11.214,0.469,63.888,2.79,3.681,301.117,77.619,96674.07,24.295,112.871
广东,湛江市,11.28,20.277,2.733,6.413,0.39,59.983,3.99,4.837,302.719,74.883,100064.806,21.091,110.163
广东,潮州市,17.282,36.189,9.523,15.134,0.911,46.622,2.204,3.949,300.066,87.847,98504.602,23.755,116.754
广东,珠海市,5.325,10.918,1.757,4.308,0.207,58.552,3.848,5.567,302.172,83.787,100296.077,22.095,113.317
广东,肇庆市,19.103,29.968,4.116,10.813,0.466,57.834,2.615,3.236,302.294,74.164,98270.286,23.505,112.199
广东,茂名市,14.4,27.804,4.919,8.517,0.525,59.865,2.721,4.301,301.44,80.854,98309.864,22.013,110.952
广东,阳江市,11.766,19.955,3.204,5.322,0.357,61.338,3.129,4.598,301.77,80.882,98823.919,22.042,111.786
广东,韶关市,20.286,27.94,7.159,12.99,0.695,69.698,2.906,3.525,300.5,80.031,95906.031,24.785,113.819
广西,北海市,9.114,15.468,2.378,3.384,0.364,66.828,3.761,6.524,302.49,79.413,100050.301,21.674,109.37
广西,南宁市,17.486,32.237,5.198,8.122,0.54,64.025,1.083,5.656,302.6,72.826,98118.714,23.051,108.469
广西,崇左市,18.8,28.477,4.851,4.809,0.452,63.057,2.3,5.451,302.597,69.531,96853.522,22.483,107.291
广西,来宾市,17.673,31.327,5.502,6.28,0.453,65.848,1.513,5.405,301.79,74.911,97005.991,23.859,109.417
广西,柳州市,18.039,29.969,7.539,6.785,0.48,66.182,0.77,4.798,301.476,76.451,96374.778,24.956,109.372
广西,桂林市,20.906,31.545,7.367,6.422,0.487,66.752,1.946,3.765,300.24,79.169,94845.969,25.353,110.513
广西,梧州市,21.203,37.761,6.114,11.031,0.634,58.023,2.801,4.506,302.062,74.504,97873.876,23.484,110.996
广西,河池市,18.238,28.701,5.33,5.647,0.648,64.7,0.492,4.957,300.836,76.012,94084.706,24.628,107.843
广西,玉林市,15.973,30.014,4.465,7.01,0.549,61.272,2.608,5.743,301.719,78.59,98309.972,22.452,110.164
广西,百色市,19.645,28.362,6.481,4.634,0.763,68.489,0.805,4.103,300.588,71.925,92062.695,23.981,106.292
广西,贵港市,21.359,41.507,5.977,9.093,0.601,61.398,2.224,4.903,302.468,74.709,98654.757,23.322,110.021
广西,贺州市,20.338,33.505,5.359,7.924,0.547,61.385,2.602,4.142,300.879,77.152,96106.616,24.364,111.394
广西,钦州市,13.652,23.951,3.423,5.618,0.481,65.277,2.466,6.47,302.215,79.18,99302.206,22.173,109.01
广西,防城港市,11.828,18.576,2.896,3.174,0.398,66.736,2.679,6.65,301.586,78.64,97734.283,21.88,108.002
新疆,乌鲁木齐市,16.044,23.91,2.865,8.109,0.25,90.956,0.244,-1.453,293.56,35.494,83745.474,43.746,87.818
新疆,五家渠市,24.11,48.073,5.68,23.753,0.473,76.03,-2.207,1.557,301.71,28.57,95373.913,44.363,87.517
新疆,伊犁哈萨克自治州,7.743,11.158,2.078,2.587,0.199,85.725,1.095,0.657,288.293,58.357,80097.88,43.438,82.146
新疆,克孜勒苏柯尔克孜自治州,1.221,4.045,0.274,0.72,0.18,104.043,3.042,-2.931,282.816,50.009,70493.269,39.661,75.949
新疆,克拉玛依市,17.015,25.47,3.396,4.917,0.276,89.7,-0.403,-0.887,302.329,28.764,96122.517,45.457,85.207
新疆,北屯市,13.584,15.956,3.156,2.354,0.396,72.24,-0.938,-0.086,299.446,39.794,94437.092,47.27,87.868
新疆,博尔塔拉蒙古自治州,12.613,14.318,1.667,1.979,0.172,78.078,1.496,-0.531,292.45,46.968,85641.202,44.714,82.114
新疆,双河市,12.594,14.454,1.996,2.906,0.18,74.784,1.056,-3.358,301.17,28.018,96644.33,44.87,82.474
新疆,可克达拉市,13.298,23.894,4.232,5.636,0.368,89.142,1.704,0.538,297.654,46.982,93870.052,43.918,80.786
新疆,和田地区,21.103,24.954,0.478,0.577,0.108,85.338,-0.368,-1.52,288.815,42.92,73677.299,37.059,80.934
新疆,哈密市,26.645,28.629,2.316,1.908,0.316,82.411,0.484,-2.497,296.315,45.325,87461.13,43.042,93.517
新疆,喀什地区,7.209,10.852,0.614,1.334,0.164,93.195,1.818,-1.784,288.655,40.945,75837.733,38.125,77.178
新疆,图木舒克市,5.647,5.977,0.65,0.842,0.115,76.773,-2.31,-2.86,297.968,36.283,88482.848,39.892,79.182
新疆,塔城地区,15.776,18.164,2.382,2.367,0.179,80.558,-0.003,0.297,295.994,37.91,88829.559,45.642,84.789
新疆,巴音郭楞蒙古自治州,17.457,17.916,0.979,0.527,0.11,83.436,-2.99,-1.021,292.609,37.35,78658.506,39.463,87.481
新疆,新星市,21.82,29.11,2.75,7.205,0.65,109.07,-2.62,2.015,301.76,29.75,91528.575,42.75,93.68
新疆,昆玉市,48.253,66.063,1.6,1.483,0.12,89.36,3.18,-3.57,299.61,24.85,86228.42,37.457,79.093
新疆,昌吉回族自治州,14.857,18.258,2.287,4.292,0.176,80.434,-0.472,0.45,296.408,40.44,89110.829,44.342,88.608
新疆,石河子市,15.565,21.475,5.68,9.77,0.28,93.75,-0.52,1.805,301.15,24.955,93588.125,44.245,86.035
新疆,胡杨河市,17.61,22.45,3.438,4.124,0.242,95.008,2.644,0.642,301.274,30.078,96588.148,44.852,84.772
新疆,铁门关市,14.387,20.633,4.757,6.497,0.29,95.47,-2.337,-1.103,302.363,22.063,90622.53,41.773,85.66
新疆,阿克苏地区,9.826,11.258,1.121,1.813,0.124,91.037,-0.241,-2.057,295.441,38.2,84631.605,40.965,81.578
新疆,阿勒泰地区,13.402,14.347,1.74,1.364,0.168,74.844,0.234,-0.415,294.98,43.709,87841.874,46.902,88.421
新疆,阿拉尔市,9.516,12.168,1.098,3.306,0.131,93.736,-0.686,-5.03,299.034,32.636,89237.772,40.629,80.998
江苏,南京市,19.636,33.967,6.226,18.767,0.448,79.066,-4.183,-2.525,298.094,75.125,100266.204,31.899,118.876
江苏,南通市,10.107,15.129,3.527,5.222,0.195,79.966,-3.458,-3.314,295.408,86.484,100477.45,32.201,120.979
江苏,宿迁市,34.746,54.264,8.796,11.86,0.524,117.408,-2.593,-0.48,296.705,77.762,100451.774,33.765,118.495
江苏,常州市,20.799,33.182,6.536,20.095,0.595,75.147,-4.377,-2.596,297.003,80.668,100321.606,31.613,119.666
江苏,徐州市,50.854,80.979,10.292,20.165,0.69,135.723,-1.237,0.543,298.826,65.464,100184.504,34.363,117.513
江苏,扬州市,17.436,29.269,6.079,8.828,0.328,86.245,-3.923,-2.708,296.971,76.992,100472.379,32.709,119.486
江苏,无锡市,18.91,30.484,7.302,21.612,0.618,68.711,-4.26,-2.574,296.358,83.741,100243.417,31.546,120.066
江苏,泰州市,14.566,23.979,5.155,7.222,0.296,83.189,-3.831,-2.723,296.339,80.472,100445.793,32.605,120.048
江苏,淮安市,23.87,37.235,7.476,7.956,0.404,99.552,-3.239,-1.509,296.399,79.816,100447.657,33.362,118.985
江苏,盐城市,16.2,24.03,4.774,5.878,0.261,86.181,-2.798,-1.532,294.894,88.005,100532.876,33.529,120.156
江苏,苏州市,14.68,22.849,6.555,20.455,0.475,74.389,-4.04,-3.397,295.704,88.244,100396.799,31.374,120.661
江苏,连云港市,36.978,59.42,9.637,15.0,0.612,116.565,-1.688,0.409,296.412,77.247,100342.454,34.519,119.133
江苏,镇江市,19.874,32.924,6.428,17.378,0.43,78.418,-4.34,-2.329,297.698,75.677,100312.731,32.016,119.49
江西,上饶市,14.535,25.093,7.752,6.089,0.593,66.783,0.771,-0.13,299.846,81.888,98015.07,28.778,117.47
江西,九江市,22.449,35.376,5.608,7.658,0.608,73.821,-1.114,-4.201,298.306,85.51,98026.991,29.313,115.444
江西,南昌市,13.642,27.399,5.681,10.311,0.682,63.239,0.588,-3.521,300.479,81.368,99782.899,28.671,116.016
江西,吉安市,21.725,33.366,8.518,7.036,0.672,75.254,2.826,1.061,301.227,77.278,97661.699,26.954,114.831
江西,宜春市,21.707,35.594,4.948,8.52,0.75,66.22,1.305,-1.423,300.327,79.542,97957.412,28.29,114.974
江西,抚州市,18.692,27.918,9.728,6.248,0.543,72.96,3.089,1.783,300.692,80.99,97647.116,27.514,116.42
江西,新余市,19.044,34.535,5.168,10.316,0.849,58.897,2.376,0.164,301.284,77.136,98837.627,27.847,114.836
江西,景德镇市,12.689,24.052,6.892,6.132,0.649,62.994,-0.655,-0.928,299.869,81.85,98806.911,29.287,117.24
江西,萍乡市,19.122,32.451,6.896,10.921,0.871,61.458,3.049,0.239,299.82,79.448,96725.386,27.505,113.908
江西,赣州市,21.534,28.67,10.25,8.404,0.769,75.926,2.875,3.449,300.465,80.619,96171.243,25.692,115.279
江西,鹰潭市,15.147,24.218,8.613,6.187,0.556,72.275,2.342,1.645,300.908,79.925,98509.531,28.222,117.094
河北,保定市,24.41,37.971,4.589,13.039,0.385,120.569,-0.621,-0.777,301.065,26.769,96847.574,39.018,115.159
河北,唐山市,36.095,52.487,10.648,29.782,0.824,98.974,1.097,-2.909,299.318,46.048,99883.442,39.731,118.354
河北,廊坊市,34.989,49.639,4.558,25.375,0.655,117.089,0.068,-1.197,301.702,37.69,100403.508,39.267,116.632
河北,张家口市,9.119,12.81,2.049,5.979,0.223,75.056,0.705,-3.258,293.436,32.229,87341.25,40.877,115.042
河北,承德市,6.319,8.552,1.982,7.114,0.223,63.057,1.461,-5.898,293.058,39.188,90457.613,41.339,117.578
河北,沧州市,39.721,63.162,7.81,21.482,0.521,137.082,-0.54,-0.731,301.451,45.926,100423.518,38.258,116.744
河北,石家庄市,32.458,63.325,7.954,22.254,0.525,127.787,-0.702,-0.332,301.817,28.779,97354.68,38.135,114.407
河北,秦皇岛市,15.759,22.625,5.65,18.222,0.499,74.954,0.924,-4.66,298.089,38.795,97700.05,40.12,119.193
河北,衡水市,41.564,70.781,9.327,23.359,0.59,149.184,-1.01,-0.821,302.647,41.061,100288.446,37.755,115.813
河北,邢台市,40.65,76.455,10.642,25.345,0.87,150.828,-0.98,-1.686,302.89,34.706,98878.351,37.195,114.815
河北,邯郸市,45.052,83.455,14.331,29.838,1.296,151.743,-1.161,-1.502,302.881,36.191,98421.962,36.538,114.596
河南,三门峡市,52.843,76.249,10.884,10.93,0.725,130.947,-2.564,2.696,297.212,54.047,91168.603,34.362,111.101
河南,信阳市,33.788,50.099,10.218,10.499,0.498,106.331,-4.212,-2.542,297.946,76.213,99246.304,32.091,114.907
河南,南阳市,35.481,55.788,8.1,10.068,0.682,123.005,-2.72,-0.961,298.918,62.614,97313.968,33.034,112.323
河南,周口市,39.149,66.087,8.848,17.624,0.748,125.199,-1.991,-0.416,299.855,61.536,100019.568,33.738,114.884
河南,商丘市,45.263,72.949,9.001,19.243,0.733,131.971,-0.743,0.588,300.412,57.335,100080.99,34.277,115.718
河南,安阳市,39.448,71.672,11.703,23.949,0.931,148.331,0.083,0.454,302.417,37.981,98058.318,35.888,114.318
河南,平顶山市,49.662,72.781,8.66,18.967,0.838,133.179,-1.558,0.098,299.594,58.492,97940.592,33.8,113.025
河南,开封市,41.209,72.545,6.025,23.963,0.739,129.81,-0.036,1.229,301.239,52.268,99758.085,34.594,114.514
河南,新乡市,39.298,69.477,8.689,24.231,0.722,141.205,0.286,0.921,302.105,43.043,98856.212,35.256,114.111
河南,洛阳市,55.71,81.929,10.32,16.09,0.835,140.253,-1.873,1.494,297.685,56.446,93479.859,34.274,112.019
河南,济源市,56.764,91.504,11.895,25.723,0.985,142.3,-1.095,0.958,299.965,47.707,95248.343,35.105,112.445
河南,漯河市,42.76,66.914,8.967,18.939,0.787,122.976,-2.148,-0.445,300.178,60.349,99870.733,33.652,113.945
河南,濮阳市,40.723,76.565,9.0,23.262,0.742,152.559,-0.245,0.359,303.336,40.362,99976.215,35.809,115.283
河南,焦作市,45.566,81.219,9.321,30.644,0.836,137.414,-0.714,0.752,302.222,42.191,98674.644,35.121,113.163
河南,许昌市,44.947,74.705,7.729,27.309,0.88,122.37,-1.292,0.589,300.563,55.623,99224.823,34.075,113.707
河南,郑州市,44.519,79.678,6.973,32.447,0.852,129.776,-0.461,1.237,300.751,50.222,97963.023,34.634,113.438
河南,驻马店市,38.882,58.433,9.231,12.411,0.626,122.2,-3.142,-1.738,299.253,67.062,99555.627,32.925,114.174
河南,鹤壁市,37.19,70.016,11.422,23.926,0.856,146.684,0.093,0.609,303.151,37.264,99167.848,35.716,114.319
浙江,丽水市,21.976,30.772,7.447,7.201,0.42,63.326,2.555,1.779,297.91,84.806,93497.98,28.194,119.51
浙江,台州市,19.422,31.587,5.233,12.928,0.402,59.667,-0.287,0.148,298.543,86.906,97569.016,28.742,121.109
浙江,嘉兴市,16.343,23.185,4.464,21.861,0.521,59.078,-3.388,-3.471,295.817,95.155,100347.211,30.635,120.754
浙江,宁波市,13.431,20.978,3.687,16.661,0.375,57.621,-2.459,-2.811,296.055,97.298,99103.28,29.706,121.49
浙江,杭州市,18.103,26.268,5.838,17.126,0.608,60.998,-3.138,-3.005,295.777,93.843,97480.19,29.891,119.464
浙江,温州市,23.993,39.688,7.152,16.644,0.539,59.342,2.117,3.887,299.584,82.31,96427.452,27.897,120.411
浙江,湖州市,16.975,24.406,4.894,19.675,0.601,65.413,-3.879,-3.173,295.29,93.915,99122.388,30.757,119.871
浙江,绍兴市,16.588,23.772,3.478,16.512,0.486,58.609,-2.582,-2.494,296.244,95.296,98267.33,29.709,120.64
浙江,舟山市,8.778,15.082,2.362,5.623,0.155,62.31,-2.748,-3.768,295.6,99.13,100101.025,30.038,122.23
浙江,衢州市,15.751,25.655,7.439,10.362,0.562,59.147,0.197,0.069,298.417,84.148,96683.591,28.912,118.675
浙江,金华市,18.132,27.836,5.388,13.36,0.478,59.797,-0.728,-1.567,297.892,86.283,96915.291,29.109,119.967
海南,万宁市,3.156,6.663,0.852,2.251,0.183,52.409,3.47,4.994,302.268,75.757,99192.936,18.842,110.294
海南,三亚市,6.034,14.683,1.22,9.177,0.399,47.449,3.336,2.511,300.484,82.961,98057.261,18.413,109.407
海南,东方市,2.785,4.779,0.761,1.519,0.187,59.211,1.961,6.255,301.362,74.947,98613.828,18.971,108.838
海南,临高县,6.39,12.08,1.244,3.98,0.259,54.567,3.999,4.24,303.459,63.45,99688.876,19.821,109.733
海南,乐东黎族自治县,3.75,6.691,0.582,3.072,0.238,54.197,2.136,3.365,299.852,83.472,97178.746,18.659,109.072
海南,五指山市,3.842,5.744,0.766,2.75,0.196,52.536,3.9,4.41,298.416,81.85,94044.542,18.81,109.518
海南,儋州市,4.273,7.079,0.974,2.644,0.21,57.572,4.063,4.902,303.136,64.339,99365.951,19.568,109.399
海南,定安县,6.66,15.493,1.415,5.503,0.302,48.797,2.297,3.49,303.18,67.02,99427.522,19.47,110.28
海南,屯昌县,4.394,8.728,0.854,3.356,0.234,51.186,2.996,3.754,302.924,65.438,98669.936,19.342,110.076
海南,文昌市,5.564,13.924,1.326,4.137,0.253,52.026,1.767,4.456,302.828,74.961,100183.696,19.707,110.773
海南,昌江黎族自治县,3.312,5.133,0.999,2.066,0.189,58.88,3.306,6.589,301.031,73.51,97599.383,19.233,109.016
海南,海口市,9.583,22.698,2.707,8.949,0.373,48.222,2.082,3.391,303.044,69.458,99975.032,19.842,110.393
海南,澄迈县,7.011,15.311,1.727,5.747,0.303,50.511,3.119,3.636,303.451,63.534,99532.563,19.676,109.989
海南,琼中黎族苗族自治县,3.501,5.717,0.723,2.539,0.196,52.57,4.073,4.517,301.23,70.219,96558.223,19.087,109.847
海南,琼海市,4.748,10.005,1.188,3.76,0.225,50.34,2.118,3.668,303.312,69.832,99976.557,19.22,110.43
海南,白沙黎族自治县,3.244,4.845,0.715,1.931,0.188,56.756,4.219,5.626,300.806,71.07,96273.539,19.2,109.388
海南,陵水黎族自治县,3.799,7.593,0.953,4.973,0.244,50.387,4.084,3.421,301.453,77.967,98569.296,18.581,109.913
湖北,仙桃市,15.513,28.448,7.505,12.426,0.747,80.515,-1.337,-4.267,298.678,79.129,100110.219,30.284,113.417
湖北,十堰市,29.697,48.039,10.894,5.0,0.562,91.619,-2.563,0.23,295.915,69.776,92643.412,32.462,110.476
湖北,咸宁市,24.832,34.375,5.439,12.112,0.817,70.872,-0.029,-2.972,297.878,85.069,98271.769,29.621,114.178
湖北,天门市,17.404,31.089,8.65,12.41,0.703,89.135,-1.82,-4.515,298.898,75.822,100091.398,30.633,113.053
湖北,孝感市,21.744,33.01,7.442,9.178,0.63,98.424,-3.113,-4.861,298.407,77.275,99517.926,31.116,113.869
湖北,宜昌市,26.595,41.648,9.451,8.691,0.65,79.345,-1.845,-2.686,295.573,73.479,93372.951,30.746,111.129
湖北,恩施土家族苗族自治州,28.482,46.497,13.27,5.793,0.704,62.424,-2.962,-0.364,293.269,84.152,88979.409,30.195,109.552
湖北,武汉市,19.178,31.002,5.681,17.784,0.761,68.445,-1.595,-3.586,298.783,80.679,99978.887,30.606,114.349
湖北,潜江市,16.401,30.793,8.588,15.78,0.746,83.374,-1.319,-4.643,299.068,75.081,100095.758,30.33,112.77
湖北,神农架林区,34.809,46.926,11.427,1.811,0.403,93.807,-3.132,-1.69,289.442,76.855,82681.731,31.592,110.49
湖北,荆州市,18.004,32.215,9.119,13.526,0.778,78.531,-1.194,-4.809,299.153,74.183,99867.396,30.01,112.512
湖北,荆门市,23.785,36.85,9.333,11.752,0.677,94.942,-1.761,-4.408,298.239,75.787,99154.16,31.059,112.616
湖北,襄阳市,27.597,44.036,8.596,8.161,0.648,103.654,-1.521,-2.237,297.542,71.872,96578.173,31.919,111.96
湖北,鄂州市,20.143,33.87,5.793,20.673,0.85,56.567,-0.69,-1.07,299.119,83.006,99997.011,30.337,114.794
湖北,随州市,29.5,41.501,9.238,8.207,0.571,115.538,-3.541,-3.386,297.991,74.853,98493.891,31.809,113.43
湖北,黄冈市,19.958,32.908,6.921,9.474,0.54,83.356,-4.024,-2.497,298.356,79.413,98351.378,30.702,115.358
湖北,黄石市,24.555,38.674,5.993,14.924,0.779,66.252,-0.81,-1.216,298.38,84.579,99057.005,29.925,115.034
湖南,娄底市,19.205,34.36,8.959,6.937,0.942,77.832,-1.763,-3.589,298.373,79.153,96206.721,27.715,111.632
湖南,岳阳市,19.818,31.769,7.502,9.482,0.736,83.631,-0.67,-4.39,299.391,76.823,98942.76,29.081,113.275
湖南,常德市,16.981,33.253,11.668,9.484,0.873,73.934,-1.486,-4.726,299.007,69.619,98245.914,29.271,111.524
湖南,张家界市,19.298,36.69,10.611,6.586,0.954,66.115,-3.349,-2.401,296.475,75.769,94490.232,29.379,110.526
湖南,怀化市,16.129,34.741,8.101,5.011,0.811,74.471,-2.354,-1.805,298.24,81.975,95318.837,27.535,110.071
湖南,株洲市,18.708,30.618,8.199,10.171,0.744,64.887,2.246,0.018,300.012,79.201,96869.523,27.109,113.513
湖南,永州市,19.817,28.237,6.223,5.426,0.588,68.594,1.904,2.482,300.46,77.892,95547.878,25.748,111.723
湖南,湘潭市,16.762,27.015,7.037,10.908,0.865,75.595,0.048,-4.383,300.246,75.234,99042.174,27.744,112.619
湖南,湘西土家族苗族自治州,17.251,35.777,7.292,5.216,0.885,62.434,-3.792,-1.556,297.029,78.086,94390.897,28.708,109.718
湖南,益阳市,18.382,32.926,9.469,7.224,0.892,80.255,-1.015,-4.32,298.993,73.828,97734.401,28.525,111.919
湖南,衡阳市,17.608,29.832,8.492,9.377,0.797,66.76,0.194,-1.416,301.04,77.195,98569.486,26.781,112.565
湖南,邵阳市,21.808,36.436,9.554,6.597,0.72,75.196,-1.379,-1.158,298.206,85.331,94056.289,26.893,110.881
湖南,郴州市,18.524,30.04,8.85,8.413,1.019,69.007,2.459,2.332,300.011,78.726,94781.213,25.769,113.109
湖南,长沙市,20.276,32.796,6.107,9.755,0.824,77.689,0.399,-3.989,299.967,76.122,98461.168,28.235,113.159
甘肃,临夏回族自治州,30.85,46.66,7.437,8.817,0.505,91.965,-1.074,1.969,290.844,57.812,77189.577,35.617,103.291
甘肃,兰州市,32.728,60.378,11.261,24.209,0.627,101.442,-1.539,2.168,292.578,53.051,78767.683,36.359,103.633
甘肃,嘉峪关市,29.358,101.0,11.915,26.495,0.633,89.285,-0.478,-0.6,294.882,33.957,81210.868,39.798,98.145
甘肃,天水市,34.532,55.422,10.015,8.059,0.418,79.125,-1.718,3.896,292.076,64.997,82310.747,34.645,105.739
甘肃,定西市,33.375,50.196,9.425,7.673,0.4,92.45,-1.547,4.192,289.464,65.939,77035.453,35.124,104.432
甘肃,平凉市,34.724,61.856,9.977,13.948,0.531,97.057,-0.67,3.994,293.777,60.156,84086.679,35.304,106.644
甘肃,庆阳市,35.757,63.946,12.521,8.658,0.551,110.702,-1.397,3.892,295.236,53.174,85325.912,36.149,107.596
甘肃,张掖市,30.067,51.716,4.366,2.445,0.202,93.896,0.104,-0.221,288.457,52.626,74495.626,38.94,99.855
甘肃,武威市,34.841,52.833,8.711,4.211,0.273,102.56,-0.529,-0.464,293.965,47.001,80931.823,38.163,103.073
甘肃,甘南藏族自治州,31.904,37.153,6.039,2.061,0.262,79.133,-0.785,1.495,282.928,81.076,67731.679,34.331,102.768
甘肃,白银市,30.906,56.049,12.492,12.946,0.535,105.212,-1.24,4.776,294.138,51.997,81066.73,36.59,104.646
甘肃,酒泉市,36.934,41.156,2.64,1.39,0.147,84.943,-1.412,-0.785,292.672,35.755,78706.598,40.236,96.062
甘肃,金昌市,32.386,63.276,7.629,5.265,0.234,106.419,0.411,-0.798,293.07,48.666,80202.633,38.44,102.048
甘肃,陇南市,32.059,49.447,10.768,5.194,0.373,76.303,-1.219,2.25,291.309,70.631,81867.57,33.599,105.224
福建,三明市,17.124,24.719,9.046,8.171,0.828,51.5,3.965,3.871,299.09,83.036,94201.869,26.29,117.395
福建,南平市,21.285,29.67,10.132,6.047,0.569,67.769,2.62,2.271,299.024,84.281,94872.691,27.324,118.143
福建,厦门市,15.418,30.837,7.463,15.098,0.43,46.67,1.86,5.345,299.718,90.468,99341.97,24.642,118.11
福建,宁德市,19.32,28.938,8.06,8.862,0.523,61.569,2.584,4.448,298.448,85.83,94237.355,26.968,119.474
福建,泉州市,15.871,28.789,6.297,11.718,0.521,52.936,2.45,5.234,298.43,89.563,95675.841,25.201,118.249
福建,漳州市,12.59,24.703,5.723,10.242,0.464,47.936,2.704,4.303,299.481,87.191,97252.308,24.372,117.444
福建,福州市,15.544,26.634,6.376,11.518,0.562,54.563,3.113,6.342,299.076,86.188,96328.985,26.083,119.206
福建,莆田市,15.405,29.224,5.648,11.738,0.493,55.266,2.469,6.25,298.448,92.797,97148.526,25.445,118.864
福建,龙岩市,16.144,26.332,8.39,9.446,0.57,52.153,2.457,4.09,298.614,86.175,94272.506,25.256,116.739
西藏,山南市,17.475,19.561,1.657,1.366,0.187,123.205,1.338,2.557,284.258,74.699,66167.62,28.295,92.274
西藏,拉萨市,6.484,11.178,0.928,2.285,0.152,122.502,3.426,3.651,282.285,45.666,56797.836,30.043,91.093
西藏,日喀则市,5.865,6.499,0.509,0.532,0.146,100.088,5.269,2.524,278.356,49.554,55607.379,29.483,86.493
西藏,昌都市,8.76,9.767,0.728,0.654,0.161,125.668,3.835,3.464,281.725,65.761,59262.724,30.753,97.044
西藏,林芝市,17.263,18.599,1.516,1.393,0.175,112.792,0.222,2.444,283.011,87.357,66451.909,29.184,95.25
西藏,玉树藏族自治州,8.565,8.873,0.458,0.338,0.117,78.738,-1.963,0.352,278.497,77.669,57539.612,34.196,94.317
西藏,那曲市,5.291,5.898,0.253,0.247,0.129,89.267,2.952,1.755,280.505,52.403,55647.588,32.709,89.262
西藏,阿里地区,3.599,3.881,0.464,0.327,0.132,95.3,4.425,-0.613,276.847,52.109,55087.819,33.013,82.553
贵州,六盘水市,21.373,38.564,8.198,8.29,0.512,72.273,-1.215,-0.886,294.168,86.088,82619.805,26.106,104.896
贵州,安顺市,18.596,29.566,3.975,7.892,0.379,75.866,-1.918,0.318,296.906,82.842,87467.313,25.986,105.978
贵州,毕节市,21.835,39.081,5.568,8.797,0.567,78.764,-1.657,-1.538,292.715,91.954,82992.904,27.063,105.211
贵州,贵阳市,22.372,36.637,3.095,19.298,0.611,63.805,-1.363,-0.971,295.222,90.443,87553.176,26.845,106.71
贵州,遵义市,34.458,45.947,10.627,8.496,0.517,69.18,-1.967,-0.641,295.678,87.886,89675.426,28.167,107.102
贵州,铜仁市,20.917,42.597,13.245,4.785,0.598,72.413,-3.358,-0.993,296.129,88.773,91959.331,27.937,108.534
贵州,黔东南苗族侗族自治州,18.045,33.901,9.865,5.17,0.491,68.597,-1.14,0.129,297.412,88.772,91822.074,26.495,108.574
贵州,黔南布依族苗族自治州,17.074,26.589,4.838,5.599,0.387,68.241,-1.049,1.379,297.372,85.804,89606.72,26.0,107.265
贵州,黔西南布依族苗族自治州,14.393,22.603,4.865,3.941,0.358,69.451,-0.193,1.659,298.261,76.378,87810.152,25.256,105.467
辽宁,丹东市,22.137,31.696,8.255,9.03,0.461,75.602,2.832,-1.505,292.177,73.666,97416.033,40.554,124.376
辽宁,大连市,24.497,32.099,6.005,11.859,0.589,85.376,4.064,-1.838,294.821,66.236,99633.564,39.591,122.22
辽宁,抚顺市,14.986,25.503,7.392,13.312,0.453,67.012,4.252,-1.287,290.895,70.796,95727.517,41.841,124.65
辽宁,朝阳市,7.645,13.494,4.401,11.471,0.357,63.3,2.887,-6.615,295.366,32.725,95539.62,41.545,120.053
辽宁,本溪市,17.367,30.226,8.586,12.482,0.541,74.019,3.915,-1.849,290.802,72.304,95125.921,41.232,124.544
辽宁,沈阳市,10.92,17.98,4.877,14.881,0.409,66.382,3.403,-4.457,295.792,44.301,99723.704,42.081,123.159
辽宁,盘锦市,12.797,19.685,6.176,15.284,0.541,82.741,3.395,-4.276,297.229,40.021,100393.761,41.13,122.01
辽宁,营口市,23.324,32.52,6.993,11.305,0.668,103.237,3.775,-1.312,293.933,63.157,98294.296,40.395,122.478
辽宁,葫芦岛市,9.997,15.017,5.436,15.102,0.413,69.22,2.044,-6.019,298.02,31.82,98094.874,40.66,120.215
辽宁,辽阳市,19.928,35.456,9.456,20.685,0.813,79.81,3.799,-1.859,294.205,58.218,98442.389,41.153,123.261
辽宁,铁岭市,12.913,19.215,4.685,15.289,0.382,63.718,3.904,-3.684,293.353,54.165,98191.869,42.653,124.158
辽宁,锦州市,8.103,12.123,3.953,13.599,0.328,68.414,3.567,-6.147,297.597,33.18,99635.677,41.502,121.659
辽宁,阜新市,5.647,7.356,1.774,7.168,0.221,62.712,3.987,-6.258,295.686,36.162,98229.138,42.289,121.968
辽宁,鞍山市,18.995,29.818,7.2,13.598,0.636,84.898,3.785,-3.017,294.834,55.985,98512.556,40.731,123.007
重庆,重庆城区,31.296,46.501,12.24,19.061,0.674,62.285,-2.095,0.396,298.72,73.013,94015.758,29.824,107.125
重庆,重庆郊县,29.551,46.178,15.046,6.358,0.517,72.835,-3.7,0.028,295.46,75.113,90427.458,30.334,108.755
陕西,咸阳市,37.723,72.218,9.422,19.826,0.858,111.157,-1.323,1.684,298.299,49.397,90743.215,34.779,108.367
陕西,商洛市,38.536,58.894,10.893,5.851,0.601,97.788,-2.141,1.706,294.921,65.396,88836.172,33.64,109.889
陕西,安康市,31.243,50.772,11.332,4.552,0.523,76.905,-3.66,0.955,294.924,67.258,89310.947,32.735,108.932
陕西,宝鸡市,35.587,62.196,7.427,13.104,0.582,87.188,-1.519,2.802,294.149,62.868,85877.151,34.386,107.193
陕西,延安市,43.245,67.633,14.542,18.237,0.94,89.128,-1.509,3.443,296.165,47.781,87053.507,36.432,109.316
陕西,榆林市,30.761,55.618,14.622,27.055,0.776,93.119,-2.186,1.794,296.968,32.481,87383.29,38.041,109.581
陕西,汉中市,30.535,50.607,12.22,6.915,0.537,76.856,-3.272,0.676,295.015,67.534,88382.541,33.088,107.098
陕西,渭南市,43.896,73.675,11.879,24.308,0.953,108.871,-2.439,1.349,300.17,43.141,92992.485,34.919,109.855
陕西,西安市,38.897,63.335,8.922,15.161,0.741,97.426,-1.367,2.709,297.388,53.36,89859.655,34.12,108.77
陕西,铜川市,40.698,70.195,12.325,17.677,0.941,109.361,-1.678,1.874,297.298,47.899,88592.333,35.198,109.058
青海,保亭黎族苗族自治县,6.116,12.768,1.67,10.532,0.34,46.954,4.52,2.534,299.978,80.81,96485.886,18.566,109.618
青海,吐鲁番市,17.517,19.693,1.852,1.645,0.161,68.227,-1.327,-2.896,299.017,30.251,89341.126,42.386,89.851
青海,果洛藏族自治州,19.899,20.699,2.469,1.336,0.165,72.863,-1.726,0.719,279.553,82.747,60239.961,34.127,99.404
青海,海东市,39.914,47.812,8.108,5.275,0.332,91.799,-2.034,0.298,287.538,63.36,72697.938,36.347,102.34
青海,海北藏族自治州,31.632,35.498,4.895,1.319,0.182,89.143,-0.98,-0.368,280.407,79.218,65568.147,37.775,100.288
青海,海南藏族自治州,28.55,30.641,3.897,1.28,0.198,80.576,-1.518,-0.114,283.378,68.221,66613.209,35.89,100.272
青海,海西蒙古族藏族自治州,16.721,17.096,0.764,0.413,0.113,80.265,-0.795,-0.582,283.699,52.226,64623.59,36.677,94.519
青海,西宁市,37.302,50.113,8.84,7.383,0.439,89.354,-1.812,-0.419,284.627,72.733,69631.784,36.842,101.423
青海,黄南藏族自治州,31.208,33.237,4.818,1.122,0.213,75.455,-1.186,1.114,282.44,76.873,65965.352,35.022,101.631
香港,香港特别行政区,8.1,15.565,4.4,13.795,0.245,49.185,3.06,5.095,301.225,88.78,99951.205,22.45,114.22
黑龙江,七台河市,13.99,21.844,3.889,6.919,0.284,66.023,1.484,-2.507,290.066,77.277,96686.48,45.87,130.943
黑龙江,伊春市,12.209,18.037,2.362,1.535,0.209,48.191,1.021,-4.325,286.403,74.645,95480.215,47.772,129.184
黑龙江,佳木斯市,16.276,20.862,3.032,4.042,0.241,55.887,0.429,-2.752,289.699,79.285,98624.134,47.207,132.11
黑龙江,双鸭山市,18.751,23.024,3.619,3.925,0.231,64.303,0.894,-0.435,289.957,83.425,98186.972,46.722,132.643
黑龙江,哈尔滨市,15.365,21.457,3.518,5.544,0.298,70.689,1.636,-2.034,289.882,72.904,97121.855,45.634,127.964
黑龙江,大兴安岭地区,7.769,8.566,0.705,1.097,0.185,63.543,2.424,-2.947,288.733,55.953,93932.428,52.286,124.212
黑龙江,大庆市,9.82,13.799,2.882,4.076,0.26,59.796,2.768,-4.89,290.832,63.814,98606.307,46.327,124.687
黑龙江,牡丹江市,16.919,23.593,4.809,4.035,0.243,77.784,2.906,-0.619,288.928,78.599,94044.639,44.592,129.883
黑龙江,绥化市,12.02,15.622,2.199,2.881,0.243,56.726,0.959,-4.996,289.883,66.637,97724.226,46.89,126.634
黑龙江,鸡西市,20.465,24.74,4.548,4.341,0.232,75.15,0.926,1.02,290.205,83.521,97902.345,45.626,132.289
黑龙江,鹤岗市,12.498,18.77,2.441,2.499,0.244,48.33,2.125,-4.926,287.848,74.614,97753.216,47.661,130.778
黑龙江,黑河市,12.986,16.208,1.759,1.42,0.203,55.374,0.114,-3.502,287.089,70.252,95991.021,49.268,127.004
黑龙江,齐齐哈尔市,11.273,13.306,1.871,2.535,0.231,57.193,1.189,-4.428,289.994,66.228,97863.774,47.715,124.57
