province,city,PM2.5,PM10,SO2,NO2,CO,O3,U,V,TEMP,RH,PSFC,lat,lon
上海,上海市,147.452,170.723,22.264,82.273,1.55,38.052,2.983,-5.151,274.228,63.932,102798.175,31.173,121.42
云南,临沧市,25.736,29.418,5.53,9.506,0.645,69.428,1.217,2.173,282.873,57.034,83878.401,23.935,99.686
云南,丽江市,22.896,39.333,7.944,6.812,0.756,67.79,3.038,2.34,275.523,57.108,74335.255,26.96,100.515
云南,保山市,24.619,38.535,6.235,12.283,0.606,62.424,1.462,1.287,280.968,58.212,81775.424,24.953,98.962
云南,大理白族自治州,23.08,42.306,7.416,8.694,0.71,68.246,3.077,2.466,277.925,58.354,77928.85,25.726,100.053
云南,德宏傣族景颇族自治州,26.985,35.389,6.014,13.504,0.598,60.742,0.26,0.928,283.925,57.146,86029.353,24.535,98.052
云南,怒江傈僳族自治州,16.964,26.922,2.792,3.675,0.446,68.998,2.413,1.891,274.42,69.052,72459.147,26.916,98.885
云南,文山壮族苗族自治州,34.816,49.69,11.768,6.225,0.788,53.898,-2.516,-1.504,276.164,77.636,86877.762,23.696,104.735
云南,昆明市,31.678,48.482,10.403,17.477,0.978,51.986,0.821,3.768,276.3,68.341,79160.584,25.384,102.863
云南,昭通市,41.439,61.438,15.436,12.625,0.968,54.019,-1.396,-2.602,270.314,68.214,84463.57,27.667,103.985
云南,普洱市,22.603,31.184,6.376,8.928,0.464,63.372,-0.632,2.345,283.156,68.026,86039.379,23.159,100.718
云南,曲靖市,28.859,45.083,12.231,12.587,0.898,53.232,-0.894,0.771,273.204,70.504,80037.746,25.737,103.929
云南,楚雄彝族自治州,27.554,41.71,9.332,13.105,0.826,59.385,2.415,3.96,279.264,60.234,80906.793,25.328,101.567
云南,玉溪市,26.531,40.024,7.95,8.831,0.69,58.036,-0.852,4.052,280.326,71.528,83528.24,24.136,102.217
云南,红河哈尼族彝族自治州,28.162,39.293,8.819,5.37,0.601,56.236,-2.725,2.224,279.196,80.024,85328.462,23.451,103.034
云南,西双版纳傣族自治州,26.318,39.465,7.04,10.347,0.491,52.248,-2.494,0.432,284.938,74.375,89088.766,21.939,100.912
云南,迪庆藏族自治州,9.986,16.023,2.542,1.846,0.343,70.746,6.449,2.22,271.596,63.873,66778.77,27.957,99.459
内蒙古,乌兰察布市,8.606,18.425,5.08,6.2,0.395,58.287,6.866,-1.656,256.602,61.058,86186.476,41.691,112.44
内蒙古,乌海市,29.877,92.577,31.251,26.474,0.688,52.36,6.196,-3.16,260.539,47.344,88451.663,39.396,106.856
内蒙古,兴安盟,3.973,5.046,3.062,2.53,0.258,49.009,6.575,-3.72,254.354,53.051,94936.093,46.244,121.341
内蒙古,包头市,8.082,18.328,4.1,6.87,0.382,58.126,5.865,-1.775,256.735,57.46,86288.616,41.549,110.276
内蒙古,呼伦贝尔市,4.2,5.022,4.756,5.071,0.268,46.426,5.182,-1.904,248.988,69.346,93426.194,49.636,121.171
内蒙古,呼和浩特市,28.156,67.08,17.032,28.224,0.897,45.682,4.151,-1.219,258.16,55.382,86664.548,40.578,111.513
内蒙古,巴彦淖尔市,5.351,13.45,2.343,2.497,0.256,59.425,5.924,-0.886,258.116,51.908,87935.038,41.446,107.582
内蒙古,赤峰市,4.562,8.276,3.56,2.942,0.298,53.518,6.662,-3.617,257.852,53.626,92155.766,43.226,118.892
内蒙古,通辽市,7.316,10.714,5.22,4.661,0.32,45.848,5.546,-3.244,258.856,45.601,98509.15,43.814,121.591
内蒙古,鄂尔多斯市,14.438,37.264,12.532,13.914,0.442,54.612,5.521,-2.027,260.12,50.014,87624.72,39.407,108.63
内蒙古,锡林郭勒盟,1.398,3.162,1.468,0.992,0.208,56.784,6.756,-1.578,254.962,69.2,89225.122,44.179,115.482
内蒙古,阿拉善盟,5.546,9.902,2.51,1.741,0.222,57.666,4.882,-1.836,259.884,51.692,88423.522,40.473,102.467
北京,北京市,16.09,41.708,5.95,20.911,0.484,52.061,3.224,-2.89,266.854,33.784,98777.757,40.158,116.395
台湾,台湾省,18.814,25.06,5.602,15.568,0.305,53.038,-0.564,-3.575,286.179,84.586,93206.202,23.757,120.975
吉林,吉林市,37.7,48.422,14.595,22.593,0.849,48.695,4.153,1.754,253.942,72.836,97563.923,43.573,126.859
吉林,四平市,25.594,36.059,13.406,18.414,0.643,42.882,3.589,-0.07,256.751,55.816,100119.786,43.472,124.386
吉林,延边朝鲜族自治州,23.146,28.298,10.032,14.392,0.488,50.102,7.897,0.069,254.116,64.854,94151.532,43.141,129.147
吉林,松原市,28.478,35.184,7.48,13.478,0.603,42.208,3.996,-0.466,255.064,55.68,100434.63,44.785,124.496
吉林,白城市,13.948,17.327,4.692,7.15,0.414,45.53,3.836,-1.612,256.878,45.38,100550.715,45.35,123.031
吉林,白山市,30.978,42.839,18.874,22.94,0.854,39.366,3.966,1.79,253.212,75.941,92303.495,42.063,127.256
吉林,辽源市,38.748,52.051,14.94,28.788,0.936,40.907,4.213,0.494,256.167,67.245,98060.987,42.836,125.32
吉林,通化市,39.532,56.251,19.667,29.046,1.062,37.832,2.947,0.556,255.924,70.05,96129.15,41.939,125.927
吉林,长春市,37.875,48.334,12.824,21.466,0.797,44.242,4.12,0.442,254.286,63.44,99946.014,44.268,125.611
四川,乐山市,64.024,83.367,10.506,24.903,0.918,47.792,-0.364,-2.576,271.848,61.187,90353.63,29.218,103.569
四川,内江市,53.268,80.716,9.334,27.779,0.909,38.621,-0.822,-3.353,276.572,43.832,97849.566,29.62,104.95
四川,凉山彝族自治州,27.343,40.455,9.944,9.106,0.866,66.696,0.878,1.454,271.612,58.353,73901.245,27.883,102.065
四川,南充市,52.969,87.93,9.743,31.99,0.908,53.254,-1.951,-3.452,275.694,41.415,97879.505,31.19,106.199
四川,宜宾市,57.942,79.116,14.539,25.795,0.98,38.306,0.665,-2.906,275.971,52.216,96103.427,28.573,104.621
四川,巴中市,46.08,66.688,8.544,19.179,0.766,58.585,-3.477,-4.069,271.96,41.992,93333.391,32.033,107.031
四川,广元市,37.901,59.178,9.606,16.674,0.653,55.451,-1.535,-4.427,271.516,42.642,92434.374,32.261,105.788
四川,广安市,54.12,85.6,12.418,34.818,0.898,45.482,-0.978,-2.763,276.243,45.534,97854.857,30.43,106.628
四川,德阳市,58.792,95.264,7.228,31.185,0.826,46.557,-1.79,-1.86,273.17,45.155,94140.336,31.13,104.436
四川,成都市,60.488,91.9,8.159,35.632,0.892,43.167,-1.25,-2.434,273.528,47.731,94306.162,30.64,103.929
四川,攀枝花市,40.268,69.348,22.421,26.824,1.474,56.52,-0.358,1.563,278.847,47.98,81396.668,26.791,101.734
四川,泸州市,46.794,64.115,13.167,20.722,0.744,40.535,0.401,-1.708,274.903,56.347,94352.641,28.424,105.675
四川,甘孜藏族自治州,4.739,6.463,0.896,1.049,0.166,76.206,8.124,-1.112,266.322,41.352,60508.912,30.936,100.009
四川,眉山市,64.039,90.592,8.3,32.938,0.945,43.481,-0.792,-2.688,274.18,51.675,94783.242,29.912,103.766
四川,绵阳市,47.732,71.103,8.325,18.138,0.628,53.543,-1.398,-1.617,270.01,51.166,88611.459,31.86,104.704
四川,自贡市,64.461,85.214,11.194,30.068,0.96,36.327,-0.61,-3.326,276.886,44.251,97824.97,29.307,104.659
四川,资阳市,42.929,79.244,7.24,23.586,0.823,44.388,-1.512,-3.398,276.281,43.757,98120.374,30.102,105.149
四川,达州市,55.811,78.59,11.441,27.741,0.911,55.086,-2.442,-3.128,273.65,45.811,94992.124,31.335,107.636
四川,遂宁市,45.808,84.38,8.166,28.02,0.814,49.166,-1.963,-3.351,276.226,42.529,98373.14,30.642,105.457
四川,阿坝藏族羌族自治州,12.226,19.204,1.962,2.784,0.251,72.668,3.758,-0.736,264.23,47.739,64857.344,32.406,102.61
四川,雅安市,60.63,75.995,10.508,13.948,0.707,64.616,-1.305,-0.339,266.797,71.886,80237.48,29.932,102.689
天津,天津市,28.278,66.386,9.41,40.478,0.775,40.908,2.34,-2.894,268.915,31.736,102788.387,39.315,117.308
宁夏,中卫市,26.1,61.832,12.09,12.826,0.546,58.745,3.88,-3.076,260.908,56.462,84113.468,37.018,105.509
宁夏,吴忠市,21.96,53.65,14.577,12.13,0.448,56.762,4.824,-2.397,260.784,55.331,85734.167,37.454,106.577
宁夏,固原市,32.712,63.7,13.311,17.82,0.657,62.398,3.113,-3.912,260.144,62.652,81265.048,35.905,106.183
宁夏,石嘴山市,34.06,86.17,44.798,27.51,0.742,52.715,5.168,-2.302,261.211,40.768,87438.74,39.013,106.499
宁夏,银川市,34.811,87.56,36.367,26.001,0.748,50.756,4.059,-1.684,261.944,43.646,87808.881,38.287,106.342
安徽,亳州市,113.486,148.276,20.074,53.153,1.194,59.898,1.652,-0.371,269.943,62.506,102760.495,33.44,116.162
安徽,六安市,81.344,103.854,13.884,33.131,0.775,80.34,1.538,-1.39,268.731,69.373,100101.124,31.617,116.209
安徽,合肥市,118.438,136.838,14.414,59.368,1.124,72.783,1.542,-2.614,269.585,75.937,102630.652,31.766,117.359
安徽,安庆市,96.506,102.55,13.363,29.542,0.735,83.194,-1.672,-4.339,270.72,63.175,100510.561,30.557,116.473
安徽,宣城市,108.93,125.131,17.812,40.437,1.195,66.233,0.658,-1.578,268.322,81.724,100403.539,30.676,118.846
安徽,宿州市,138.345,172.05,23.574,59.627,1.302,54.959,2.286,-1.125,270.778,53.626,102666.865,33.844,117.23
安徽,池州市,101.45,115.976,15.648,33.58,0.966,74.334,-2.274,-3.574,269.614,76.434,100664.614,30.296,117.379
安徽,淮北市,135.453,172.554,25.592,62.192,1.301,55.328,2.042,-0.516,270.427,58.338,102736.414,33.722,116.747
安徽,淮南市,108.282,129.47,16.962,47.006,0.915,73.793,1.646,-1.516,270.19,71.114,102821.46,32.463,116.746
安徽,滁州市,119.517,147.608,17.542,56.23,1.098,65.508,2.006,-2.713,270.643,62.786,102473.714,32.55,118.076
安徽,芜湖市,144.994,153.158,20.572,64.287,1.45,65.075,0.592,-2.354,269.04,80.624,102790.376,31.167,118.162
安徽,蚌埠市,130.125,159.896,20.224,59.566,1.173,68.06,2.159,-1.319,270.244,62.128,102773.399,33.121,117.263
安徽,铜陵市,130.973,144.438,17.298,48.988,1.162,79.954,-0.512,-3.636,269.826,79.632,102643.45,30.883,117.531
安徽,阜阳市,89.826,123.616,18.462,44.816,1.09,62.804,1.651,-0.596,269.116,67.934,102763.74,32.937,115.723
安徽,马鞍山市,149.176,159.333,19.594,69.491,1.41,59.187,1.583,-3.012,269.628,73.424,102778.682,31.622,118.386
安徽,黄山市,66.288,82.377,12.932,19.174,0.851,62.297,-1.965,-3.433,269.507,67.748,98216.205,29.869,118.09
山东,东营市,47.24,81.476,26.06,40.9,0.977,32.151,2.368,-2.464,268.843,42.808,102890.444,37.57,118.572
山东,临沂市,87.553,137.405,32.113,57.695,1.396,32.317,1.871,-1.938,269.879,43.364,101023.805,35.289,118.27
山东,威海市,34.908,69.5,19.104,30.472,1.079,45.612,4.164,-2.782,269.738,59.218,102032.569,37.148,122.028
山东,德州市,65.113,105.636,22.336,50.482,1.316,33.196,0.971,-1.656,269.801,30.071,102819.182,37.233,116.679
山东,日照市,69.365,118.028,28.085,58.28,1.295,30.13,2.16,-2.776,269.571,41.004,101110.367,35.566,119.108
山东,枣庄市,99.632,157.777,32.536,52.826,1.215,34.808,1.521,-1.286,270.496,44.311,101841.623,34.925,117.383
山东,泰安市,86.122,128.854,31.798,60.886,1.522,27.672,0.787,-1.742,269.46,38.37,100931.298,35.993,117.04
山东,济南市,71.489,114.029,30.772,59.097,1.396,27.554,1.475,-1.08,268.967,35.463,100896.135,36.639,117.254
山东,济宁市,90.8,141.59,30.531,55.915,1.418,30.381,1.425,-1.38,270.442,39.579,102329.678,35.375,116.697
山东,淄博市,72.364,114.538,39.262,60.135,1.557,25.946,2.947,-1.158,268.391,39.29,100211.026,36.623,118.062
山东,滨州市,53.628,84.112,22.838,45.258,1.086,32.832,1.888,-1.719,269.339,38.684,102858.826,37.516,117.852
山东,潍坊市,64.786,109.368,34.32,54.884,1.37,27.393,3.536,-2.117,268.745,43.32,101720.261,36.53,119.092
山东,烟台市,44.534,87.194,24.206,41.123,1.396,35.724,3.962,-2.398,269.144,58.344,101565.158,37.25,120.789
山东,聊城市,79.965,129.384,23.598,54.733,1.479,32.07,1.057,-1.398,270.285,30.226,102621.747,36.458,115.863
山东,菏泽市,91.03,140.872,21.393,52.57,1.458,33.272,1.522,-1.69,271.218,34.902,102519.633,35.134,115.69
山东,青岛市,55.945,105.268,30.044,54.116,1.356,28.554,3.804,-2.631,269.042,50.419,102261.869,36.46,120.172
山西,临汾市,31.664,65.005,35.378,22.345,0.962,48.758,3.426,-3.996,264.304,47.358,90812.437,36.227,111.398
山西,吕梁市,31.47,63.238,30.976,23.022,1.088,45.659,3.804,-3.374,261.725,49.687,88244.122,37.663,111.27
山西,大同市,22.755,49.774,22.32,22.768,0.846,45.012,6.185,-3.1,259.761,51.894,87538.51,39.911,113.713
山西,太原市,32.002,66.289,31.057,27.614,0.895,45.128,5.036,-4.083,262.128,42.052,88008.372,37.967,112.321
山西,忻州市,29.342,58.104,25.172,26.15,0.755,46.593,4.607,-2.926,259.702,49.383,86413.53,38.877,112.391
山西,晋中市,40.338,83.078,45.68,32.593,1.086,40.54,4.666,-2.666,263.44,38.132,88979.609,37.328,112.997
山西,晋城市,36.479,74.799,30.825,25.741,0.922,50.606,3.872,-5.03,265.606,42.188,91105.553,35.625,112.752
山西,朔州市,33.023,72.807,36.061,34.029,0.929,40.648,6.236,-1.575,258.956,55.165,86919.268,39.619,112.655
山西,运城市,39.199,78.288,37.776,26.194,0.946,51.03,3.55,-3.053,267.468,46.454,95349.262,35.205,111.071
山西,长治市,36.725,71.201,36.126,29.698,0.968,44.706,3.73,-3.548,264.461,40.028,89296.376,36.48,112.915
山西,阳泉市,32.221,61.633,30.247,31.787,0.788,44.298,6.864,-4.556,264.319,34.464,90931.812,38.031,113.512
广东,东莞市,21.87,28.138,6.634,27.368,0.905,29.252,-2.513,-6.788,280.418,72.214,102011.736,22.931,113.81
广东,中山市,25.688,34.544,7.052,35.698,0.9,21.921,-1.377,-8.494,281.273,75.082,101987.364,22.5,113.383
广东,云浮市,27.549,37.83,9.496,17.79,0.798,38.082,-2.145,-5.618,279.52,70.182,99977.584,22.776,111.818
广东,佛山市,25.932,34.96,6.525,30.304,0.868,26.768,-2.259,-7.807,280.268,65.507,102120.835,23.035,112.979
广东,广州市,22.382,28.214,6.994,22.944,0.848,35.662,-2.38,-7.924,279.807,66.8,101143.213,23.339,113.525
广东,惠州市,19.078,24.444,8.626,14.954,0.826,40.51,-2.6,-8.98,278.747,76.269,100056.028,23.244,114.485
广东,揭阳市,16.902,24.522,10.784,20.254,0.867,25.147,0.424,-9.248,281.298,77.86,100575.266,23.323,116.123
广东,梅州市,16.927,25.132,10.388,15.74,0.803,31.223,0.759,-6.382,278.152,81.046,98594.932,24.169,116.07
广东,汕头市,18.509,27.306,11.833,24.127,0.856,22.764,-0.34,-8.326,282.988,78.81,101733.372,23.339,116.614
广东,汕尾市,14.83,22.518,9.32,13.855,0.793,34.421,-0.764,-9.543,281.03,78.852,100268.015,23.024,115.527
广东,江门市,28.922,39.745,8.402,26.75,0.812,27.48,-2.25,-9.396,280.448,72.827,101408.608,22.289,112.676
广东,河源市,20.105,27.974,11.496,14.331,0.835,42.534,-1.21,-8.668,276.912,76.011,98846.016,24.021,114.969
广东,深圳市,22.342,30.185,7.214,27.001,0.906,29.547,-2.69,-9.664,279.912,79.013,101436.252,22.667,114.143
广东,清远市,36.116,45.706,13.859,17.897,0.895,49.964,-2.278,-8.633,276.798,67.165,98417.26,24.295,112.871
广东,湛江市,27.408,35.709,10.26,11.873,0.88,44.432,-2.456,-7.346,283.355,72.291,101802.685,21.091,110.163
广东,潮州市,16.991,24.938,10.237,19.714,0.82,23.578,0.636,-8.258,281.574,79.333,99987.056,23.755,116.754
广东,珠海市,28.37,40.138,12.468,32.373,0.824,26.572,-1.876,-10.058,281.982,78.34,102015.027,22.095,113.317
广东,肇庆市,30.05,39.023,10.817,18.226,0.809,44.924,-2.932,-6.583,279.314,63.982,100101.876,23.505,112.199
广东,茂名市,25.085,34.245,10.696,12.096,0.82,43.102,-3.645,-7.207,281.434,69.554,99934.125,22.013,110.952
广东,阳江市,27.039,37.856,11.727,15.572,0.778,35.61,-2.718,-8.946,280.357,71.698,100514.074,22.042,111.786
广东,韶关市,35.564,45.734,11.772,16.114,0.954,54.55,-1.515,-7.377,275.632,69.896,97636.055,24.785,113.819
广西,北海市,46.201,58.026,13.236,12.656,1.158,57.12,-2.468,-8.165,281.94,61.436,101956.15,21.674,109.37
广西,南宁市,54.4,65.519,11.528,14.84,0.876,67.27,-3.222,-7.858,279.143,57.63,100199.331,23.051,108.469
广西,崇左市,53.684,65.052,13.346,11.212,0.816,59.896,-3.814,-6.354,278.97,60.933,98832.008,22.483,107.291
广西,来宾市,58.689,67.946,11.697,10.997,0.854,71.163,-2.72,-8.314,277.695,59.312,98979.634,23.859,109.417
广西,柳州市,61.579,73.927,15.362,10.347,0.857,73.265,-2.325,-8.294,275.773,58.665,98452.445,24.956,109.372
广西,桂林市,65.944,75.414,16.248,13.76,0.808,75.9,-4.311,-7.099,273.93,63.992,96720.607,25.353,110.513
广西,梧州市,41.016,50.244,11.881,13.478,0.816,57.524,-2.78,-6.958,279.023,62.091,99752.282,23.484,110.996
广西,河池市,56.68,73.794,16.09,7.034,0.858,68.89,-3.094,-6.302,276.302,56.468,95968.24,24.628,107.843
广西,玉林市,32.486,42.465,12.256,12.08,0.95,57.277,-3.44,-8.3,280.298,64.098,100105.276,22.452,110.164
广西,百色市,54.768,69.752,16.548,8.928,0.977,55.438,-3.004,-3.75,277.54,60.927,93737.993,23.981,106.292
广西,贵港市,46.292,55.916,11.624,11.537,0.849,67.057,-3.508,-6.659,279.924,57.734,100673.258,23.322,110.021
广西,贺州市,48.757,57.64,15.656,13.006,0.806,63.872,-3.42,-9.009,276.256,64.494,97878.787,24.364,111.394
广西,钦州市,48.604,60.16,11.656,14.074,1.027,64.433,-2.426,-8.77,280.651,59.594,101276.214,22.173,109.01
广西,防城港市,52.14,66.117,12.354,14.637,0.917,63.124,-1.891,-8.707,279.218,63.818,99626.331,21.88,108.002
新疆,乌鲁木齐市,36.603,52.896,4.801,18.5,0.694,62.363,-0.061,0.379,257.307,46.934,85050.252,43.746,87.818
新疆,五家渠市,65.19,84.898,8.886,25.06,0.974,43.346,0.352,-1.007,253.281,73.699,98620.412,44.363,87.517
新疆,伊犁哈萨克自治州,21.672,26.882,11.151,9.561,0.742,66.42,-0.787,1.314,261.602,40.958,80593.323,43.438,82.146
新疆,克孜勒苏柯尔克孜自治州,10.06,21.735,1.432,1.481,0.287,64.702,4.191,0.45,258.617,62.782,70231.537,39.661,75.949
新疆,克拉玛依市,27.454,33.692,6.03,8.812,0.53,49.3,-1.058,-0.855,253.604,58.006,99613.013,45.457,85.207
新疆,北屯市,17.941,16.085,25.418,47.714,0.579,49.434,-1.748,1.59,250.857,62.128,97511.654,47.27,87.868
新疆,博尔塔拉蒙古自治州,24.012,34.323,9.913,8.99,0.763,59.764,-0.088,0.738,256.168,44.299,87216.97,44.714,82.114
新疆,双河市,34.988,55.316,16.358,14.526,1.073,45.522,0.406,-0.526,254.515,52.664,100142.752,44.87,82.474
新疆,可克达拉市,72.181,93.9,43.708,37.317,2.027,49.607,-4.328,0.647,266.392,39.954,95891.753,43.918,80.786
新疆,和田地区,7.874,25.877,1.591,0.874,0.262,59.193,3.568,0.112,262.706,54.285,74283.638,37.059,80.934
新疆,哈密市,5.909,8.328,2.126,1.615,0.383,59.842,1.266,0.581,260.187,50.12,89365.133,43.042,93.517
新疆,喀什地区,12.239,21.606,2.401,1.923,0.293,56.868,4.036,2.041,262.802,64.962,76454.436,38.125,77.178
新疆,图木舒克市,11.042,12.824,4.108,1.772,0.227,45.994,-1.457,-0.162,265.732,75.104,90390.469,39.892,79.182
新疆,塔城地区,16.188,19.918,3.681,5.016,0.406,64.226,-1.134,0.81,257.194,41.22,90849.849,45.642,84.789
新疆,巴音郭楞蒙古自治州,4.72,7.086,1.745,0.69,0.202,59.173,2.834,-0.905,261.194,61.03,79704.077,39.463,87.481
新疆,新星市,23.947,46.133,5.709,13.659,1.784,49.112,0.042,-0.098,262.724,51.305,94226.445,42.75,93.68
新疆,昆玉市,47.24,184.362,6.072,6.912,1.077,45.04,-3.196,0.877,266.984,56.57,87828.993,37.457,79.093
新疆,昌吉回族自治州,25.89,32.39,4.409,10.91,0.536,59.677,-0.08,0.384,256.096,52.122,91229.164,44.342,88.608
新疆,石河子市,116.264,155.36,19.748,52.401,1.916,29.608,-0.491,-0.312,254.628,64.983,96469.908,44.245,86.035
新疆,胡杨河市,37.007,43.79,4.207,7.127,0.602,48.444,-2.597,-0.5,253.198,67.628,100136.078,44.852,84.772
新疆,铁门关市,21.388,69.017,4.382,6.722,0.891,60.76,0.921,-0.352,264.53,53.568,93057.168,41.773,85.66
新疆,阿克苏地区,12.567,25.069,3.517,2.296,0.318,55.444,0.102,-0.199,262.449,68.861,86156.72,40.965,81.578
新疆,阿勒泰地区,4.718,4.592,5.441,8.04,0.261,64.843,-2.54,0.229,255.28,45.206,89705.129,46.902,88.421
新疆,阿拉尔市,16.506,35.647,3.862,3.034,0.418,49.154,-1.082,0.428,265.306,73.874,91354.742,40.629,80.998
江苏,南京市,138.308,161.826,17.888,71.212,1.258,50.782,1.979,-3.009,270.617,68.252,102805.778,31.899,118.876
江苏,南通市,138.825,164.578,20.274,48.853,1.31,61.029,3.114,-4.248,273.098,54.81,102836.485,32.201,120.979
江苏,宿迁市,119.884,153.084,21.401,54.05,1.266,53.586,2.409,-2.445,271.346,52.68,102899.38,33.765,118.495
江苏,常州市,155.098,179.704,20.788,75.056,1.485,47.39,2.16,-3.493,271.621,68.21,102824.334,31.613,119.666
江苏,徐州市,124.604,163.272,25.702,56.25,1.241,42.515,2.138,-1.259,270.933,48.902,102638.89,34.363,117.513
江苏,扬州市,114.207,164.298,16.903,56.067,1.208,56.934,1.632,-3.76,272.116,53.671,102924.907,32.709,119.486
江苏,无锡市,162.77,193.254,23.336,78.239,1.63,44.682,2.203,-3.87,272.218,65.93,102699.734,31.546,120.066
江苏,泰州市,143.526,190.917,19.267,60.018,1.45,55.65,2.034,-4.162,271.93,50.228,102862.762,32.605,120.048
江苏,淮安市,114.058,157.913,18.908,52.418,1.241,55.384,2.112,-3.062,271.766,52.568,102881.326,33.362,118.985
江苏,盐城市,114.34,161.479,20.468,48.528,1.292,49.666,3.178,-3.318,271.994,48.78,102887.392,33.529,120.156
江苏,苏州市,155.729,187.302,23.138,78.452,1.542,45.98,2.043,-5.132,273.75,61.408,102821.061,31.374,120.661
江苏,连云港市,99.24,137.419,29.089,56.876,1.399,35.64,2.635,-2.456,271.284,46.46,102731.35,34.519,119.133
江苏,镇江市,139.646,174.8,18.812,75.388,1.312,45.47,1.916,-3.66,271.768,62.409,102805.285,32.016,119.49
江西,上饶市,57.996,71.697,13.288,21.234,0.857,51.018,-1.92,-3.863,272.677,69.468,100377.082,28.778,117.47
江西,九江市,72.87,84.766,13.264,24.334,0.911,66.84,-0.87,-5.171,272.014,70.714,100454.033,29.313,115.444
江西,南昌市,64.312,78.666,13.131,22.822,0.896,66.805,-0.916,-6.38,274.821,64.655,102399.931,28.671,116.016
江西,吉安市,63.515,78.316,14.868,16.856,0.902,57.8,-0.378,-5.873,274.04,68.402,99940.465,26.954,114.831
江西,宜春市,69.136,86.862,14.323,21.612,0.968,58.057,-0.679,-5.355,273.006,68.342,100372.856,28.29,114.974
江西,抚州市,61.006,74.403,13.382,18.287,0.831,58.625,-0.309,-5.33,273.782,70.932,99885.986,27.514,116.42
江西,新余市,69.542,88.53,15.568,21.864,0.954,53.586,-0.373,-5.094,273.9,66.416,101363.948,27.847,114.836
江西,景德镇市,57.83,72.183,12.381,18.185,0.786,56.46,-1.683,-4.377,272.453,62.829,101303.17,29.287,117.24
江西,萍乡市,79.377,98.365,15.796,21.775,1.043,51.142,-1.088,-4.169,272.169,73.908,98964.222,27.505,113.908
江西,赣州市,40.962,52.432,12.398,13.526,0.952,57.319,-0.098,-7.151,274.654,73.191,98025.536,25.692,115.279
江西,鹰潭市,62.836,73.592,13.262,21.05,0.842,52.396,-1.416,-4.034,273.508,69.398,100917.974,28.222,117.094
河北,保定市,35.781,60.828,16.999,32.154,0.804,45.112,1.763,-2.216,268.116,30.962,98801.039,39.018,115.159
河北,唐山市,29.192,64.749,14.768,40.615,0.912,37.948,1.86,-2.418,267.598,40.206,102186.421,39.731,118.354
河北,廊坊市,33.287,69.648,11.082,37.237,0.779,44.588,1.442,-2.82,269.22,29.907,102858.121,39.267,116.632
河北,张家口市,12.61,28.719,5.987,9.336,0.467,59.237,6.456,-4.218,258.731,55.156,87916.622,40.877,115.042
河北,承德市,9.08,19.792,3.614,10.115,0.408,55.436,4.926,-3.981,260.003,49.953,91310.418,41.339,117.578
河北,沧州市,51.828,85.952,19.203,44.328,1.051,38.506,0.511,-2.178,269.612,30.376,102905.012,38.258,116.744
河北,石家庄市,41.191,75.748,24.892,38.622,0.889,39.226,2.959,-2.096,269.892,26.402,99430.106,38.135,114.407
河北,秦皇岛市,24.552,55.213,16.198,32.071,1.011,39.734,1.594,-2.008,265.012,46.39,99672.6,40.12,119.193
河北,衡水市,60.863,97.028,20.415,43.436,1.202,37.732,0.546,-0.987,270.241,27.46,102787.922,37.755,115.813
河北,邢台市,69.204,110.265,27.045,44.032,1.326,36.588,1.725,-2.08,270.99,26.09,101205.788,37.195,114.815
河北,邯郸市,78.968,121.939,32.061,49.586,1.603,33.586,1.069,-1.673,270.984,27.775,100717.91,36.538,114.596
河南,三门峡市,31.257,54.938,17.496,21.118,0.615,54.35,4.889,-4.226,265.656,52.606,92767.664,34.362,111.101
河南,信阳市,76.506,111.774,16.7,36.544,1.001,69.424,1.39,-2.299,269.156,67.492,101760.318,32.091,114.907
河南,南阳市,70.626,80.288,11.941,31.574,0.911,59.599,1.731,-3.15,270.888,47.854,99588.459,33.034,112.323
河南,周口市,70.446,125.063,19.09,43.637,1.13,43.498,1.458,-1.443,270.856,48.931,102516.583,33.738,114.884
河南,商丘市,103.33,151.557,20.088,51.538,1.236,41.929,1.32,-0.999,271.218,45.108,102566.656,34.277,115.718
河南,安阳市,60.991,98.651,27.63,46.843,1.43,35.634,1.736,-2.164,271.259,28.633,100306.115,35.888,114.318
河南,平顶山市,42.878,70.659,17.144,29.749,0.764,52.964,5.42,-5.278,270.97,43.632,100241.063,33.8,113.025
河南,开封市,64.518,110.053,21.225,45.915,1.16,34.604,1.146,-1.804,271.823,36.016,102219.974,34.594,114.514
河南,新乡市,53.018,93.67,23.982,45.564,1.234,35.348,0.883,-1.616,271.85,30.973,101204.424,35.256,114.111
河南,洛阳市,33.052,57.256,18.816,21.956,0.684,53.268,5.845,-3.52,267.865,46.783,95267.576,34.274,112.019
河南,济源市,31.722,62.953,24.368,21.536,0.754,55.156,3.308,-4.402,270.154,33.876,97162.183,35.105,112.445
河南,漯河市,50.495,100.652,18.476,41.585,0.918,45.949,3.364,-3.303,271.682,44.674,102385.618,33.652,113.945
河南,濮阳市,79.25,122.092,23.773,52.772,1.609,33.82,0.996,-1.667,270.986,30.382,102501.619,35.809,115.283
河南,焦作市,40.646,82.356,26.816,35.323,1.013,45.929,2.514,-2.276,272.589,30.787,101015.347,35.121,113.163
河南,许昌市,46.212,92.616,21.338,40.545,0.92,42.022,3.43,-3.372,271.954,39.709,101643.097,34.075,113.707
河南,郑州市,41.866,86.758,24.576,40.326,0.954,40.762,4.627,-1.835,271.394,37.136,100219.76,34.634,113.438
河南,驻马店市,62.442,104.435,15.488,39.783,0.96,58.723,2.474,-3.538,270.374,54.817,102074.462,32.925,114.174
河南,鹤壁市,60.534,100.126,26.872,50.682,1.492,33.318,0.971,-2.252,272.037,27.672,101571.676,35.716,114.319
浙江,丽水市,49.661,62.816,10.888,25.736,0.806,49.05,-0.826,-3.335,271.346,82.645,95206.26,28.194,119.51
浙江,台州市,72.648,89.743,12.343,34.874,1.053,54.317,1.524,-6.632,273.875,81.346,99712.418,28.742,121.109
浙江,嘉兴市,148.174,174.864,19.995,75.076,1.519,39.811,2.436,-4.402,273.082,71.836,102818.436,30.635,120.754
浙江,宁波市,107.706,127.953,16.595,52.364,1.258,49.646,2.872,-6.098,274.503,81.058,101381.039,29.706,121.49
浙江,杭州市,80.764,100.655,14.28,36.848,1.048,55.022,0.301,-3.803,270.05,75.688,99726.919,29.891,119.464
浙江,温州市,46.151,59.464,10.749,28.962,0.811,48.256,1.071,-6.11,274.399,76.636,98389.667,27.897,120.411
浙江,湖州市,125.082,144.122,18.562,56.683,1.38,53.925,3.413,-2.694,270.166,80.827,101510.73,30.757,119.871
浙江,绍兴市,106.436,129.941,14.824,54.151,1.25,44.154,1.908,-4.094,271.462,86.62,100573.437,29.709,120.64
浙江,舟山市,60.407,69.612,10.984,19.989,0.87,71.252,1.909,-7.754,277.576,79.179,102386.264,30.038,122.23
浙江,衢州市,57.686,71.464,12.872,28.194,0.889,46.158,-2.934,-3.498,271.257,75.643,98857.074,28.912,118.675
浙江,金华市,74.969,92.518,11.832,39.726,1.009,48.513,-0.392,-4.146,271.0,83.463,99123.694,29.109,119.967
海南,万宁市,25.124,41.971,9.502,9.448,0.615,38.309,0.261,-8.089,287.526,89.137,100505.052,18.842,110.294
海南,三亚市,12.11,26.569,6.608,12.512,0.726,32.66,-3.294,-5.09,289.573,78.317,99132.584,18.413,109.407
海南,东方市,26.417,45.672,9.875,6.8,0.586,43.628,-4.614,-5.472,287.708,81.081,99892.006,18.971,108.838
海南,临高县,20.088,31.466,10.099,9.39,0.684,38.026,-3.536,-6.198,286.648,85.566,101243.366,19.821,109.733
海南,乐东黎族自治县,18.073,34.918,8.334,7.579,0.611,39.22,-3.725,-5.534,288.104,81.022,98251.667,18.659,109.072
海南,五指山市,20.468,36.87,8.726,7.786,0.62,35.689,-3.854,-6.018,284.872,92.742,94997.356,18.81,109.518
海南,儋州市,24.22,40.542,9.997,8.511,0.652,40.972,-4.198,-4.717,286.749,86.154,100876.478,19.568,109.399
海南,定安县,15.724,24.438,8.698,11.888,0.703,30.252,-1.128,-5.693,287.008,88.204,100877.406,19.47,110.28
海南,屯昌县,16.571,27.813,9.452,11.476,0.688,31.52,-0.789,-4.53,286.346,90.255,100076.679,19.342,110.076
海南,文昌市,17.517,29.354,8.439,9.296,0.635,37.896,-3.093,-7.714,288.619,87.182,101645.188,19.707,110.773
海南,昌江黎族自治县,27.796,47.405,10.054,7.117,0.604,44.124,-6.176,-5.008,286.277,88.098,98891.688,19.233,109.016
海南,海口市,15.216,23.303,8.645,11.035,0.7,33.264,-2.668,-6.619,287.592,86.633,101486.371,19.842,110.393
海南,澄迈县,15.972,24.179,9.562,11.738,0.712,31.442,-2.187,-5.268,286.679,86.806,101045.54,19.676,109.989
海南,琼中黎族苗族自治县,20.201,36.456,9.112,9.486,0.656,33.235,-0.566,-4.392,285.124,95.026,97798.266,19.087,109.847
海南,琼海市,18.228,31.36,9.197,10.631,0.651,34.824,-0.176,-5.7,287.881,87.554,101411.62,19.22,110.43
海南,白沙黎族自治县,22.048,40.513,9.698,8.242,0.642,38.042,-3.239,-3.272,284.852,94.083,97520.655,19.2,109.388
海南,陵水黎族自治县,18.05,34.638,8.567,9.762,0.642,34.662,-1.9,-9.01,288.158,82.649,99740.06,18.581,109.913
湖北,仙桃市,83.122,101.652,11.513,30.666,0.983,70.312,-0.613,-5.114,272.161,59.496,102853.476,30.284,113.417
湖北,十堰市,34.994,47.176,12.226,13.732,0.688,61.511,2.546,-2.322,268.918,52.276,94453.861,32.462,110.476
湖北,咸宁市,73.719,89.896,9.58,27.847,1.13,65.17,-0.258,-4.471,271.797,68.903,100758.932,29.621,114.178
湖北,天门市,83.112,103.234,13.512,32.079,1.038,69.805,-0.459,-5.178,272.405,56.154,102822.18,30.633,113.053
湖北,孝感市,73.408,95.803,12.604,29.866,1.019,71.798,0.034,-5.299,271.265,58.76,102153.05,31.116,113.869
湖北,宜昌市,74.652,84.766,11.726,19.795,0.882,60.321,0.008,-2.09,270.381,58.692,95230.4,30.746,111.129
湖北,恩施土家族苗族自治州,62.915,74.998,12.98,11.695,0.962,53.172,-0.161,-0.236,269.476,68.78,90345.91,30.195,109.552
湖北,武汉市,69.909,89.556,11.461,37.611,1.022,59.826,-0.154,-5.026,272.34,59.526,102696.086,30.606,114.349
湖北,潜江市,90.964,116.252,13.15,36.728,1.171,67.996,-1.14,-5.546,272.57,55.683,102832.738,30.33,112.77
湖北,神农架林区,34.232,39.168,9.448,5.653,0.485,67.072,2.547,-3.242,264.016,66.572,83300.923,31.592,110.49
湖北,荆州市,87.697,112.065,12.95,32.324,1.162,68.454,-0.962,-5.17,273.004,57.234,102573.045,30.01,112.512
湖北,荆门市,77.088,91.93,14.552,31.293,0.982,69.935,0.268,-5.838,272.266,53.106,101734.816,31.059,112.616
湖北,襄阳市,62.406,75.707,12.926,25.093,0.862,65.507,2.828,-3.952,270.9,53.071,98818.232,31.919,111.96
湖北,鄂州市,71.854,92.901,12.488,34.826,1.174,62.711,0.296,-4.51,272.816,63.043,102713.548,30.337,114.794
湖北,随州市,73.366,94.042,13.503,30.092,0.997,70.983,0.903,-4.378,270.836,54.538,100960.188,31.809,113.43
湖北,黄冈市,75.054,91.81,13.39,26.152,0.964,71.442,-1.12,-3.6,271.024,59.771,100811.966,30.702,115.358
湖北,黄石市,73.684,92.687,13.19,30.473,1.16,66.463,0.234,-3.59,272.662,67.503,101625.4,29.925,115.034
湖南,娄底市,71.582,98.235,14.96,19.484,1.114,76.431,-1.141,-5.549,271.24,69.28,98464.937,27.715,111.632
湖南,岳阳市,77.162,95.672,11.26,22.286,1.016,71.534,-1.528,-5.456,272.674,65.214,101533.069,29.081,113.275
湖南,常德市,77.542,102.898,13.277,23.506,1.148,66.218,-0.917,-3.363,272.132,63.174,100770.25,29.271,111.524
湖南,张家界市,72.65,90.338,10.806,16.086,1.012,59.532,-1.235,-1.154,270.65,67.241,96527.995,29.379,110.526
湖南,怀化市,73.523,98.218,12.542,14.012,0.969,64.338,-2.42,-3.847,271.352,67.611,97510.062,27.535,110.071
湖南,株洲市,74.613,93.865,14.604,22.768,0.98,56.788,-0.628,-5.005,272.606,74.652,99108.834,27.109,113.513
湖南,永州市,70.98,86.154,14.836,19.285,0.854,71.565,-2.684,-6.863,272.436,73.742,97584.658,25.748,111.723
湖南,湘潭市,74.6,99.498,13.221,29.906,1.012,73.169,0.182,-6.251,272.666,73.025,101647.752,27.744,112.619
湖南,湘西土家族苗族自治州,74.282,99.583,8.97,13.965,1.024,55.908,-1.639,-1.338,270.844,69.268,96458.434,28.708,109.718
湖南,益阳市,70.602,100.364,13.715,18.954,1.14,76.64,-0.245,-5.025,271.525,70.212,100196.302,28.525,111.919
湖南,衡阳市,79.815,97.14,13.144,29.668,1.047,65.016,-0.117,-6.283,273.014,74.254,101077.181,26.781,112.565
湖南,邵阳市,82.174,98.382,17.11,18.414,0.932,73.877,-2.405,-4.554,270.718,71.183,96050.404,26.893,110.881
湖南,郴州市,59.45,77.874,11.128,21.48,1.07,59.133,0.088,-6.37,272.3,78.714,96637.968,25.769,113.109
湖南,长沙市,77.312,100.786,14.044,24.79,0.999,65.507,-0.466,-5.628,272.462,70.898,100987.223,28.235,113.159
甘肃,临夏回族自治州,40.499,86.533,14.323,20.068,1.082,56.466,-0.94,-0.417,261.716,59.476,77550.468,35.617,103.291
甘肃,兰州市,41.652,95.612,18.516,26.911,1.016,50.026,-1.184,-0.445,260.84,61.21,79307.889,36.359,103.633
甘肃,嘉峪关市,24.148,83.282,17.687,20.172,0.572,62.666,3.551,-2.882,259.172,52.698,82150.093,39.798,98.145
甘肃,天水市,42.887,80.175,11.662,15.691,0.736,60.436,0.184,-2.5,262.852,58.74,83123.67,34.645,105.739
甘肃,定西市,43.68,89.602,10.787,12.746,0.818,59.64,0.206,-1.502,260.567,64.978,77314.84,35.124,104.432
甘肃,平凉市,36.45,66.722,10.47,17.47,0.695,61.835,1.528,-3.516,262.748,57.573,85101.12,35.304,106.644
甘肃,庆阳市,21.26,37.075,8.724,9.992,0.458,62.686,2.824,-3.822,262.064,58.194,86443.631,36.149,107.596
甘肃,张掖市,10.758,28.187,3.708,3.877,0.257,64.259,3.7,-1.407,257.365,53.633,74648.994,38.94,99.855
甘肃,武威市,16.972,32.152,5.747,5.943,0.426,59.82,2.858,-2.402,259.996,54.421,81832.848,38.163,103.073
甘肃,甘南藏族自治州,12.661,17.961,2.863,3.027,0.276,71.982,3.275,-1.786,261.266,50.138,67124.026,34.331,102.768
甘肃,白银市,33.219,77.746,13.727,15.869,0.718,57.013,1.319,-2.764,260.794,60.546,81884.524,36.59,104.646
甘肃,酒泉市,4.475,8.821,1.899,1.34,0.186,60.004,3.322,-0.483,257.773,54.236,79482.607,40.236,96.062
甘肃,金昌市,16.88,39.622,6.52,6.794,0.418,61.944,4.443,-2.676,260.52,50.636,80963.603,38.44,102.048
甘肃,陇南市,37.249,58.384,10.334,10.85,0.596,61.572,-1.087,-2.462,264.561,56.874,82589.036,33.599,105.224
福建,三明市,20.472,29.788,11.911,12.802,0.704,41.772,0.357,-3.589,275.112,82.421,95773.553,26.29,117.395
福建,南平市,29.04,38.95,12.284,14.518,0.699,46.941,0.132,-3.157,274.819,75.7,96612.306,27.324,118.143
福建,厦门市,15.79,26.231,9.133,25.732,0.704,32.892,-2.352,-8.06,282.632,75.83,100946.66,24.642,118.11
福建,宁德市,29.666,38.625,11.887,19.2,0.686,44.847,-0.167,-4.557,275.836,78.622,95812.614,26.968,119.474
福建,泉州市,16.44,24.8,9.294,18.449,0.674,39.556,-0.658,-5.978,279.361,82.523,97078.258,25.201,118.249
福建,漳州市,17.067,27.458,9.972,19.83,0.7,29.516,-0.788,-5.644,281.19,82.309,98698.329,24.372,117.444
福建,福州市,22.895,31.358,8.546,19.711,0.7,44.768,-0.355,-5.645,278.522,82.265,97951.048,26.083,119.206
福建,莆田市,18.69,26.85,8.753,17.66,0.661,47.346,-0.942,-7.948,280.036,79.477,98669.262,25.445,118.864
福建,龙岩市,17.242,27.202,10.892,13.234,0.716,36.185,0.234,-4.755,276.628,83.331,95687.268,25.256,116.739
西藏,山南市,14.284,16.572,0.98,1.629,0.194,86.382,7.302,-3.77,274.073,42.96,65928.476,28.295,92.274
西藏,拉萨市,3.489,7.499,0.05,1.84,0.176,85.996,11.658,-5.844,268.672,30.984,56272.49,30.043,91.093
西藏,日喀则市,2.588,3.235,0.105,0.308,0.12,83.044,11.248,-5.696,267.556,28.166,55205.72,29.483,86.493
西藏,昌都市,1.514,2.054,0.154,0.422,0.138,80.272,9.858,-1.93,266.374,37.722,58533.89,30.753,97.044
西藏,林芝市,8.342,10.112,0.75,1.396,0.145,79.262,4.206,-0.96,271.448,54.484,66071.221,29.184,95.25
西藏,玉树藏族自治州,0.899,1.378,0.077,0.272,0.135,82.459,10.554,-3.683,259.862,45.773,56665.858,34.196,94.317
西藏,那曲市,0.256,0.42,0.033,0.131,0.124,83.633,13.727,-4.836,262.563,36.028,55034.117,32.709,89.262
西藏,阿里地区,0.593,0.747,0.052,0.57,0.122,78.2,12.574,-1.803,261.138,37.724,54556.596,33.013,82.553
贵州,六盘水市,34.508,51.608,15.9,14.606,0.95,53.272,-2.099,-2.092,272.051,70.354,83422.738,26.106,104.896
贵州,安顺市,48.164,62.524,16.142,13.474,0.784,54.794,-2.89,-4.238,273.708,63.656,88773.246,25.986,105.978
贵州,毕节市,41.812,56.961,14.112,13.46,0.922,56.432,-0.896,-3.248,270.136,72.499,83844.983,27.063,105.211
贵州,贵阳市,60.564,74.206,16.92,21.594,0.848,54.213,-1.312,-4.052,271.483,68.665,88880.526,26.845,106.71
贵州,遵义市,54.58,72.322,17.387,16.843,0.785,47.618,-0.536,-1.461,271.371,69.652,91247.061,28.167,107.102
贵州,铜仁市,58.034,91.393,16.447,13.124,1.07,54.133,-1.915,-1.634,270.952,68.364,93770.532,27.937,108.534
贵州,黔东南苗族侗族自治州,65.098,85.739,19.559,12.215,0.932,65.154,-2.359,-5.275,271.141,68.597,93586.624,26.495,108.574
贵州,黔南布依族苗族自治州,60.88,73.884,17.54,12.218,0.822,63.89,-2.374,-5.123,272.815,64.594,91112.672,26.0,107.265
贵州,黔西南布依族苗族自治州,35.588,53.143,14.5,8.466,0.879,48.248,-3.247,-2.579,275.153,64.618,89157.944,25.256,105.467
辽宁,丹东市,30.358,46.904,19.015,29.598,1.026,38.688,2.68,-3.297,260.674,52.49,99382.096,40.554,124.376
辽宁,大连市,28.363,49.941,15.875,26.492,0.842,43.495,2.174,-3.732,264.837,45.459,101899.886,39.591,122.22
辽宁,抚顺市,36.316,55.93,19.646,34.666,0.881,37.898,3.792,-0.268,257.168,60.35,97468.323,41.841,124.65
辽宁,朝阳市,21.02,41.744,18.18,16.708,0.828,45.953,3.157,-3.038,262.15,41.829,97116.224,41.545,120.053
辽宁,本溪市,32.722,53.66,21.967,34.628,1.05,37.451,3.596,-2.042,257.86,58.884,96771.178,41.232,124.544
辽宁,沈阳市,26.508,46.411,17.914,25.993,0.631,36.327,2.76,-1.52,260.823,40.748,102056.67,42.081,123.159
辽宁,盘锦市,33.951,57.33,31.702,39.362,1.007,37.988,1.938,-2.238,263.186,36.759,102821.8,41.13,122.01
辽宁,营口市,32.336,55.378,22.263,33.933,1.043,41.211,2.193,-3.13,262.278,44.924,100386.056,40.395,122.478
辽宁,葫芦岛市,29.078,54.596,23.538,26.354,1.084,41.758,2.258,-2.457,264.264,39.02,100116.226,40.66,120.215
辽宁,辽阳市,32.31,58.647,28.682,38.028,1.122,37.764,2.695,-1.582,260.75,47.142,100593.548,41.153,123.261
辽宁,铁岭市,31.673,50.328,17.178,26.572,0.714,39.41,3.185,-0.22,258.064,53.626,100293.205,42.653,124.158
辽宁,锦州市,30.57,49.723,26.048,28.746,0.829,40.394,2.542,-2.739,263.106,37.336,101915.656,41.502,121.659
辽宁,阜新市,18.308,27.181,11.079,11.739,0.476,41.641,3.853,-3.246,261.282,40.203,100258.042,42.289,121.968
辽宁,鞍山市,28.449,50.062,23.046,33.648,1.04,39.746,2.882,-2.946,261.891,44.693,100661.084,40.731,123.007
重庆,重庆城区,52.59,72.946,15.73,26.152,0.859,42.994,-0.82,-1.208,275.201,51.92,96062.997,29.824,107.125
重庆,重庆郊县,52.268,68.55,16.526,12.366,0.806,54.011,-1.375,-1.108,271.212,58.554,91994.518,30.334,108.755
陕西,咸阳市,42.85,74.596,12.029,25.4,0.822,54.832,2.29,-2.92,265.972,55.456,92571.783,34.779,108.367
陕西,商洛市,23.577,36.994,8.1,13.548,0.485,60.41,2.587,-5.065,265.448,51.43,90162.909,33.64,109.889
陕西,安康市,31.946,42.7,9.1,10.953,0.566,64.32,-0.268,-2.432,267.06,53.764,90791.632,32.735,108.932
陕西,宝鸡市,35.426,54.324,8.636,17.168,0.606,60.936,0.275,-2.688,263.949,54.909,87086.606,34.386,107.193
陕西,延安市,19.876,36.912,18.438,18.27,0.784,54.079,2.687,-3.848,262.925,53.622,88261.364,36.432,109.316
陕西,榆林市,20.018,52.554,18.472,25.131,0.855,49.592,4.088,-3.128,261.964,52.93,88609.978,38.041,109.581
陕西,汉中市,36.533,49.288,8.506,11.488,0.636,62.257,-1.094,-2.766,267.804,48.416,89792.618,33.088,107.098
陕西,渭南市,36.077,67.779,17.093,27.342,0.769,51.546,3.198,-1.0,267.563,50.036,95028.67,34.919,109.855
陕西,西安市,36.11,63.446,10.891,27.515,0.774,54.648,3.432,-1.328,265.582,53.986,91572.048,34.12,108.77
陕西,铜川市,27.141,43.542,12.791,17.439,0.626,57.112,2.021,-4.517,264.615,52.638,90021.5,35.198,109.058
青海,保亭黎族苗族自治县,15.383,30.119,7.532,11.104,0.687,32.231,-2.264,-6.65,287.828,83.512,97513.025,18.566,109.618
青海,吐鲁番市,12.822,15.746,3.41,5.935,0.394,55.433,0.436,0.098,262.412,51.664,91564.024,42.386,89.851
青海,果洛藏族自治州,1.086,1.26,0.138,0.35,0.137,79.814,8.536,-2.526,259.28,45.426,59269.188,34.127,99.404
青海,海东市,31.163,43.278,12.55,13.68,0.681,56.606,0.414,0.108,260.26,54.668,72515.558,36.347,102.34
青海,海北藏族自治州,4.384,5.668,1.58,1.627,0.174,72.204,4.241,-1.51,255.426,49.714,64658.617,37.775,100.288
青海,海南藏族自治州,2.761,3.139,0.714,0.7,0.145,70.962,6.242,-1.714,259.878,40.867,65952.879,35.89,100.272
青海,海西蒙古族藏族自治州,1.118,1.349,0.38,0.294,0.132,71.304,5.944,-1.912,258.347,42.994,64071.561,36.677,94.519
青海,西宁市,24.869,37.744,8.718,10.386,0.754,62.904,3.13,-0.499,259.25,49.978,69111.2,36.842,101.423
青海,黄南藏族自治州,5.892,6.662,1.477,1.422,0.178,72.626,4.751,-2.057,260.335,43.03,65242.712,35.022,101.631
香港,香港特别行政区,22.405,32.014,8.762,27.66,0.866,31.41,-2.535,-11.022,281.109,81.376,101579.404,22.45,114.22
黑龙江,七台河市,36.718,53.192,9.057,18.519,0.564,50.444,7.722,0.024,250.897,70.538,98474.864,45.87,130.943
黑龙江,伊春市,16.349,20.227,4.036,6.981,0.403,48.25,5.265,-0.564,247.624,71.592,96790.303,47.772,129.184
黑龙江,佳木斯市,22.977,29.702,6.351,11.806,0.45,47.264,6.03,2.018,249.236,69.888,100514.58,47.207,132.11
黑龙江,双鸭山市,27.524,33.509,7.94,13.749,0.454,44.284,5.947,1.858,249.638,70.416,100066.156,46.722,132.643
黑龙江,哈尔滨市,45.131,55.621,16.086,25.03,0.82,43.388,4.796,1.832,250.068,73.521,99073.994,45.634,127.964
黑龙江,大兴安岭地区,0.938,1.26,1.502,1.894,0.238,51.077,5.588,-3.284,248.37,66.508,94820.49,52.286,124.212
黑龙江,大庆市,24.737,30.05,9.483,15.608,0.544,45.407,3.662,-1.608,252.719,59.692,100604.174,46.327,124.687
黑龙江,牡丹江市,24.694,34.095,8.194,14.082,0.516,47.916,6.944,0.37,252.251,64.346,95498.398,44.592,129.883
黑龙江,绥化市,31.184,38.567,8.436,17.182,0.692,45.68,3.404,-0.639,247.703,72.196,99610.592,46.89,126.634
黑龙江,鸡西市,29.452,38.149,7.852,15.07,0.481,42.968,5.973,0.222,251.496,68.147,99865.772,45.626,132.289
黑龙江,鹤岗市,11.93,15.586,5.217,8.222,0.388,51.624,5.584,-1.034,249.857,65.077,99411.506,47.661,130.778
黑龙江,黑河市,6.624,8.285,2.862,3.577,0.322,48.852,4.331,-1.836,247.594,72.266,97248.316,49.268,127.004
黑龙江,齐齐哈尔市,18.54,23.322,8.33,8.505,0.464,44.904,3.418,-2.067,250.685,63.567,99609.816,47.715,124.57
