province,city,PM2.5,PM10,SO2,NO2,CO,O3,U,V,TEMP,RH,PSFC,lat,lon
上海,上海市,70.59,91.272,14.111,42.132,0.82,128.242,-2.12,3.026,293.294,78.498,101321.07,31.173,121.42
云南,临沧市,49.989,63.232,5.4,9.038,0.596,93.81,3.366,1.354,293.148,55.234,83853.437,23.935,99.686
云南,丽江市,24.123,34.69,5.211,4.376,0.642,99.08,3.799,0.727,285.375,58.596,74624.343,26.96,100.515
云南,保山市,53.541,73.436,5.82,11.152,0.762,88.188,3.359,0.442,290.598,60.818,81844.208,24.953,98.962
云南,大理白族自治州,31.373,46.256,4.774,5.196,0.581,94.901,4.472,1.144,288.102,59.95,78099.138,25.726,100.053
云南,德宏傣族景颇族自治州,77.725,93.258,7.394,17.004,0.902,82.288,1.334,-0.019,293.306,59.383,85986.187,24.535,98.052
云南,怒江傈僳族自治州,24.559,33.066,3.442,1.57,0.41,92.878,2.406,0.706,281.695,79.47,72825.233,26.916,98.885
云南,文山壮族苗族自治州,31.21,48.79,7.582,4.942,0.574,86.21,2.354,3.502,292.634,75.374,86462.41,23.696,104.735
云南,昆明市,33.766,50.192,8.433,14.766,0.649,85.902,4.521,3.852,289.04,67.264,79220.91,25.384,102.863
云南,昭通市,41.394,58.072,9.926,8.211,0.545,94.011,0.499,0.32,290.442,65.908,83939.31,27.667,103.985
云南,普洱市,30.364,44.364,5.243,4.857,0.395,94.745,1.22,2.665,293.929,64.38,85908.386,23.159,100.718
云南,曲靖市,31.375,46.162,8.782,11.352,0.555,83.198,3.794,2.898,289.252,67.34,79981.436,25.737,103.929
云南,楚雄彝族自治州,32.648,43.939,5.45,6.21,0.542,92.529,3.999,3.636,290.864,58.59,80928.833,25.328,101.567
云南,玉溪市,29.874,50.636,6.306,6.687,0.522,94.372,2.049,3.928,291.66,70.314,83450.157,24.136,102.217
云南,红河哈尼族彝族自治州,29.71,50.449,7.652,5.032,0.508,97.596,1.182,3.01,291.891,76.62,85138.437,23.451,103.034
云南,西双版纳傣族自治州,29.976,52.009,6.56,7.676,0.468,80.616,0.67,2.84,295.76,67.184,88865.286,21.939,100.912
云南,迪庆藏族自治州,18.19,25.481,3.893,1.683,0.332,104.428,3.866,1.565,277.602,78.884,67301.628,27.957,99.459
内蒙古,乌兰察布市,31.706,53.1,5.661,8.038,0.282,64.458,3.629,0.26,286.636,33.518,85742.315,41.691,112.44
内蒙古,乌海市,53.303,161.418,29.682,31.247,0.597,91.592,3.162,-0.75,290.424,24.77,87543.46,39.396,106.856
内蒙古,兴安盟,7.529,13.227,2.072,2.344,0.188,71.76,1.098,-3.435,283.424,38.228,94508.362,46.244,121.341
内蒙古,包头市,32.261,55.271,4.491,9.668,0.239,64.548,3.306,0.05,287.106,30.69,85735.056,41.549,110.276
内蒙古,呼伦贝尔市,3.42,4.76,1.493,1.472,0.187,76.634,1.665,-3.314,279.267,38.638,93368.623,49.636,121.171
内蒙古,呼和浩特市,34.115,100.348,8.185,21.286,0.435,70.723,2.082,0.456,288.382,31.533,86101.054,40.578,111.513
内蒙古,巴彦淖尔市,35.698,44.082,2.662,2.655,0.164,66.352,3.56,-0.74,288.226,27.118,87135.908,41.446,107.582
内蒙古,赤峰市,19.319,29.399,4.107,4.296,0.23,69.269,0.544,-1.158,285.71,42.858,91622.351,43.226,118.892
内蒙古,通辽市,20.568,33.17,4.858,4.713,0.263,77.787,0.184,-1.778,287.735,35.466,97489.223,43.814,121.591
内蒙古,鄂尔多斯市,46.02,89.13,9.668,13.665,0.294,70.18,3.81,0.432,289.655,28.208,86864.948,39.407,108.63
内蒙古,锡林郭勒盟,22.192,26.12,2.33,1.4,0.166,64.3,0.278,-1.186,283.212,43.389,88807.472,44.179,115.482
内蒙古,阿拉善盟,48.796,51.902,1.613,1.261,0.153,67.42,3.702,-1.934,288.71,27.166,87471.428,40.473,102.467
北京,北京市,46.669,81.21,7.614,24.292,0.604,93.346,-1.124,1.048,292.818,43.322,97322.288,40.158,116.395
台湾,台湾省,32.413,36.678,7.202,16.447,0.222,87.122,0.125,0.56,293.87,79.716,93081.783,23.757,120.975
吉林,吉林市,24.288,53.986,7.169,8.237,0.478,102.646,1.802,0.064,286.636,41.256,96755.23,43.573,126.859
吉林,四平市,27.908,67.761,6.176,9.243,0.432,96.582,0.747,-0.179,288.218,36.578,98973.985,43.472,124.386
吉林,延边朝鲜族自治州,22.993,35.592,6.103,6.416,0.326,92.318,2.902,-0.237,285.661,44.563,93815.068,43.141,129.147
吉林,松原市,20.975,42.358,5.19,7.697,0.336,81.136,1.912,-0.766,287.663,34.913,99327.806,44.785,124.496
吉林,白城市,13.545,25.004,3.41,4.976,0.24,73.471,0.914,-2.818,287.073,32.028,99477.98,45.35,123.031
吉林,白山市,25.742,45.811,9.618,8.222,0.432,91.322,2.684,1.378,285.228,52.272,92026.851,42.063,127.256
吉林,辽源市,26.56,58.526,7.204,10.063,0.465,100.554,1.362,0.216,287.49,40.458,97131.047,42.836,125.32
吉林,通化市,29.312,56.716,10.05,10.482,0.522,99.212,1.242,1.248,286.778,48.983,95408.376,41.939,125.927
吉林,长春市,27.764,68.327,5.648,11.366,0.493,95.809,1.806,0.028,287.768,35.516,98879.709,44.268,125.611
四川,乐山市,51.728,73.416,9.28,17.991,0.674,86.27,0.352,-0.502,292.588,59.572,89279.041,29.218,103.569
四川,内江市,61.453,98.304,10.648,30.158,0.815,87.345,-1.128,-0.316,297.423,51.706,96163.738,29.62,104.95
四川,凉山彝族自治州,26.79,34.882,7.309,5.211,0.522,98.949,1.654,1.678,284.013,68.36,74150.597,27.883,102.065
四川,南充市,39.686,71.87,9.625,25.197,0.712,75.578,-1.386,-0.512,295.824,54.822,96234.226,31.19,106.199
四川,宜宾市,57.719,82.306,12.311,20.117,0.742,91.89,0.222,-0.499,296.686,55.079,94561.708,28.573,104.621
四川,巴中市,31.722,55.232,9.045,12.802,0.536,72.302,-0.72,-0.342,293.54,54.948,92099.848,32.033,107.031
四川,广元市,36.064,59.25,10.732,14.551,0.482,69.54,-0.638,-0.198,292.78,55.624,91242.992,32.261,105.788
四川,广安市,38.543,71.346,11.325,30.908,0.736,78.464,-1.264,0.021,296.518,54.629,96235.048,30.43,106.628
四川,德阳市,47.731,86.204,8.474,25.19,0.572,94.007,-0.962,-0.008,294.861,47.962,92737.714,31.13,104.436
四川,成都市,44.898,81.034,9.916,29.228,0.562,96.794,0.016,-0.774,295.047,47.676,92873.384,30.64,103.929
四川,攀枝花市,34.836,47.663,15.738,15.751,0.962,98.913,1.094,1.41,291.179,50.751,81374.826,26.791,101.734
四川,泸州市,44.738,66.112,9.371,16.043,0.546,87.874,-0.246,0.268,295.544,61.538,93000.948,28.424,105.675
四川,甘孜藏族自治州,10.623,11.966,1.39,1.398,0.156,109.19,1.228,1.258,272.678,67.027,61252.554,30.936,100.009
四川,眉山市,50.538,83.187,10.183,25.346,0.705,85.736,0.294,-0.42,295.216,52.332,93320.206,29.912,103.766
四川,绵阳市,42.202,65.424,7.276,13.698,0.432,90.831,-0.372,0.088,290.832,54.927,87698.613,31.86,104.704
四川,自贡市,70.939,102.453,11.862,28.102,0.888,89.008,-0.583,-0.518,297.506,52.438,96135.134,29.307,104.659
四川,资阳市,48.822,89.78,8.904,25.762,0.724,85.35,-1.242,0.106,297.28,51.079,96412.29,30.102,105.149
四川,达州市,35.996,60.335,11.324,22.472,0.584,77.596,-1.274,0.237,294.63,53.715,93645.807,31.335,107.636
四川,遂宁市,48.376,88.382,8.731,26.708,0.738,83.302,-1.469,-0.088,296.81,52.191,96656.652,30.642,105.457
四川,阿坝藏族羌族自治州,16.436,19.93,2.692,1.601,0.186,103.572,0.56,1.101,275.182,68.2,65575.451,32.406,102.61
四川,雅安市,29.475,40.29,5.996,5.546,0.328,101.293,0.134,-0.625,285.67,66.778,79959.36,29.932,102.689
天津,天津市,43.433,88.968,13.434,32.007,0.793,100.236,-3.09,0.982,293.477,43.061,100933.098,39.315,117.308
宁夏,中卫市,39.204,64.248,4.568,10.24,0.23,70.848,2.304,0.228,287.261,42.08,83625.105,37.018,105.509
宁夏,吴忠市,37.539,69.106,7.829,12.68,0.258,65.424,2.872,0.644,288.562,37.507,85115.441,37.454,106.577
宁夏,固原市,36.596,73.22,5.17,17.807,0.274,70.711,-0.057,-2.292,285.064,48.363,81067.046,35.905,106.183
宁夏,石嘴山市,44.17,129.652,21.253,24.164,0.542,86.046,3.668,-0.71,290.347,25.839,86654.906,39.013,106.499
宁夏,银川市,35.577,101.71,15.064,23.924,0.448,69.703,3.282,1.034,290.544,30.443,86979.144,38.287,106.342
安徽,亳州市,57.436,91.91,12.377,19.096,0.82,116.02,0.57,3.722,297.04,54.22,100801.414,33.44,116.162
安徽,六安市,49.224,70.97,9.623,16.521,0.67,100.688,0.385,2.106,296.082,60.504,98450.662,31.617,116.209
安徽,合肥市,58.478,86.276,9.543,29.286,0.859,98.143,-0.657,1.798,296.525,60.21,100774.259,31.766,117.359
安徽,安庆市,48.966,71.658,11.104,15.538,0.728,84.07,0.133,0.942,295.234,70.154,98914.937,30.557,116.473
安徽,宣城市,42.646,63.883,11.11,14.914,0.716,89.632,-0.859,1.809,295.484,68.25,98880.773,30.676,118.846
安徽,宿州市,73.396,110.379,14.595,27.128,0.89,119.241,-0.483,3.515,296.522,54.856,100780.935,33.844,117.23
安徽,池州市,40.666,58.433,11.168,12.284,0.665,78.036,-0.258,1.868,295.696,70.94,99088.053,30.296,117.379
安徽,淮北市,67.559,103.776,15.075,28.881,0.887,116.026,-0.019,3.634,296.727,55.236,100812.462,33.722,116.747
安徽,淮南市,61.222,92.236,11.468,24.937,0.822,115.568,-0.182,2.25,296.49,57.938,100908.366,32.463,116.746
安徽,滁州市,68.384,105.428,11.879,30.574,0.82,110.454,-0.763,2.357,296.276,57.737,100674.772,32.55,118.076
安徽,芜湖市,50.932,76.463,12.625,26.894,0.921,87.611,-0.308,1.677,296.389,64.787,100970.809,31.167,118.162
安徽,蚌埠市,69.707,104.588,14.167,28.158,0.836,117.236,-0.148,3.109,296.745,55.431,100881.244,33.121,117.263
安徽,铜陵市,47.12,71.568,12.837,28.928,0.948,77.559,0.088,1.685,296.148,67.69,100824.106,30.883,117.531
安徽,阜阳市,49.538,84.736,11.89,17.065,0.785,110.466,0.492,3.211,297.182,55.838,100786.84,32.937,115.723
安徽,马鞍山市,59.036,93.444,13.856,35.62,1.011,94.138,-0.822,1.91,296.229,62.911,100972.302,31.622,118.386
安徽,黄山市,36.646,55.6,11.804,10.934,0.703,70.168,-0.272,1.208,294.56,75.038,96961.298,29.869,118.09
山东,东营市,62.909,113.786,22.381,29.057,0.895,116.09,-0.962,2.005,294.289,49.17,101013.416,37.57,118.572
山东,临沂市,71.9,137.597,18.512,29.614,0.976,122.978,-0.788,3.401,294.475,56.498,99380.55,35.289,118.27
山东,威海市,36.768,69.338,9.104,16.945,0.64,134.866,0.514,4.044,287.388,73.874,100638.232,37.148,122.028
山东,德州市,61.454,114.403,18.178,27.568,0.844,127.496,0.178,2.857,296.549,45.028,100801.26,37.233,116.679
山东,日照市,65.49,119.5,16.574,32.152,0.841,114.168,-0.461,3.506,292.728,60.48,99525.752,35.566,119.108
山东,枣庄市,69.319,130.128,21.464,28.088,0.883,119.292,-1.47,3.727,295.872,54.015,100051.326,34.925,117.383
山东,泰安市,59.463,116.394,21.431,27.458,0.936,126.881,-0.418,4.296,295.92,50.606,99176.426,35.993,117.04
山东,济南市,64.026,123.294,21.864,31.911,1.036,133.914,0.5,4.488,296.274,47.114,99121.096,36.639,117.254
山东,济宁市,59.393,114.952,20.002,24.178,0.89,124.313,-0.667,4.699,296.782,50.252,100414.238,35.375,116.697
山东,淄博市,71.311,133.81,23.632,33.968,1.256,127.638,1.216,4.278,295.694,48.055,98559.188,36.623,118.062
山东,滨州市,61.591,111.288,20.296,29.576,0.944,123.974,-0.337,2.36,295.746,45.599,100914.823,37.516,117.852
山东,潍坊市,69.903,124.446,16.792,29.702,0.956,118.699,0.254,4.402,294.842,50.99,100008.778,36.53,119.092
山东,烟台市,48.218,92.117,11.664,23.264,0.746,125.281,-0.36,4.16,291.178,59.535,100057.15,37.25,120.789
山东,聊城市,59.438,117.215,16.655,26.792,0.924,120.674,0.619,3.417,297.261,45.242,100584.46,36.458,115.863
山东,菏泽市,55.556,107.224,14.762,22.224,0.977,121.196,0.704,4.181,297.402,46.563,100519.969,35.134,115.69
山东,青岛市,49.498,93.642,11.736,29.785,0.682,115.702,-1.022,4.116,291.056,64.266,100644.109,36.46,120.172
山西,临汾市,52.159,103.508,18.745,26.005,0.948,84.072,0.62,-0.888,292.936,31.857,89798.673,36.227,111.398
山西,吕梁市,52.528,102.724,12.837,24.208,0.61,72.062,1.367,-0.576,291.25,27.078,87502.494,37.663,111.27
山西,大同市,33.597,87.758,11.006,14.582,0.496,76.802,2.118,0.343,289.138,35.92,87013.29,39.911,113.713
山西,太原市,53.784,135.02,16.995,34.293,0.619,86.948,1.369,-0.556,290.575,33.522,87386.952,37.967,112.321
山西,忻州市,41.539,84.274,10.593,18.633,0.392,79.586,1.974,0.718,289.232,34.111,85937.49,38.877,112.391
山西,晋中市,50.886,104.888,16.774,28.715,0.709,98.963,0.67,-0.791,290.806,40.53,88274.362,37.328,112.997
山西,晋城市,57.018,111.906,22.508,31.456,1.158,109.402,0.625,-0.206,292.88,40.19,90153.6,35.625,112.752
山西,朔州市,36.168,112.618,12.482,20.908,0.484,79.637,2.886,1.039,289.475,33.258,86372.702,39.619,112.655
山西,运城市,49.584,109.688,20.472,32.197,0.894,91.248,0.286,-0.086,295.59,34.552,93818.992,35.205,111.071
山西,长治市,48.704,96.164,17.564,25.624,0.888,106.792,0.88,-0.275,291.6,40.249,88549.104,36.48,112.915
山西,阳泉市,53.144,112.808,18.626,34.342,0.734,98.012,0.608,-0.621,290.914,44.056,90103.696,38.031,113.512
广东,东莞市,38.197,57.078,9.31,35.654,0.818,53.92,-1.596,3.154,297.571,87.05,101074.236,22.931,113.81
广东,中山市,30.654,45.156,7.163,21.346,0.593,60.662,-2.507,2.848,297.573,88.323,101071.191,22.5,113.383
广东,云浮市,31.212,42.7,4.082,16.123,0.696,42.388,-1.175,3.49,297.224,83.405,99024.803,22.776,111.818
广东,佛山市,38.954,61.99,10.076,46.036,0.922,34.596,-1.34,2.912,298.323,81.905,101078.322,23.035,112.979
广东,广州市,41.386,63.037,10.078,44.326,0.868,41.258,-1.292,3.093,297.554,83.874,100208.866,23.339,113.525
广东,惠州市,33.424,43.364,5.234,13.422,0.517,70.666,-1.74,2.857,296.765,86.562,99277.517,23.244,114.485
广东,揭阳市,41.674,60.876,8.823,14.388,0.873,89.904,-2.171,1.477,296.9,84.364,99912.057,23.323,116.123
广东,梅州市,38.63,56.03,7.188,15.332,0.854,70.93,-0.812,3.095,296.456,79.369,97874.741,24.169,116.07
广东,汕头市,37.223,52.061,9.392,14.435,0.665,103.484,-2.859,0.92,296.998,86.73,101034.896,23.339,116.614
广东,汕尾市,35.302,47.269,4.77,7.721,0.602,86.541,-2.54,1.608,296.61,87.624,99639.212,23.024,115.527
广东,江门市,30.084,41.932,4.204,15.97,0.474,59.83,-2.126,2.893,297.394,88.931,100497.248,22.289,112.676
广东,河源市,35.134,43.116,4.873,10.718,0.576,66.752,-0.091,2.936,296.41,82.652,98047.561,24.021,114.969
广东,深圳市,31.78,46.224,7.529,26.004,0.655,66.613,-2.85,2.771,297.028,90.72,100612.336,22.667,114.143
广东,清远市,39.346,52.486,7.594,24.848,0.762,41.898,-0.142,3.519,296.188,82.86,97512.636,24.295,112.871
广东,湛江市,19.333,30.39,4.683,7.85,0.567,56.824,-2.659,2.448,297.951,88.662,100864.146,21.091,110.163
广东,潮州市,41.03,61.182,10.021,17.222,0.856,89.436,-2.0,1.775,296.292,83.127,99371.632,23.755,116.754
广东,珠海市,24.21,32.132,3.34,7.836,0.308,80.268,-3.122,2.214,297.221,92.624,101156.682,22.095,113.317
广东,肇庆市,34.332,46.59,5.27,21.09,0.733,36.628,-1.114,3.012,297.273,82.167,99130.036,23.505,112.199
广东,茂名市,25.195,36.578,5.378,9.57,0.61,54.904,-2.074,3.322,297.009,87.264,99108.978,22.013,110.952
广东,阳江市,28.427,37.638,3.508,9.054,0.443,60.781,-1.668,2.756,296.934,89.558,99650.224,22.042,111.786
广东,韶关市,41.826,50.311,10.247,21.104,0.977,46.044,0.67,3.518,295.866,81.388,96739.168,24.785,113.819
广西,北海市,19.089,32.817,6.014,8.764,0.74,56.921,-1.155,2.505,297.989,87.31,100886.044,21.674,109.37
广西,南宁市,27.154,41.107,7.158,14.111,0.782,47.037,0.254,3.512,297.772,77.514,99002.454,23.051,108.469
广西,崇左市,33.282,41.953,6.717,7.285,0.622,55.306,0.86,3.155,297.142,78.896,97727.268,22.483,107.291
广西,来宾市,31.23,43.658,7.964,11.097,0.76,47.025,0.436,3.902,297.125,79.306,97849.043,23.859,109.417
广西,柳州市,30.89,43.408,8.615,9.462,0.661,53.854,0.427,3.924,296.63,78.343,97207.083,24.956,109.372
广西,桂林市,29.72,40.549,9.512,8.573,0.682,50.472,1.007,3.646,295.34,81.47,95630.962,25.353,110.513
广西,梧州市,32.291,43.616,7.528,15.872,0.998,34.933,-0.297,3.082,297.302,80.994,98715.158,23.484,110.996
广西,河池市,30.264,48.288,7.434,6.942,0.724,61.795,0.32,4.129,296.084,75.875,94882.076,24.628,107.843
广西,玉林市,25.028,39.808,9.168,12.328,0.883,44.002,-1.006,3.716,297.328,85.854,99130.644,22.452,110.164
广西,百色市,35.777,53.594,9.521,6.46,0.878,73.34,0.556,3.442,295.898,71.96,92823.408,23.981,106.292
广西,贵港市,33.122,46.634,10.358,15.51,1.074,35.7,-0.035,2.855,297.833,80.788,99521.304,23.322,110.021
广西,贺州市,35.241,44.784,7.481,10.488,0.877,41.89,-0.194,3.548,296.034,83.157,96916.085,24.364,111.394
广西,钦州市,21.586,35.055,7.212,11.158,0.868,50.011,-0.248,2.95,297.784,83.855,100159.3,22.173,109.01
广西,防城港市,26.388,34.566,6.218,7.743,0.6,56.921,0.114,2.806,296.528,85.069,98587.11,21.88,108.002
新疆,乌鲁木齐市,11.142,18.694,2.217,6.912,0.243,75.186,1.828,-3.088,283.006,43.621,84442.17,43.746,87.818
新疆,五家渠市,15.473,22.356,2.684,5.861,0.272,70.788,-2.054,-0.56,290.346,35.632,96644.554,44.363,87.517
新疆,伊犁哈萨克自治州,5.154,8.668,2.162,3.646,0.216,75.321,1.12,0.411,282.219,45.152,80656.827,43.438,82.146
新疆,克孜勒苏柯尔克孜自治州,3.455,8.657,0.342,1.62,0.162,95.524,2.16,-1.102,278.999,28.074,70828.742,39.661,75.949
新疆,克拉玛依市,9.034,14.301,2.633,2.888,0.244,71.661,-1.589,-1.596,289.668,36.85,97467.811,45.457,85.207
新疆,北屯市,3.683,4.75,1.938,1.856,0.391,79.87,1.041,-1.657,284.933,50.43,95675.736,47.27,87.868
新疆,博尔塔拉蒙古自治州,12.866,16.04,2.748,2.684,0.205,75.87,1.487,0.287,284.251,42.79,86391.97,44.714,82.114
新疆,双河市,15.907,19.652,3.451,3.626,0.224,73.846,-2.092,-2.685,290.652,35.786,97882.446,44.87,82.474
新疆,可克达拉市,13.705,25.792,5.868,12.403,0.41,70.655,-2.143,0.465,292.013,34.841,94770.674,43.918,80.786
新疆,和田地区,38.596,48.546,0.436,0.899,0.142,83.45,0.622,-0.115,282.124,25.392,74161.746,37.059,80.934
新疆,哈密市,13.154,16.185,1.142,0.786,0.179,78.316,1.891,-3.174,286.131,33.85,88306.886,43.042,93.517
新疆,喀什地区,11.8,20.075,0.714,2.444,0.178,88.565,0.928,0.736,283.762,22.844,76290.71,38.125,77.178
新疆,图木舒克市,17.642,20.92,0.814,0.783,0.146,72.996,0.158,0.426,294.477,18.31,89169.538,39.892,79.182
新疆,塔城地区,7.68,9.656,2.088,1.751,0.215,71.227,0.223,0.013,284.401,47.242,89730.202,45.642,84.789
新疆,巴音郭楞蒙古自治州,45.216,47.944,0.624,0.422,0.136,71.152,0.984,-0.907,284.456,31.342,79278.853,39.463,87.481
新疆,新星市,18.138,40.659,3.742,4.966,0.44,106.58,-1.0,-1.187,291.434,20.11,92580.56,42.75,93.68
新疆,昆玉市,45.796,105.528,1.971,6.002,0.217,77.782,0.783,-0.523,294.353,13.222,86955.674,37.457,79.093
新疆,昌吉回族自治州,7.89,11.272,1.779,2.488,0.184,69.556,0.401,-0.896,285.368,43.8,90059.69,44.342,88.608
新疆,石河子市,17.441,24.732,5.662,8.939,0.266,74.392,-1.878,0.201,290.134,36.288,94751.891,44.245,86.035
新疆,胡杨河市,13.412,18.78,3.01,2.984,0.268,73.866,-2.646,-0.15,290.643,37.671,97894.078,44.852,84.772
新疆,铁门关市,36.074,87.0,4.244,5.006,0.216,80.092,-0.748,-1.222,294.866,17.096,91512.34,41.773,85.66
新疆,阿克苏地区,29.346,47.584,0.918,1.36,0.156,74.615,0.458,-1.723,290.32,21.692,85304.997,40.965,81.578
新疆,阿勒泰地区,3.526,3.937,1.31,0.7,0.202,71.759,0.147,-0.533,281.314,52.382,88667.666,46.902,88.421
新疆,阿拉尔市,35.756,86.878,1.287,2.86,0.174,74.553,-0.394,-1.49,294.338,19.071,89990.574,40.629,80.998
江苏,南京市,65.699,106.012,14.497,37.466,0.946,94.185,-1.159,2.074,296.066,62.062,101032.18,31.899,118.876
江苏,南通市,86.484,118.989,18.804,40.689,0.886,124.09,-2.093,2.228,293.232,73.126,101281.826,32.201,120.979
江苏,宿迁市,88.714,129.294,14.95,28.764,0.955,128.084,-1.384,2.944,295.303,57.886,101086.04,33.765,118.495
江苏,常州市,70.178,108.331,14.965,36.914,0.973,106.058,-1.604,2.178,295.371,66.869,101123.737,31.613,119.666
江苏,徐州市,77.173,122.078,15.984,27.892,0.925,120.041,-0.862,3.722,296.186,54.8,100774.653,34.363,117.513
江苏,扬州市,94.228,143.128,15.955,42.216,1.035,109.982,-1.796,2.442,295.046,62.603,101192.942,32.709,119.486
江苏,无锡市,75.204,116.95,17.136,46.433,1.062,108.135,-1.812,2.311,294.889,68.702,101053.972,31.546,120.066
江苏,泰州市,99.648,146.768,17.344,42.038,1.07,116.878,-2.118,2.523,294.411,65.606,101188.041,32.605,120.048
江苏,淮安市,91.232,133.773,14.5,32.117,0.982,123.854,-1.547,2.63,295.018,60.038,101112.104,33.362,118.985
江苏,盐城市,95.864,133.414,15.692,30.882,0.882,120.672,-2.345,2.686,292.672,68.392,101234.884,33.529,120.156
江苏,苏州市,76.467,113.992,15.974,47.582,1.018,118.817,-2.11,2.394,294.279,71.888,101239.267,31.374,120.661
江苏,连云港市,82.756,127.285,15.417,29.557,0.916,119.289,-1.897,2.974,293.851,60.979,100994.838,34.519,119.133
江苏,镇江市,80.242,124.735,16.106,42.067,1.005,99.538,-1.514,2.402,295.469,64.379,101089.041,32.016,119.49
江西,上饶市,38.06,55.308,14.778,12.41,0.745,58.507,0.551,1.796,296.373,74.236,98970.778,28.778,117.47
江西,九江市,41.432,62.623,10.89,10.38,0.708,71.539,-0.27,0.94,295.427,76.59,98878.119,29.313,115.444
江西,南昌市,36.332,60.48,13.98,17.898,0.858,58.401,0.266,1.088,297.182,73.519,100723.672,28.671,116.016
江西,吉安市,38.282,50.553,14.036,11.238,0.842,57.955,1.4,3.432,297.41,71.116,98551.502,26.954,114.831
江西,宜春市,40.549,59.414,13.933,11.269,0.804,61.299,1.25,1.728,296.692,73.202,98843.898,28.29,114.974
江西,抚州市,35.284,44.306,10.902,7.11,0.508,63.21,1.493,3.603,296.895,73.562,98581.438,27.514,116.42
江西,新余市,40.492,59.408,16.209,15.432,0.942,52.684,1.378,2.004,297.679,70.358,99752.335,27.847,114.836
江西,景德镇市,37.932,56.262,12.876,12.068,0.724,61.189,-0.404,1.193,296.354,74.427,99769.038,29.287,117.24
江西,萍乡市,32.478,50.422,12.938,12.767,0.805,52.244,2.028,3.507,296.495,73.41,97549.657,27.505,113.908
江西,赣州市,39.868,48.01,10.076,12.654,1.048,57.58,1.046,3.74,296.111,78.424,97035.722,25.692,115.279
江西,鹰潭市,36.021,48.106,13.294,11.368,0.582,57.388,1.558,3.52,297.298,71.868,99483.036,28.222,117.094
河北,保定市,44.754,83.91,13.58,22.946,0.572,103.182,-1.438,-0.607,293.931,40.728,97273.1,39.018,115.159
河北,唐山市,42.056,84.105,17.692,32.824,0.858,95.854,-2.851,0.447,291.922,45.56,100490.31,39.731,118.354
河北,廊坊市,46.047,93.583,13.188,29.181,0.754,103.298,-2.722,0.922,294.624,40.392,100948.096,39.267,116.632
河北,张家口市,30.052,54.075,6.262,8.726,0.36,77.932,1.496,0.538,287.979,39.216,87441.878,40.877,115.042
河北,承德市,28.304,50.868,6.944,11.24,0.397,82.646,0.268,1.02,287.355,48.002,90709.525,41.339,117.578
河北,沧州市,48.941,91.771,15.325,24.108,0.658,111.062,-2.059,0.712,294.284,44.828,100943.471,38.258,116.744
河北,石家庄市,55.114,117.108,18.619,34.584,0.822,98.338,-0.368,-1.362,295.163,39.801,97783.46,38.135,114.407
河北,秦皇岛市,37.171,69.146,14.82,26.213,0.743,97.702,-1.611,-0.262,290.324,46.551,98287.557,40.12,119.193
河北,衡水市,54.231,100.931,16.208,25.116,0.704,112.522,-1.074,0.599,296.28,41.67,100770.258,37.755,115.813
河北,邢台市,58.317,121.468,18.451,32.261,0.873,101.944,0.436,-0.856,296.603,40.01,99319.469,37.195,114.815
河北,邯郸市,58.778,126.835,19.454,33.504,0.998,100.604,0.86,-0.524,296.586,40.736,98858.118,36.538,114.596
河南,三门峡市,42.952,84.707,13.689,21.471,0.579,92.794,1.172,0.332,294.088,38.978,91518.864,34.362,111.101
河南,信阳市,51.078,77.119,11.053,16.568,0.724,101.727,1.042,3.268,297.099,57.274,99857.426,32.091,114.907
河南,南阳市,41.18,65.572,9.922,14.777,0.684,98.364,0.81,1.783,296.718,44.968,97755.564,33.034,112.323
河南,周口市,48.238,89.838,12.335,20.59,0.846,110.323,0.635,3.75,297.39,48.432,100507.6,33.738,114.884
河南,商丘市,59.945,99.355,13.2,21.532,0.901,118.028,0.384,4.224,297.23,49.239,100589.286,34.277,115.718
河南,安阳市,55.751,123.127,20.217,34.059,1.069,101.916,1.512,-0.188,296.896,39.118,98486.838,35.888,114.318
河南,平顶山市,43.81,75.619,11.345,22.412,0.734,104.67,1.346,1.796,297.852,38.826,98338.97,33.8,113.025
河南,开封市,54.456,110.266,15.113,28.886,0.986,109.485,0.938,2.964,297.688,41.89,100204.908,34.594,114.514
河南,新乡市,59.364,125.399,21.388,38.743,1.126,100.628,0.646,-0.041,297.328,39.204,99287.97,35.256,114.111
河南,洛阳市,43.114,79.918,14.263,20.397,0.68,103.985,1.596,0.702,295.675,37.421,93816.139,34.274,112.019
河南,济源市,59.77,113.996,22.098,33.12,1.126,111.262,-0.378,-1.524,296.76,35.106,95583.394,35.105,112.445
河南,漯河市,44.772,82.321,11.24,25.788,0.852,102.298,1.22,3.154,298.066,44.768,100321.474,33.652,113.945
河南,濮阳市,54.32,116.453,16.209,25.246,1.004,112.758,1.444,2.434,297.184,44.36,100466.91,35.809,115.283
河南,焦作市,64.096,133.07,24.64,45.555,1.268,101.938,-0.324,-0.111,298.056,36.048,99078.068,35.121,113.163
河南,许昌市,49.231,97.612,13.549,33.772,0.928,103.172,1.354,2.37,297.942,40.792,99645.126,34.075,113.707
河南,郑州市,59.453,125.44,18.79,42.121,1.032,103.694,1.161,1.169,297.71,37.957,98357.606,34.634,113.438
河南,驻马店市,47.258,79.718,10.374,19.128,0.743,101.714,1.192,3.078,297.689,49.866,100070.513,32.925,114.174
河南,鹤壁市,58.811,130.162,22.298,39.142,1.136,97.668,1.755,-0.274,297.294,39.407,99627.418,35.716,114.319
浙江,丽水市,42.531,53.493,9.442,10.892,0.645,77.971,0.899,2.72,293.387,79.469,94414.32,28.194,119.51
浙江,台州市,47.398,63.412,9.2,19.716,0.704,95.407,-0.344,2.981,293.234,83.029,98652.043,28.742,121.109
浙江,嘉兴市,54.384,77.35,9.853,34.778,0.852,116.75,-2.383,2.462,294.67,72.447,101250.17,30.635,120.754
浙江,宁波市,42.15,56.834,9.225,21.645,0.655,108.266,-1.516,3.609,293.463,79.94,100110.124,29.706,121.49
浙江,杭州市,41.116,61.812,10.854,21.458,0.77,84.067,-0.468,0.95,294.96,73.468,98365.574,29.891,119.464
浙江,温州市,54.159,70.941,9.826,24.706,0.868,81.231,0.086,2.458,293.188,84.264,97487.096,27.897,120.411
浙江,湖州市,53.041,79.84,11.514,32.016,0.863,102.572,-1.673,1.648,295.34,68.804,99958.142,30.757,119.871
浙江,绍兴市,42.076,57.412,8.482,20.186,0.712,97.687,-1.159,3.052,294.956,71.868,99210.326,29.709,120.64
浙江,舟山市,31.354,41.116,7.33,10.747,0.374,108.026,-1.552,4.483,292.448,86.449,101154.762,30.038,122.23
浙江,衢州市,36.411,52.8,12.567,15.193,0.752,65.432,0.978,1.704,295.672,74.284,97616.885,28.912,118.675
浙江,金华市,40.756,55.958,9.526,19.342,0.692,80.804,-0.214,2.344,295.012,74.17,97885.358,29.109,119.967
海南,万宁市,15.817,21.816,1.46,2.566,0.186,62.539,-2.137,1.032,297.811,91.934,99865.516,18.842,110.294
海南,三亚市,15.907,22.347,2.15,5.7,0.384,43.972,-3.412,0.724,297.86,84.687,98633.774,18.413,109.407
海南,东方市,20.896,25.852,2.34,3.808,0.203,62.353,-0.338,1.307,298.692,78.859,99231.57,18.971,108.838
海南,临高县,19.749,29.164,3.11,8.251,0.444,40.658,-2.01,0.832,298.384,84.72,100409.108,19.821,109.733
海南,乐东黎族自治县,17.711,22.804,1.375,3.863,0.236,51.802,-1.814,1.525,297.619,82.957,97744.152,18.659,109.072
海南,五指山市,18.089,23.157,1.298,4.265,0.222,50.701,-2.201,2.346,295.794,87.56,94577.17,18.81,109.518
海南,儋州市,22.482,29.814,2.518,5.159,0.31,58.044,-1.13,0.025,298.472,83.142,100061.06,19.568,109.399
海南,定安县,15.834,23.991,1.991,6.637,0.395,38.966,-2.414,1.778,298.31,87.66,100127.62,19.47,110.28
海南,屯昌县,16.499,23.535,1.745,5.089,0.329,42.46,-2.263,2.082,298.002,87.41,99344.805,19.342,110.076
海南,文昌市,15.937,22.566,1.492,2.878,0.258,52.962,-3.205,1.696,298.118,91.018,100913.375,19.707,110.773
海南,昌江黎族自治县,23.42,28.778,2.766,4.26,0.23,65.666,-0.175,0.52,297.846,81.804,98229.854,19.233,109.016
海南,海口市,15.994,25.228,2.826,8.938,0.442,34.805,-2.68,1.349,298.514,86.986,100700.264,19.842,110.393
海南,澄迈县,17.249,26.418,3.233,10.012,0.481,33.641,-2.222,1.285,298.477,85.474,100242.264,19.676,109.989
海南,琼中黎族苗族自治县,17.743,23.374,1.342,3.867,0.233,48.246,-1.699,2.306,297.01,87.2,97179.566,19.087,109.847
海南,琼海市,15.672,22.454,1.477,3.726,0.25,51.834,-2.512,1.318,298.332,89.992,100686.196,19.22,110.43
海南,白沙黎族自治县,19.978,24.982,1.576,3.9,0.232,56.104,-0.714,1.433,297.444,81.772,96884.464,19.2,109.388
海南,陵水黎族自治县,16.544,22.132,1.13,3.337,0.238,54.779,-1.976,0.05,297.626,89.177,99196.505,18.581,109.913
湖北,仙桃市,39.073,62.528,8.732,18.188,0.922,72.364,-0.543,1.618,296.702,69.746,100855.157,30.284,113.417
湖北,十堰市,29.376,46.11,9.908,6.578,0.452,89.864,0.714,0.514,294.7,42.772,93036.834,32.462,110.476
湖北,咸宁市,38.59,55.856,8.132,10.513,0.823,73.542,0.046,1.91,295.833,73.67,99051.626,29.621,114.178
湖北,天门市,42.652,71.495,9.146,24.572,1.046,75.353,-0.658,1.912,296.606,67.45,100796.398,30.633,113.053
湖北,孝感市,48.478,72.691,8.998,21.99,0.883,84.309,-0.224,2.306,296.323,65.746,100226.244,31.116,113.869
湖北,宜昌市,42.986,59.496,10.48,11.369,0.684,87.608,0.278,1.232,294.164,59.439,93873.348,30.746,111.129
湖北,恩施土家族苗族自治州,36.243,51.094,11.7,8.42,0.536,74.545,-0.399,0.514,291.749,65.372,89447.986,30.195,109.552
湖北,武汉市,48.333,72.428,8.724,29.014,1.018,70.535,-0.551,1.838,296.321,68.671,100770.645,30.606,114.349
湖北,潜江市,44.467,71.064,10.412,22.79,1.065,73.136,-0.564,2.003,296.631,68.417,100798.84,30.33,112.77
湖北,神农架林区,32.338,40.32,8.66,2.082,0.326,100.356,0.736,0.954,288.146,56.145,83003.687,31.592,110.49
湖北,荆州市,42.17,65.954,10.842,18.557,1.02,73.672,-0.582,1.578,296.715,68.099,100565.422,30.01,112.512
湖北,荆门市,45.522,73.14,10.275,20.558,0.956,84.827,-0.084,2.546,296.728,60.874,99776.689,31.059,112.616
湖北,襄阳市,40.572,59.424,9.473,9.258,0.63,96.895,0.597,2.395,296.319,49.332,97061.228,31.919,111.96
湖北,鄂州市,49.192,72.266,9.78,29.334,1.088,69.522,-0.517,1.573,296.424,69.028,100830.82,30.337,114.794
湖北,随州市,47.158,71.612,9.516,12.886,0.803,96.358,0.406,2.95,296.367,59.13,99090.708,31.809,113.43
湖北,黄冈市,54.639,76.848,11.12,17.344,0.805,80.534,-0.719,1.436,295.771,67.956,99141.439,30.702,115.358
湖北,黄石市,46.666,67.452,9.89,17.984,0.919,73.797,-0.282,1.354,295.836,71.686,99882.104,29.925,115.034
湖南,娄底市,28.636,47.13,13.712,13.632,1.098,58.16,0.637,1.675,296.164,71.535,96905.678,27.715,111.632
湖南,岳阳市,40.696,60.59,10.29,13.809,0.848,66.472,-0.58,1.743,296.254,74.75,99724.321,29.081,113.275
湖南,常德市,31.158,51.476,11.593,11.802,0.894,74.95,-0.22,1.004,296.294,68.012,98900.829,29.271,111.524
湖南,张家界市,27.864,45.899,11.295,6.014,0.657,76.531,-0.602,0.397,294.52,68.964,95054.362,29.379,110.526
湖南,怀化市,28.846,49.369,10.086,9.192,0.784,62.398,0.675,2.702,295.641,73.749,96001.116,27.535,110.071
湖南,株洲市,28.53,45.732,12.394,12.988,0.808,53.624,1.672,3.728,296.656,73.432,97680.238,27.109,113.513
湖南,永州市,27.598,39.558,8.796,7.726,0.682,55.106,1.708,4.18,296.033,76.849,96336.753,25.748,111.723
湖南,湘潭市,26.523,45.746,12.608,17.263,1.044,53.532,0.692,2.327,297.636,70.17,99828.406,27.744,112.619
湖南,湘西土家族苗族自治州,29.008,50.922,10.651,10.335,0.782,53.075,-0.726,0.922,294.564,71.648,94983.452,28.708,109.718
湖南,益阳市,30.351,52.533,10.768,13.26,1.024,66.971,0.001,1.516,296.142,72.532,98434.829,28.525,111.919
湖南,衡阳市,25.002,42.0,11.115,13.616,0.878,52.31,1.31,3.36,297.856,69.476,99400.384,26.781,112.565
湖南,邵阳市,30.01,44.557,11.041,8.394,0.694,63.266,1.774,2.947,295.496,72.824,94747.038,26.893,110.881
湖南,郴州市,27.153,42.282,11.641,13.887,1.067,52.482,1.201,4.048,295.452,79.186,95570.212,25.769,113.109
湖南,长沙市,33.114,53.272,12.572,19.092,0.948,55.793,0.068,1.769,296.766,73.571,99260.928,28.235,113.159
甘肃,临夏回族自治州,27.147,42.801,3.518,8.92,0.32,85.34,-0.318,-0.198,282.117,59.945,77634.673,35.617,103.291
甘肃,兰州市,30.197,48.475,4.158,13.54,0.312,78.36,-1.033,-1.056,283.576,53.678,79257.558,36.359,103.633
甘肃,嘉峪关市,26.168,88.52,8.103,11.648,0.291,96.515,3.385,-2.442,285.644,28.262,81771.083,39.798,98.145
甘肃,天水市,35.439,62.322,5.228,11.297,0.274,66.367,-0.601,-1.466,286.3,51.259,82716.458,34.645,105.739
甘肃,定西市,34.294,49.306,3.653,7.336,0.241,74.301,-0.938,-1.752,282.102,56.671,77398.275,35.124,104.432
甘肃,平凉市,41.186,75.623,5.278,15.468,0.289,64.453,0.06,-2.549,287.844,43.876,84516.793,35.304,106.644
甘肃,庆阳市,43.998,71.706,5.506,8.92,0.266,66.982,0.583,-1.961,289.112,38.738,85762.696,36.149,107.596
甘肃,张掖市,24.369,36.216,1.276,2.0,0.162,80.976,3.298,-1.018,279.832,43.912,74824.193,38.94,99.855
甘肃,武威市,48.008,58.504,1.946,3.096,0.168,73.822,2.122,-1.121,285.868,37.682,81457.182,38.163,103.073
甘肃,甘南藏族自治州,21.17,24.712,2.358,2.005,0.182,90.596,0.054,-0.593,275.346,70.559,67804.093,34.331,102.768
甘肃,白银市,34.088,49.333,4.067,8.864,0.218,73.203,0.796,-1.314,285.18,49.992,81610.976,36.59,104.646
甘肃,酒泉市,27.91,30.51,0.809,0.734,0.137,72.908,3.213,-2.257,282.853,34.952,79235.773,40.236,96.062
甘肃,金昌市,35.018,66.856,3.258,4.561,0.191,89.12,3.705,-1.652,285.562,33.294,80704.179,38.44,102.048
甘肃,陇南市,38.082,55.654,6.624,7.135,0.251,72.27,-0.548,-1.049,286.546,55.172,82215.237,33.599,105.224
福建,三明市,35.425,43.981,8.183,9.867,0.786,50.088,1.356,3.055,294.722,80.346,95061.356,26.29,117.395
福建,南平市,38.796,47.114,9.858,8.148,0.648,62.696,0.701,2.472,294.555,80.169,95792.457,27.324,118.143
福建,厦门市,38.328,59.869,11.456,20.754,0.608,86.25,-0.664,1.077,295.87,81.462,100270.628,24.642,118.11
福建,宁德市,53.939,62.71,8.625,13.107,0.794,74.352,0.407,1.95,292.947,85.548,95187.281,26.968,119.474
福建,泉州市,39.793,57.59,9.122,15.172,0.641,81.906,0.317,2.208,294.388,82.947,96536.343,25.201,118.249
福建,漳州市,36.596,52.497,7.056,13.026,0.552,84.439,-0.545,1.785,295.383,82.778,98123.148,24.372,117.444
福建,福州市,51.928,69.131,8.245,23.166,0.858,79.842,0.44,1.73,294.492,81.644,97267.026,26.083,119.206
福建,莆田市,46.566,64.838,8.908,16.68,0.673,95.895,0.654,1.664,294.78,81.76,98044.89,25.445,118.864
福建,龙岩市,34.997,47.524,7.528,13.154,0.716,60.082,0.448,3.259,294.633,82.936,95088.084,25.256,116.739
西藏,山南市,20.476,22.874,2.39,1.248,0.204,107.138,1.092,2.846,276.733,77.08,66108.518,28.295,92.274
西藏,拉萨市,8.68,12.541,1.155,1.945,0.168,105.366,2.528,3.221,271.031,69.602,56498.584,30.043,91.093
西藏,日喀则市,6.864,7.833,0.644,0.367,0.148,101.422,3.366,-1.563,269.464,61.335,55314.137,29.483,86.493
西藏,昌都市,11.05,12.011,1.208,0.37,0.153,109.324,1.734,2.94,271.899,63.198,59149.286,30.753,97.044
西藏,林芝市,17.901,19.67,1.948,1.107,0.18,106.442,-0.428,2.412,275.8,80.616,66434.375,29.184,95.25
西藏,玉树藏族自治州,12.048,12.4,0.231,0.304,0.13,96.718,-2.636,-2.297,267.24,60.416,57516.764,34.196,94.317
西藏,那曲市,9.869,10.43,0.281,0.17,0.134,95.541,-1.92,-2.165,268.134,57.037,55512.78,32.709,89.262
西藏,阿里地区,4.164,4.486,0.192,0.388,0.134,102.363,0.012,-3.606,266.746,41.442,55056.034,33.013,82.553
贵州,六盘水市,31.994,51.088,9.344,14.356,0.599,79.283,1.523,1.845,290.948,68.007,83089.872,26.106,104.896
贵州,安顺市,30.968,46.522,6.921,8.98,0.466,80.106,-0.096,3.194,293.463,70.076,88065.659,25.986,105.978
贵州,毕节市,37.162,54.991,8.712,12.954,0.528,79.324,1.276,1.816,290.278,70.912,83416.082,27.063,105.211
贵州,贵阳市,33.841,52.391,6.728,22.858,0.572,66.244,1.052,3.222,292.734,73.409,88095.839,26.845,106.71
贵州,遵义市,40.458,56.976,8.895,11.534,0.478,83.98,-0.419,1.162,292.914,72.706,90218.008,28.167,107.102
贵州,铜仁市,27.842,52.165,10.67,8.415,0.646,63.323,-0.171,1.631,293.924,73.819,92546.247,27.937,108.534
贵州,黔东南苗族侗族自治州,29.78,46.95,9.308,5.198,0.495,71.19,1.19,3.571,294.355,76.192,92481.722,26.495,108.574
贵州,黔南布依族苗族自治州,31.172,45.749,7.186,6.68,0.448,74.69,0.648,3.592,293.8,75.134,90250.656,26.0,107.265
贵州,黔西南布依族苗族自治州,26.582,44.764,7.557,6.447,0.551,81.141,1.222,3.081,294.43,65.491,88444.305,25.256,105.467
辽宁,丹东市,35.776,60.47,11.838,9.422,0.568,110.171,0.073,1.624,286.703,62.214,98306.348,40.554,124.376
辽宁,大连市,47.512,77.371,11.564,18.444,0.664,114.321,-0.797,1.049,288.18,59.855,100444.131,39.591,122.22
辽宁,抚顺市,26.052,54.964,8.997,10.769,0.503,103.578,0.248,0.901,287.679,46.753,96549.192,41.841,124.65
辽宁,朝阳市,31.682,60.422,10.484,12.87,0.596,95.91,0.061,0.144,290.02,39.5,96039.242,41.545,120.053
辽宁,本溪市,27.952,54.992,10.254,10.864,0.57,103.724,0.568,1.334,287.16,53.42,95933.1,41.232,124.544
辽宁,沈阳市,33.352,82.764,12.21,18.888,0.588,102.048,-0.111,0.181,289.91,39.685,100586.299,42.081,123.159
辽宁,盘锦市,34.94,72.968,13.024,20.637,0.678,112.838,-0.605,0.288,289.258,47.26,101216.575,41.13,122.01
辽宁,营口市,36.5,73.51,12.856,17.868,0.639,116.088,0.31,1.001,289.776,49.116,99055.124,40.395,122.478
辽宁,葫芦岛市,36.69,65.812,15.79,21.199,0.736,103.19,-0.022,0.04,290.547,43.302,98720.135,40.66,120.215
辽宁,辽阳市,32.766,78.284,14.009,20.162,0.734,108.354,0.396,0.868,289.584,46.977,99262.683,41.153,123.261
辽宁,铁岭市,30.12,76.002,9.202,14.148,0.496,101.627,0.03,0.361,288.645,39.343,99073.578,42.653,124.158
辽宁,锦州市,36.428,71.13,13.004,17.914,0.634,103.667,-0.959,-0.068,289.569,43.766,100396.51,41.502,121.659
辽宁,阜新市,31.123,55.369,9.556,11.67,0.471,94.734,-0.746,-0.47,289.708,35.484,98952.226,42.289,121.968
辽宁,鞍山市,35.122,72.26,12.848,16.886,0.661,111.177,0.115,0.567,288.98,52.002,99341.611,40.731,123.007
重庆,重庆城区,39.414,62.592,13.224,23.166,0.595,82.72,-1.215,0.803,295.728,58.21,94614.774,29.824,107.125
重庆,重庆郊县,36.114,51.523,13.392,8.78,0.48,79.808,-0.829,0.874,293.069,59.752,90934.163,30.334,108.755
陕西,咸阳市,47.48,96.392,7.62,26.259,0.553,60.461,0.271,-1.709,293.277,38.46,91208.778,34.779,108.367
陕西,商洛市,38.991,63.384,8.948,11.675,0.392,79.73,0.158,-0.494,292.549,41.634,89170.243,33.64,109.889
陕西,安康市,36.153,53.236,8.734,6.582,0.372,75.543,0.42,0.065,292.53,46.374,89705.955,32.735,108.932
陕西,宝鸡市,45.799,82.908,5.214,16.513,0.36,62.748,0.288,-1.629,289.854,43.553,86278.6,34.386,107.193
陕西,延安市,51.765,95.502,9.335,20.772,0.586,60.862,1.422,-1.58,291.06,32.138,87431.626,36.432,109.316
陕西,榆林市,54.375,132.086,10.965,26.697,0.574,66.824,3.075,-0.136,290.814,29.042,87759.909,38.041,109.581
陕西,汉中市,39.109,60.379,8.948,9.345,0.434,71.631,-0.05,-0.073,291.73,50.768,88803.877,33.088,107.098
陕西,渭南市,43.162,91.692,15.571,32.886,0.636,70.42,0.868,-0.235,295.618,33.637,93452.768,34.919,109.855
陕西,西安市,41.372,91.791,8.866,31.018,0.562,63.644,1.736,1.046,292.823,41.342,90303.802,34.12,108.77
陕西,铜川市,49.87,83.768,9.948,21.457,0.55,63.256,0.452,-1.456,292.601,35.103,88980.923,35.198,109.058
青海,保亭黎族苗族自治县,17.441,23.499,1.813,5.685,0.334,45.255,-2.38,0.404,296.66,89.134,97065.22,18.566,109.618
青海,吐鲁番市,30.232,43.588,1.616,1.24,0.165,72.594,0.338,-3.183,289.622,26.258,90246.427,42.386,89.851
青海,果洛藏族自治州,10.201,10.306,0.279,0.536,0.133,99.681,0.562,-2.382,269.717,61.135,60191.576,34.127,99.404
青海,海东市,26.474,30.532,3.428,4.413,0.25,80.227,-1.442,0.168,279.13,62.948,72963.009,36.347,102.34
青海,海北藏族自治州,17.685,18.816,1.077,1.007,0.138,82.808,0.907,-1.212,272.296,64.953,65587.261,37.775,100.288
青海,海南藏族自治州,18.114,18.61,0.779,0.859,0.135,86.012,1.853,-1.254,275.088,53.92,66717.429,35.89,100.272
青海,海西蒙古族藏族自治州,24.676,24.949,0.298,0.256,0.13,82.035,1.911,-2.536,273.609,42.15,64811.308,36.677,94.519
青海,西宁市,25.96,33.302,3.764,7.011,0.356,81.446,-0.57,-1.046,276.874,61.628,69781.154,36.842,101.423
青海,黄南藏族自治州,14.558,15.187,1.205,1.039,0.145,89.33,1.002,-1.055,273.186,75.056,66025.498,35.022,101.631
香港,香港特别行政区,26.412,34.864,4.11,19.048,0.347,75.372,-3.482,2.076,296.881,93.438,100801.939,22.45,114.22
黑龙江,七台河市,27.601,58.092,5.016,14.458,0.382,90.347,2.856,-1.054,284.591,37.498,97854.952,45.87,130.943
黑龙江,伊春市,8.679,11.67,1.584,2.956,0.224,77.027,2.124,-2.386,281.202,35.872,96496.058,47.772,129.184
黑龙江,佳木斯市,16.419,26.25,2.405,6.512,0.297,75.811,3.168,-1.918,283.642,32.682,99796.363,47.207,132.11
黑龙江,双鸭山市,15.668,24.26,2.853,6.076,0.279,76.119,2.99,-1.496,283.797,33.42,99366.261,46.722,132.643
黑龙江,哈尔滨市,22.398,39.336,4.972,9.164,0.364,84.304,1.852,-0.178,285.692,38.085,98229.994,45.634,127.964
黑龙江,大兴安岭地区,1.094,1.43,0.511,0.813,0.182,80.518,3.184,-3.412,276.715,38.11,94854.528,52.286,124.212
黑龙江,大庆市,15.57,31.707,4.26,9.569,0.314,76.07,1.49,-2.968,286.214,31.246,99590.83,46.327,124.687
黑龙江,牡丹江市,22.159,41.312,4.376,7.729,0.324,89.266,2.45,-0.524,284.939,40.5,95121.046,44.592,129.883
黑龙江,绥化市,17.41,29.181,2.778,6.73,0.301,75.664,0.973,-1.912,284.646,34.69,98768.29,46.89,126.634
黑龙江,鸡西市,18.135,31.618,3.807,7.879,0.292,77.72,2.547,-1.233,284.784,36.282,99090.596,45.626,132.289
黑龙江,鹤岗市,14.886,25.247,2.145,5.982,0.323,77.688,3.056,-3.024,282.389,32.98,98879.17,47.661,130.778
黑龙江,黑河市,4.265,6.08,0.897,1.471,0.199,78.55,0.98,-3.244,280.615,31.62,96970.26,49.268,127.004
黑龙江,齐齐哈尔市,8.246,15.76,1.918,3.544,0.231,73.458,0.61,-3.815,284.424,31.675,98847.591,47.715,124.57
