province,city,PM2.5,PM10,SO2,NO2,CO,O3,U,V,TEMP,RH,PSFC,lat,lon
上海,上海市,28.902,38.963,7.891,32.353,0.644,63.557,5.472,3.584,286.134,81.365,101040.856,31.173,121.42
云南,临沧市,22.089,36.239,4.142,6.303,0.498,78.112,3.856,-0.687,288.725,40.318,83904.157,23.935,99.686
云南,丽江市,11.072,16.261,3.717,4.711,0.593,71.963,5.146,-0.362,283.584,28.605,74515.322,26.96,100.515
云南,保山市,20.396,40.605,4.45,8.876,0.392,70.541,3.295,-1.232,286.658,45.468,81870.641,24.953,98.962
云南,大理白族自治州,14.226,23.733,3.666,5.902,0.555,72.361,4.441,-0.734,285.341,35.311,78040.47,25.726,100.053
云南,德宏傣族景颇族自治州,28.21,59.394,4.253,9.36,0.329,73.488,1.943,-1.994,288.413,52.858,86117.729,24.535,98.052
云南,怒江傈僳族自治州,11.282,16.076,1.517,2.271,0.318,72.917,2.416,-1.32,279.181,51.547,72758.648,26.916,98.885
云南,文山壮族苗族自治州,27.805,40.635,6.772,5.492,0.596,77.239,4.295,3.962,290.541,54.328,86430.47,23.696,104.735
云南,昆明市,21.496,35.285,7.371,19.483,0.641,69.627,6.041,2.836,286.516,34.791,79118.981,25.384,102.863
云南,昭通市,50.855,72.51,11.382,10.093,0.723,72.704,0.692,1.778,286.613,44.811,83823.115,27.667,103.985
云南,普洱市,20.644,29.081,4.165,7.56,0.413,77.027,3.037,-0.392,290.402,35.811,85953.428,23.159,100.718
云南,曲靖市,24.235,35.417,8.438,13.626,0.503,67.213,5.333,2.764,287.273,33.748,79859.596,25.737,103.929
云南,楚雄彝族自治州,16.853,22.221,4.025,10.039,0.518,68.595,4.945,1.68,287.8,32.83,80867.411,25.328,101.567
云南,玉溪市,21.386,33.34,4.981,10.493,0.592,79.307,4.227,1.799,289.079,35.203,83417.163,24.136,102.217
云南,红河哈尼族彝族自治州,25.394,36.91,6.48,6.655,0.521,85.772,2.942,2.204,289.8,44.097,85115.67,23.451,103.034
云南,西双版纳傣族自治州,30.014,45.567,6.142,12.393,0.545,77.308,2.031,-0.208,292.697,36.799,88951.936,21.939,100.912
云南,迪庆藏族自治州,4.085,5.689,1.171,1.668,0.269,74.404,5.267,0.272,276.019,39.718,67172.662,27.957,99.459
内蒙古,乌兰察布市,19.638,35.804,8.468,10.961,0.416,54.601,7.781,-3.165,269.256,59.197,85209.896,41.691,112.44
内蒙古,乌海市,26.514,91.058,22.164,22.316,0.574,70.186,5.355,-5.324,276.118,35.872,87423.28,39.396,106.856
内蒙古,兴安盟,36.584,52.574,10.881,9.887,0.497,52.49,-1.732,-0.893,259.244,77.75,94124.171,46.244,121.341
内蒙古,包头市,10.955,22.077,4.813,10.1,0.414,53.383,6.86,-4.636,269.623,53.174,85364.757,41.549,110.276
内蒙古,呼伦贝尔市,31.295,36.32,9.243,8.205,0.395,50.076,-1.514,0.554,255.058,81.932,93003.054,49.636,121.171
内蒙古,呼和浩特市,32.216,68.266,13.632,23.369,0.712,51.863,6.251,-2.494,271.624,52.751,85663.585,40.578,111.513
内蒙古,巴彦淖尔市,3.709,8.093,1.672,2.076,0.205,54.052,5.12,-5.035,271.494,43.983,86991.058,41.446,107.582
内蒙古,赤峰市,51.183,72.413,13.644,11.734,0.681,44.103,3.756,-0.776,264.47,67.27,90975.609,43.226,118.892
内蒙古,通辽市,66.529,82.329,17.608,19.23,0.786,55.128,-0.288,-0.598,264.196,75.038,97233.685,43.814,121.591
内蒙古,鄂尔多斯市,18.495,47.403,11.093,13.214,0.396,53.715,6.683,-3.952,275.272,37.83,86634.708,39.407,108.63
内蒙古,锡林郭勒盟,19.641,29.902,6.412,5.108,0.337,46.586,4.351,-2.384,263.567,69.777,88155.215,44.179,115.482
内蒙古,阿拉善盟,3.006,4.987,1.216,1.039,0.18,52.85,2.6,-2.463,275.438,36.719,87399.088,40.473,102.467
北京,北京市,83.453,114.671,12.11,33.365,1.121,56.084,1.681,-1.504,273.031,48.848,97311.063,40.158,116.395
台湾,台湾省,17.103,20.596,4.92,17.274,0.226,60.514,1.764,2.031,291.232,73.126,93016.773,23.757,120.975
吉林,吉林市,49.544,53.466,10.86,15.636,0.818,67.343,-3.101,4.572,267.57,83.833,96594.865,43.573,126.859
吉林,四平市,72.351,84.953,15.728,30.309,1.285,59.625,-0.936,2.094,267.414,87.638,98808.094,43.472,124.386
吉林,延边朝鲜族自治州,28.536,32.245,8.22,9.11,0.545,59.742,-3.769,3.921,265.317,79.931,93848.402,43.141,129.147
吉林,松原市,46.547,64.345,12.805,23.588,0.903,56.684,-3.336,-0.839,263.106,83.117,99292.465,44.785,124.496
吉林,白城市,46.809,69.484,11.012,14.463,0.647,56.588,-2.882,-2.303,262.141,75.649,99502.38,45.35,123.031
吉林,白山市,42.262,47.266,17.646,20.989,1.02,54.351,-1.69,6.679,269.137,69.741,91647.666,42.063,127.256
吉林,辽源市,72.045,79.86,16.398,25.723,1.177,59.988,-0.091,5.909,268.793,86.764,96864.804,42.836,125.32
吉林,通化市,56.778,64.139,21.941,30.388,1.153,53.543,-0.687,7.523,270.862,75.301,95093.162,41.939,125.927
吉林,长春市,57.77,69.472,14.215,28.67,1.083,64.458,-2.778,1.961,265.409,87.498,98787.268,44.268,125.611
四川,乐山市,61.522,83.456,11.495,19.02,0.797,70.981,-1.505,0.338,286.316,50.511,89285.863,29.218,103.569
四川,内江市,88.396,122.228,15.041,35.736,1.11,73.748,-2.32,0.236,289.062,51.822,96393.745,29.62,104.95
四川,凉山彝族自治州,14.912,21.451,6.075,7.449,0.63,72.068,4.016,2.304,283.107,25.769,73958.619,27.883,102.065
四川,南充市,75.711,110.018,9.377,28.989,1.133,69.524,-1.217,0.452,287.537,59.565,96482.426,31.19,106.199
四川,宜宾市,75.963,105.364,15.768,24.571,0.962,70.247,-1.427,-0.508,289.125,51.484,94703.465,28.573,104.621
四川,巴中市,46.754,65.179,8.299,14.865,0.817,58.873,0.278,-0.301,284.856,60.757,92214.192,32.033,107.031
四川,广元市,41.108,63.033,10.018,17.35,0.8,66.767,-0.005,0.915,284.847,56.064,91307.834,32.261,105.788
四川,广安市,65.804,101.952,10.738,28.894,1.113,56.736,-1.944,0.664,288.08,59.82,96492.692,30.43,106.628
四川,德阳市,70.382,103.516,8.212,36.503,0.978,73.576,-0.238,1.515,286.412,53.024,92872.137,31.13,104.436
四川,成都市,61.346,90.671,9.296,32.879,0.95,75.099,-0.292,0.383,286.641,55.168,93014.406,30.64,103.929
四川,攀枝花市,25.324,40.905,26.289,24.544,1.355,64.768,1.995,1.345,288.819,23.893,81285.344,26.791,101.734
四川,泸州市,56.234,80.118,13.594,18.902,0.803,64.863,-2.162,1.645,288.577,55.62,93110.088,28.424,105.675
四川,甘孜藏族自治州,1.665,2.407,0.307,1.38,0.145,75.824,6.487,2.108,271.193,41.721,60946.181,30.936,100.009
四川,眉山市,66.018,94.532,10.944,25.921,0.911,72.415,-1.484,0.035,287.51,54.508,93455.839,29.912,103.766
四川,绵阳市,53.378,75.592,7.514,19.88,0.713,77.89,0.047,1.077,283.237,56.071,87679.473,31.86,104.704
四川,自贡市,95.192,125.052,15.468,34.227,1.12,73.595,-2.584,-0.299,289.333,51.329,96350.687,29.307,104.659
四川,资阳市,67.832,106.951,10.876,27.497,1.004,75.967,-2.08,0.58,288.797,52.256,96662.097,30.102,105.149
四川,达州市,52.22,71.626,11.42,20.179,0.906,54.188,-0.714,-0.237,285.742,64.444,93821.126,31.335,107.636
四川,遂宁市,74.979,115.313,8.617,31.425,1.11,74.693,-1.588,0.64,288.183,55.468,96918.84,30.642,105.457
四川,阿坝藏族羌族自治州,4.882,6.893,1.019,1.849,0.196,74.309,5.376,0.881,272.503,41.406,65148.924,32.406,102.61
四川,雅安市,30.977,45.412,6.862,8.514,0.498,73.469,-0.068,-0.505,281.538,51.633,79757.744,29.932,102.689
天津,天津市,111.045,155.245,19.106,49.029,1.542,59.025,1.0,-2.51,275.222,54.461,101105.419,39.315,117.308
宁夏,中卫市,19.816,39.717,12.723,16.169,0.48,54.151,4.853,-2.126,277.918,35.484,83347.919,37.018,105.509
宁夏,吴忠市,18.931,43.456,14.271,12.28,0.453,50.9,5.082,-2.733,277.722,36.258,84866.531,37.454,106.577
宁夏,固原市,23.889,48.902,10.689,16.721,0.585,69.743,3.543,-2.414,277.147,39.387,80701.08,35.905,106.183
宁夏,石嘴山市,28.194,88.179,26.859,20.498,0.607,69.089,5.493,-5.492,277.029,32.738,86471.005,39.013,106.499
宁夏,银川市,25.384,83.767,25.884,18.755,0.688,63.538,4.087,-2.623,278.239,32.942,86812.495,38.287,106.342
安徽,亳州市,105.747,119.979,9.382,24.521,1.146,54.551,3.194,-1.346,283.814,76.254,100976.44,33.44,116.162
安徽,六安市,55.191,72.406,11.296,18.298,0.925,66.125,4.456,-1.607,283.183,82.041,98529.552,31.617,116.209
安徽,合肥市,47.512,57.028,7.586,28.311,0.899,56.622,3.369,-1.46,284.548,82.603,100824.007,31.766,117.359
安徽,安庆市,33.618,39.424,10.5,16.47,0.757,68.816,4.315,-1.917,285.171,76.199,98968.078,30.557,116.473
安徽,宣城市,24.31,31.205,10.037,20.072,0.752,59.282,4.999,1.742,285.113,82.754,98770.709,30.676,118.846
安徽,宿州市,107.653,116.502,9.716,27.5,1.157,57.249,2.783,-1.196,283.659,76.562,100849.502,33.844,117.23
安徽,池州市,22.595,29.742,10.815,18.937,0.671,64.457,3.805,0.171,285.287,80.946,99117.367,30.296,117.379
安徽,淮北市,109.17,122.013,10.39,30.77,1.278,53.01,2.912,-0.768,283.676,76.571,100935.095,33.722,116.747
安徽,淮南市,75.498,86.075,9.477,24.552,0.944,59.051,2.738,-1.917,284.24,81.367,101017.823,32.463,116.746
安徽,滁州市,60.523,67.299,8.069,23.706,0.782,60.574,2.223,-1.772,284.209,81.11,100630.675,32.55,118.076
安徽,芜湖市,32.467,38.053,10.572,30.976,0.89,55.56,4.497,-0.822,285.129,83.166,100970.026,31.167,118.162
安徽,蚌埠市,85.08,91.301,9.177,24.747,0.954,58.735,2.18,-2.183,284.143,78.593,100943.59,33.121,117.263
安徽,铜陵市,29.876,34.994,11.559,25.672,0.774,61.016,3.703,-1.558,285.461,79.612,100883.846,30.883,117.531
安徽,阜阳市,91.223,110.786,10.529,21.683,1.06,55.357,3.639,-1.73,284.022,76.863,101003.227,32.937,115.723
安徽,马鞍山市,37.819,46.185,8.872,33.021,0.891,54.281,3.771,-0.806,285.059,82.914,100923.115,31.622,118.386
安徽,黄山市,16.841,28.199,11.003,11.845,0.664,63.757,4.937,1.714,285.56,79.833,96869.013,29.869,118.09
山东,东营市,131.549,172.358,21.224,33.412,1.423,49.76,2.125,0.736,280.383,72.639,101053.488,37.57,118.572
山东,临沂市,82.443,107.054,12.29,25.935,1.041,69.299,2.264,-0.223,281.78,78.231,99288.502,35.289,118.27
山东,威海市,29.035,46.107,6.418,13.487,0.552,77.159,-2.046,1.989,278.468,92.042,100435.99,37.148,122.028
山东,德州市,133.896,177.691,13.431,30.044,1.408,71.472,2.756,-1.107,279.187,64.335,101014.502,37.233,116.679
山东,日照市,58.793,75.959,10.776,22.145,0.805,73.017,1.302,0.073,281.294,79.476,99368.47,35.566,119.108
山东,枣庄市,106.085,144.192,13.094,28.871,1.166,59.29,2.488,-0.108,282.524,75.464,100071.876,34.925,117.383
山东,泰安市,123.272,173.77,12.6,36.847,1.477,54.669,2.656,1.034,281.649,71.526,99206.787,35.993,117.04
山东,济南市,135.17,178.457,15.482,36.44,1.504,53.796,3.209,1.022,280.51,70.233,99170.644,36.639,117.254
山东,济宁市,111.822,168.716,11.929,31.779,1.413,53.286,3.507,0.306,282.608,68.725,100532.473,35.375,116.697
山东,淄博市,137.987,172.66,21.972,39.922,1.881,51.859,3.468,1.698,281.01,74.193,98504.751,36.623,118.062
山东,滨州市,133.336,173.074,16.818,31.84,1.339,57.438,2.802,-0.363,279.863,68.914,101028.018,37.516,117.852
山东,潍坊市,103.112,131.245,16.7,33.388,1.351,56.354,1.818,1.493,281.686,75.195,99935.442,36.53,119.092
山东,烟台市,49.722,75.273,8.147,21.238,0.833,66.454,-0.637,2.589,279.578,81.812,99910.643,37.25,120.789
山东,聊城市,154.487,201.091,12.866,31.806,1.684,61.106,2.969,-1.285,280.548,59.583,100827.516,36.458,115.863
山东,菏泽市,148.853,184.242,9.74,29.014,1.639,51.397,4.439,-1.001,282.175,64.29,100751.357,35.134,115.69
山东,青岛市,43.329,65.423,7.66,23.036,0.683,70.119,-1.045,1.559,280.473,82.374,100504.249,36.46,120.172
山西,临汾市,63.288,87.474,30.02,28.51,1.333,53.375,3.932,-2.053,279.543,59.79,89658.61,36.227,111.398
山西,吕梁市,70.669,116.713,24.641,30.315,1.084,46.153,5.277,-1.228,276.766,54.563,87212.757,37.663,111.27
山西,大同市,67.012,114.977,15.057,16.997,0.796,65.16,8.038,-1.756,273.122,55.929,86456.48,39.911,113.713
山西,太原市,128.662,195.4,29.929,41.459,1.436,50.331,6.847,-1.935,276.505,49.219,86991.682,37.967,112.321
山西,忻州市,70.402,112.844,16.841,22.994,0.922,59.277,7.722,-1.587,274.092,55.06,85443.428,38.877,112.391
山西,晋中市,112.366,173.728,30.151,36.562,1.436,51.871,7.303,-1.801,277.361,57.165,87916.326,37.328,112.997
山西,晋城市,90.577,116.583,19.083,26.458,1.296,67.577,5.406,-3.364,279.64,61.339,89981.713,35.625,112.752
山西,朔州市,49.743,106.998,15.455,16.086,0.699,74.274,8.692,-0.976,273.72,54.834,85873.423,39.619,112.655
山西,运城市,67.697,97.288,29.726,32.019,1.315,61.387,2.699,0.363,282.782,58.574,93895.427,35.205,111.071
山西,长治市,76.274,108.735,21.253,26.539,1.218,61.171,7.137,-2.233,278.076,59.817,88253.437,36.48,112.915
山西,阳泉市,133.237,197.623,31.463,40.64,1.597,46.393,8.701,-1.923,276.964,54.872,89728.933,38.031,113.512
广东,东莞市,36.392,50.783,9.423,52.231,0.764,52.641,-0.016,2.536,295.1,82.071,101194.191,22.931,113.81
广东,中山市,28.227,37.998,6.261,24.079,0.57,70.694,-1.48,3.326,295.032,84.331,101194.024,22.5,113.383
广东,云浮市,27.13,35.991,2.641,10.891,0.629,65.093,-0.059,3.136,295.071,78.312,99143.919,22.776,111.818
广东,佛山市,30.551,42.805,7.827,44.183,0.751,53.013,-0.184,2.179,295.685,77.968,101213.201,23.035,112.979
广东,广州市,34.754,46.34,9.52,50.015,0.756,48.346,0.149,2.023,294.787,80.768,100329.532,23.339,113.525
广东,惠州市,27.761,37.357,5.013,19.716,0.525,69.125,0.25,1.532,294.296,81.73,99368.207,23.244,114.485
广东,揭阳市,42.048,57.441,7.428,20.26,1.006,67.168,0.889,-0.449,294.236,79.465,99969.584,23.323,116.123
广东,梅州市,30.809,40.944,6.798,13.636,0.779,66.961,1.33,1.048,292.925,78.641,97941.897,24.169,116.07
广东,汕头市,41.906,58.05,9.191,25.199,1.026,78.017,-0.044,0.565,294.39,82.151,101088.701,23.339,116.614
广东,汕尾市,29.98,40.995,3.773,10.797,0.61,75.281,0.294,0.675,294.314,82.143,99704.759,23.024,115.527
广东,江门市,24.787,33.109,2.754,12.253,0.466,74.563,-1.031,3.065,294.851,86.185,100623.56,22.289,112.676
广东,河源市,26.057,35.082,5.345,11.693,0.563,67.79,1.226,1.773,293.263,80.446,98130.941,24.021,114.969
广东,深圳市,27.81,43.609,7.187,38.629,0.638,61.51,-0.566,2.917,294.432,86.251,100718.759,22.667,114.143
广东,清远市,30.715,37.349,6.07,17.027,0.602,60.784,1.357,2.776,293.061,80.2,97612.697,24.295,112.871
广东,湛江市,26.482,38.665,3.596,8.578,0.592,71.888,-2.196,2.939,295.592,84.433,101022.43,21.091,110.163
广东,潮州市,39.807,54.241,8.156,20.886,1.001,67.111,1.045,-0.537,293.489,78.991,99410.853,23.755,116.754
广东,珠海市,20.978,28.475,2.393,7.69,0.337,86.608,-1.887,3.083,294.355,89.927,101285.28,22.095,113.317
广东,肇庆市,29.18,37.997,3.517,13.925,0.628,62.892,0.435,2.446,294.473,78.75,99254.28,23.505,112.199
广东,茂名市,25.921,35.118,3.611,8.919,0.608,72.919,-1.077,3.811,294.734,84.526,99237.708,22.013,110.952
广东,阳江市,24.294,31.845,2.122,6.039,0.461,74.888,-0.79,3.486,294.472,88.368,99774.676,22.042,111.786
广东,韶关市,30.186,37.069,9.633,17.545,0.832,64.203,1.757,2.248,292.223,79.769,96832.831,24.785,113.819
广西,北海市,30.924,42.749,3.932,8.439,0.65,70.055,-0.659,4.188,295.569,82.804,101046.632,21.674,109.37
广西,南宁市,34.459,49.434,6.03,18.243,0.806,49.916,1.3,4.668,294.818,77.944,99130.72,23.051,108.469
广西,崇左市,33.912,40.968,4.848,7.497,0.656,52.142,2.241,4.37,294.644,76.288,97823.656,22.483,107.291
广西,来宾市,38.095,50.959,6.029,12.705,0.694,56.602,1.88,4.915,294.198,78.052,97967.821,23.859,109.417
广西,柳州市,35.97,47.978,8.625,10.636,0.673,57.748,0.619,3.704,293.285,78.207,97333.803,24.956,109.372
广西,桂林市,31.803,40.989,10.006,9.628,0.642,58.875,1.097,2.292,291.022,83.371,95750.418,25.353,110.513
广西,梧州市,37.113,48.163,4.818,11.326,0.872,60.021,1.137,3.311,294.73,76.324,98842.195,23.484,110.996
广西,河池市,28.642,47.1,7.707,7.267,0.794,52.319,1.167,4.571,293.126,73.32,94946.0,24.628,107.843
广西,玉林市,32.113,45.222,5.251,11.459,0.738,66.745,-0.084,4.448,295.092,80.309,99262.269,22.452,110.164
广西,百色市,30.698,51.691,9.988,8.644,0.951,63.895,1.48,3.616,293.28,62.149,92854.045,23.981,106.292
广西,贵港市,43.493,58.814,6.211,15.503,0.88,56.355,1.42,4.034,295.392,76.328,99657.233,23.322,110.021
广西,贺州市,35.574,45.281,5.324,7.664,0.764,60.488,1.182,3.161,292.567,82.332,97029.467,24.364,111.394
广西,钦州市,33.342,48.078,5.094,14.13,0.823,57.295,0.409,4.7,295.12,83.013,100305.649,22.173,109.01
广西,防城港市,30.203,40.184,4.771,9.688,0.735,61.796,0.881,4.147,293.682,85.339,98710.931,21.88,108.002
新疆,乌鲁木齐市,23.061,33.253,2.985,15.426,0.613,60.05,1.734,-0.4,272.017,60.419,84112.35,43.746,87.818
新疆,五家渠市,56.093,75.897,6.927,25.41,0.917,57.92,-1.417,0.39,270.507,86.25,96694.14,44.363,87.517
新疆,伊犁哈萨克自治州,10.862,11.566,4.31,4.163,0.376,61.238,1.357,0.823,271.242,76.767,80336.952,43.438,82.146
新疆,克孜勒苏柯尔克孜自治州,10.992,29.928,0.432,2.291,0.358,68.567,7.216,-4.638,270.106,45.159,70330.781,39.661,75.949
新疆,克拉玛依市,12.883,17.582,2.223,4.009,0.305,63.437,-1.254,-0.632,269.361,84.859,97572.903,45.457,85.207
新疆,北屯市,23.114,24.026,17.548,49.612,0.7,39.35,-3.134,3.288,266.308,82.164,95621.22,47.27,87.868
新疆,博尔塔拉蒙古自治州,15.252,21.183,4.661,4.435,0.418,60.232,4.106,2.414,272.276,67.949,86069.892,44.714,82.114
新疆,双河市,31.548,50.162,9.336,9.326,0.664,58.786,-0.448,-0.514,272.552,77.43,98011.778,44.87,82.474
新疆,可克达拉市,38.686,38.724,17.664,16.06,0.92,54.534,-4.828,1.28,277.622,82.93,94985.328,43.918,80.786
新疆,和田地区,6.3,14.27,2.13,1.621,0.268,61.485,5.346,0.46,273.445,38.991,73982.24,37.059,80.934
新疆,哈密市,3.197,6.185,1.679,1.321,0.279,61.485,1.447,0.351,275.197,46.017,88148.728,43.042,93.517
新疆,喀什地区,39.638,96.884,2.236,5.938,0.877,61.714,6.238,0.789,274.708,39.058,76081.599,38.125,77.178
新疆,图木舒克市,6.09,7.645,2.308,1.58,0.215,55.93,3.483,0.813,281.382,35.757,89178.198,39.892,79.182
新疆,塔城地区,11.526,13.873,2.567,3.097,0.337,63.604,1.87,0.168,271.096,75.119,89466.587,45.642,84.789
新疆,巴音郭楞蒙古自治州,3.44,5.336,0.991,0.971,0.17,56.924,4.746,-0.733,274.576,48.229,79087.587,39.463,87.481
新疆,新星市,7.53,26.3,4.085,7.29,0.69,59.445,-2.49,1.98,277.59,45.68,92685.82,42.75,93.68
新疆,昆玉市,15.68,41.363,5.717,5.667,0.623,59.013,3.757,-1.64,283.757,28.377,87002.247,37.457,79.093
新疆,昌吉回族自治州,22.736,29.645,4.152,8.367,0.442,63.58,0.888,0.719,271.221,69.116,89864.466,44.342,88.608
新疆,石河子市,54.135,67.1,8.61,18.285,0.79,67.33,0.645,0.555,274.51,72.52,94694.795,44.245,86.035
新疆,胡杨河市,21.23,26.83,2.042,3.87,0.374,60.578,-2.608,-0.896,269.43,89.112,98040.704,44.852,84.772
新疆,铁门关市,17.277,39.013,2.687,5.55,0.36,62.063,2.187,-1.05,281.863,42.22,91585.227,41.773,85.66
新疆,阿克苏地区,9.728,25.621,2.265,2.274,0.284,57.908,1.67,-1.004,277.637,48.972,85199.288,40.965,81.578
新疆,阿勒泰地区,6.125,6.454,4.611,8.178,0.268,64.89,-1.931,2.059,268.102,60.624,88324.541,46.902,88.421
新疆,阿拉尔市,18.505,58.361,3.124,3.927,0.441,52.085,-0.051,0.864,279.824,49.828,90068.53,40.629,80.998
江苏,南京市,40.25,50.327,7.86,29.907,0.8,55.355,3.107,-0.397,285.095,81.769,100933.013,31.899,118.876
江苏,南通市,30.679,42.45,9.004,23.459,0.682,65.678,3.475,0.769,284.255,85.326,100983.294,32.201,120.979
江苏,宿迁市,75.425,82.54,8.766,20.236,0.865,66.746,1.755,-1.991,283.295,80.13,101042.002,33.765,118.495
江苏,常州市,33.898,43.765,7.297,29.07,0.844,57.19,4.01,1.163,285.364,81.802,100966.872,31.613,119.666
江苏,徐州市,112.596,126.278,10.382,28.292,1.158,57.652,2.798,-0.7,283.209,76.68,100818.444,34.363,117.513
江苏,扬州市,48.19,58.026,7.506,21.149,0.736,64.407,1.732,-1.304,284.03,82.718,101027.518,32.709,119.486
江苏,无锡市,32.292,43.832,7.903,31.435,0.878,57.021,4.363,1.778,285.352,82.108,100861.934,31.546,120.066
江苏,泰州市,42.71,52.622,7.738,21.577,0.744,65.714,2.053,-0.953,283.85,84.355,100971.095,32.605,120.048
江苏,淮安市,56.568,66.865,8.007,17.311,0.746,70.032,1.269,-2.31,283.562,80.395,101003.063,33.362,118.985
江苏,盐城市,35.241,47.464,6.559,11.573,0.601,77.165,0.474,-2.295,282.646,83.755,101013.558,33.529,120.156
江苏,苏州市,29.124,42.622,7.962,31.568,0.821,59.793,5.132,2.372,285.645,82.08,101019.31,31.374,120.661
江苏,连云港市,53.534,68.657,8.874,18.882,0.765,74.408,1.086,-0.592,282.369,80.793,100898.059,34.519,119.133
江苏,镇江市,41.919,52.304,7.245,30.161,0.812,55.569,2.968,-0.358,284.886,82.327,100932.841,32.016,119.49
江西,上饶市,20.474,32.264,9.401,12.356,0.706,59.781,5.127,1.93,287.416,75.078,99079.095,28.778,117.47
江西,九江市,24.497,37.127,8.242,13.268,0.748,67.17,3.805,-1.978,285.622,78.668,99082.702,29.313,115.444
江西,南昌市,18.259,30.762,7.0,15.5,0.796,63.591,3.262,-0.522,288.758,70.129,100976.416,28.671,116.016
江西,吉安市,22.415,32.834,9.953,10.207,0.73,68.923,2.236,0.352,290.738,67.122,98756.043,26.954,114.831
江西,宜春市,23.052,34.289,7.794,11.191,0.755,68.197,3.152,-0.723,288.485,69.5,99066.082,28.29,114.974
江西,抚州市,21.476,30.453,8.979,7.945,0.61,67.13,2.742,1.227,289.45,72.092,98741.463,27.514,116.42
江西,新余市,22.59,34.685,8.576,14.833,0.852,67.801,3.243,-0.709,289.85,65.4,100018.37,27.847,114.836
江西,景德镇市,20.554,31.98,8.338,11.991,0.696,63.841,4.575,0.935,287.215,75.686,99885.124,29.287,117.24
江西,萍乡市,22.154,34.878,10.302,14.754,0.845,65.565,2.35,-1.148,288.361,72.21,97788.317,27.505,113.908
江西,赣州市,25.728,34.325,10.289,8.976,0.867,72.061,2.19,1.593,291.275,75.684,97139.723,25.692,115.279
江西,鹰潭市,19.544,29.594,8.511,11.343,0.656,63.007,4.063,2.099,288.521,71.351,99659.522,28.222,117.094
河北,保定市,101.08,141.026,14.932,31.197,1.102,67.505,1.733,-2.013,275.487,48.044,97292.3,39.018,115.159
河北,唐山市,118.139,181.003,29.59,56.178,2.157,47.155,0.396,-1.981,273.926,64.421,100538.658,39.731,118.354
河北,廊坊市,98.364,146.441,15.431,41.752,1.255,59.709,1.068,-2.429,275.352,47.418,101186.035,39.267,116.632
河北,张家口市,56.011,79.176,10.147,16.588,0.752,63.054,5.155,-1.872,269.698,62.543,86834.443,40.877,115.042
河北,承德市,70.8,111.792,13.506,26.958,1.128,48.235,3.745,0.013,268.445,62.991,90144.164,41.339,117.578
河北,沧州市,116.958,161.048,13.614,33.686,1.172,80.202,1.594,-2.409,277.139,62.584,101153.623,38.258,116.744
河北,石家庄市,155.737,223.398,21.606,41.552,1.68,50.881,2.097,-2.152,278.132,48.586,97849.005,38.135,114.407
河北,秦皇岛市,96.131,148.616,25.092,47.741,1.734,52.379,0.112,-1.101,272.053,72.474,98131.467,40.12,119.193
河北,衡水市,131.839,182.066,14.075,33.222,1.49,81.11,1.554,-1.648,277.998,59.256,101037.081,37.755,115.813
河北,邢台市,164.348,233.276,14.93,41.185,1.824,55.144,1.553,-2.312,279.661,53.856,99513.272,37.195,114.815
河北,邯郸市,168.61,228.712,14.645,40.096,1.871,48.185,2.834,-2.38,280.962,53.898,99039.432,36.538,114.596
河南,三门峡市,64.029,81.274,13.534,23.151,0.946,57.04,3.038,-0.813,282.159,56.813,91517.849,34.362,111.101
河南,信阳市,79.82,106.059,12.693,21.009,1.078,62.937,3.518,-1.075,283.307,78.249,100130.393,32.091,114.907
河南,南阳市,99.497,125.31,9.099,24.702,1.32,50.62,0.897,0.545,283.693,69.709,98052.026,33.034,112.323
河南,周口市,143.376,165.079,8.551,26.991,1.378,47.522,3.697,-1.164,282.835,71.707,100807.812,33.738,114.884
河南,商丘市,145.047,164.86,8.789,27.135,1.39,51.214,3.936,-0.946,282.918,71.001,100809.005,34.277,115.718
河南,安阳市,156.772,201.874,13.318,39.241,1.792,47.457,3.548,-2.434,281.89,54.492,98663.265,35.888,114.318
河南,平顶山市,147.684,170.48,9.418,31.341,1.499,45.262,1.997,0.111,283.154,66.304,98653.299,33.8,113.025
河南,开封市,165.038,179.639,9.682,33.166,1.57,47.735,3.449,-0.859,282.094,64.026,100518.474,34.594,114.514
河南,新乡市,166.659,197.975,12.846,43.818,1.811,50.494,3.209,-1.219,282.597,55.388,99536.492,35.256,114.111
河南,洛阳市,101.553,125.17,11.915,26.096,1.27,50.543,3.798,-1.041,282.882,57.906,93914.35,34.274,112.019
河南,济源市,115.017,143.03,16.055,32.121,1.424,56.333,4.196,-0.414,283.277,59.467,95714.885,35.105,112.445
河南,漯河市,159.485,179.34,8.51,32.562,1.493,45.439,2.877,-0.841,282.571,70.174,100706.59,33.652,113.945
河南,濮阳市,167.186,201.073,11.449,31.726,1.791,59.213,3.672,-1.809,281.622,57.046,100727.786,35.809,115.283
河南,焦作市,168.379,201.768,13.72,44.894,1.754,51.338,3.696,0.695,284.252,56.558,99357.411,35.121,113.163
河南,许昌市,174.115,187.675,9.163,35.483,1.576,44.038,2.309,-0.45,282.359,67.24,100000.162,34.075,113.707
河南,郑州市,181.063,200.4,12.705,42.599,1.74,44.631,2.869,-0.279,282.949,59.862,98624.995,34.634,113.438
河南,驻马店市,126.97,155.411,8.985,27.016,1.34,51.592,3.145,-0.975,283.138,72.921,100418.405,32.925,114.174
河南,鹤壁市,169.614,219.088,13.501,44.004,1.92,42.146,3.7,-1.851,282.071,55.42,99870.583,35.716,114.319
浙江,丽水市,21.886,31.438,9.048,10.359,0.561,62.031,6.304,3.641,286.257,76.14,94272.001,28.194,119.51
浙江,台州市,24.443,38.055,8.675,16.899,0.592,63.667,5.135,2.921,288.5,77.127,98473.319,28.742,121.109
浙江,嘉兴市,25.581,37.625,7.281,28.225,0.767,56.992,5.239,2.841,287.021,77.571,101081.661,30.635,120.754
浙江,宁波市,21.142,31.751,7.871,18.365,0.612,68.713,5.015,3.542,288.134,76.949,99893.005,29.706,121.49
浙江,杭州市,18.511,29.805,9.417,17.261,0.712,58.919,5.636,2.496,286.676,74.79,98232.79,29.891,119.464
浙江,温州市,29.008,42.512,8.747,23.686,0.654,52.076,5.189,1.152,288.563,72.896,97348.564,27.897,120.411
浙江,湖州市,25.795,36.145,8.252,24.28,0.804,54.689,5.736,2.752,285.831,80.338,99796.626,30.757,119.871
浙江,绍兴市,19.792,30.426,7.626,19.661,0.685,61.316,5.064,3.411,287.927,72.577,99055.912,29.709,120.64
浙江,舟山市,18.31,29.835,7.41,13.17,0.54,75.06,4.292,4.61,287.33,83.088,100910.838,30.038,122.23
浙江,衢州市,19.746,32.227,10.807,13.323,0.708,54.725,6.367,4.07,287.378,74.268,97583.57,28.912,118.675
浙江,金华市,18.52,29.124,8.72,14.32,0.628,63.564,5.894,3.698,287.814,72.583,97767.844,29.109,119.967
海南,万宁市,17.698,28.254,1.383,1.989,0.281,74.41,-2.833,0.137,295.096,92.292,100012.688,18.842,110.294
海南,三亚市,15.67,24.096,1.964,4.01,0.42,48.986,-4.034,0.237,295.087,86.089,98762.22,18.413,109.407
海南,东方市,19.505,26.081,2.377,3.186,0.275,70.147,-0.365,0.471,296.205,73.664,99369.726,18.971,108.838
海南,临高县,21.923,39.014,2.651,5.499,0.381,58.296,-2.559,0.911,296.15,80.466,100565.329,19.821,109.733
海南,乐东黎族自治县,16.655,23.572,1.345,2.721,0.298,57.403,-2.12,1.107,295.182,80.816,97861.451,18.659,109.072
海南,五指山市,16.938,24.132,1.17,3.062,0.282,58.192,-2.496,1.536,293.58,84.128,94660.43,18.81,109.518
海南,儋州市,20.585,31.049,1.821,3.461,0.314,66.249,-1.879,0.168,296.106,77.3,100208.95,19.568,109.399
海南,定安县,19.462,36.758,1.758,5.158,0.388,54.253,-2.515,1.522,295.987,84.103,100274.28,19.47,110.28
海南,屯昌县,18.976,32.818,1.676,3.896,0.344,57.966,-2.372,1.612,295.738,83.784,99483.164,19.342,110.076
海南,文昌市,18.721,32.017,1.374,2.26,0.325,65.071,-3.756,1.278,295.224,90.794,101071.902,19.707,110.773
海南,昌江黎族自治县,20.774,28.003,2.461,3.458,0.286,71.173,-0.387,-0.384,295.494,73.51,98357.726,19.233,109.016
海南,海口市,20.619,39.808,2.577,7.019,0.438,51.68,-3.161,0.974,296.082,83.448,100855.561,19.842,110.393
海南,澄迈县,20.894,40.033,2.831,6.804,0.419,52.581,-2.473,1.23,296.38,80.229,100392.366,19.676,109.989
海南,琼中黎族苗族自治县,18.204,27.74,1.361,2.786,0.298,62.152,-2.153,1.638,294.675,84.439,97295.726,19.087,109.847
海南,琼海市,17.992,30.118,1.283,2.618,0.305,66.813,-2.793,0.815,295.667,89.192,100842.298,19.22,110.43
海南,白沙黎族自治县,18.17,25.789,1.434,2.827,0.283,66.394,-1.101,0.751,295.328,74.198,96993.255,19.2,109.388
海南,陵水黎族自治县,16.964,26.137,1.099,2.484,0.326,61.547,-2.733,-0.527,294.967,89.809,99334.814,18.581,109.913
湖北,仙桃市,27.591,39.497,6.642,16.313,0.905,65.824,1.497,-1.272,285.478,75.053,101278.462,30.284,113.417
湖北,十堰市,35.612,44.962,8.918,10.197,0.687,57.604,2.356,0.009,284.731,57.962,93154.963,32.462,110.476
湖北,咸宁市,26.964,38.63,6.598,14.687,0.88,67.983,2.168,-1.647,285.079,78.872,99362.136,29.621,114.178
湖北,天门市,30.511,43.637,8.179,18.441,0.983,63.281,1.394,-0.814,285.506,74.17,101224.646,30.633,113.053
湖北,孝感市,41.513,53.651,8.583,17.142,0.953,69.484,1.426,-1.382,284.372,75.897,100582.252,31.116,113.869
湖北,宜昌市,43.459,53.755,9.651,13.399,0.833,50.678,0.953,0.43,284.65,64.374,94035.768,30.746,111.129
湖北,恩施土家族苗族自治州,37.989,47.774,10.98,7.873,0.753,47.628,0.933,-0.235,283.831,63.379,89478.744,30.195,109.552
湖北,武汉市,40.382,52.006,7.435,26.233,1.018,62.498,1.703,-1.781,284.572,77.281,101133.155,30.606,114.349
湖北,潜江市,30.557,44.528,8.684,20.247,1.037,59.033,0.904,-1.001,285.73,74.691,101244.573,30.33,112.77
湖北,神农架林区,21.197,24.704,6.369,2.823,0.363,63.018,3.902,-2.434,279.754,59.551,82788.163,31.592,110.49
湖北,荆州市,31.727,46.088,8.951,19.392,1.051,55.753,0.503,-0.535,285.718,75.519,101014.82,30.01,112.512
湖北,荆门市,39.69,56.698,10.948,18.947,1.009,61.082,1.183,-0.533,285.003,75.241,100170.143,31.059,112.616
湖北,襄阳市,54.283,76.245,10.454,17.194,0.959,56.166,0.673,0.248,284.389,70.398,97347.684,31.919,111.96
湖北,鄂州市,36.999,47.213,8.534,27.613,1.099,64.31,2.594,-2.066,284.754,78.691,101171.147,30.337,114.794
湖北,随州市,54.479,74.536,10.563,16.205,0.993,68.183,1.394,-0.549,283.906,75.17,99411.949,31.809,113.43
湖北,黄冈市,46.007,58.162,10.602,22.672,1.049,64.864,3.251,-2.326,283.816,80.749,99339.327,30.702,115.358
湖北,黄石市,30.652,42.493,7.606,21.982,1.0,65.581,3.34,-1.864,284.779,80.444,100163.344,29.925,115.034
湖南,娄底市,28.116,43.436,8.983,16.283,1.039,53.823,-1.284,-1.341,286.764,77.861,97229.126,27.715,111.632
湖南,岳阳市,26.188,39.807,7.035,14.462,0.823,63.101,0.829,-2.018,285.913,78.222,100117.938,29.081,113.275
湖南,常德市,28.325,42.592,8.653,13.791,1.08,49.119,-0.486,0.483,285.633,77.097,99325.942,29.271,111.524
湖南,张家界市,34.204,51.801,9.776,8.751,0.842,44.047,-0.624,1.256,284.348,78.202,95319.024,29.379,110.526
湖南,怀化市,37.294,56.814,10.865,9.822,0.869,46.035,-1.224,-0.811,287.503,79.777,96275.144,27.535,110.071
湖南,株洲市,21.708,32.853,10.831,14.153,0.773,64.439,1.763,-0.891,288.701,75.095,97939.749,27.109,113.513
湖南,永州市,25.326,35.028,8.858,9.698,0.689,58.41,0.529,1.322,289.957,82.573,96519.275,25.748,111.723
湖南,湘潭市,20.684,34.265,8.926,19.715,0.924,60.956,-0.03,-2.943,287.655,75.415,100252.075,27.744,112.619
湖南,湘西土家族苗族自治州,35.496,55.681,8.928,9.031,0.741,39.079,-0.36,-0.782,285.75,72.218,95241.557,28.708,109.718
湖南,益阳市,24.487,39.828,7.704,13.306,1.036,55.687,-0.554,-0.944,285.944,78.797,98830.72,28.525,111.919
湖南,衡阳市,22.547,34.24,10.061,16.274,0.908,59.13,0.581,-1.505,289.445,75.164,99742.521,26.781,112.565
湖南,邵阳市,34.613,46.524,11.322,13.142,0.845,51.769,-0.404,-0.679,287.035,83.945,94974.342,26.893,110.881
湖南,郴州市,22.715,34.268,10.326,11.627,0.892,60.639,1.297,0.972,289.771,81.24,95711.506,25.769,113.109
湖南,长沙市,22.763,35.845,7.397,15.989,0.848,63.307,0.982,-3.036,286.919,75.99,99633.087,28.235,113.159
甘肃,临夏回族自治州,39.67,64.237,9.353,19.038,0.995,66.466,-0.462,-0.843,276.371,33.634,77223.454,35.617,103.291
甘肃,兰州市,26.219,50.212,13.737,23.386,0.964,58.43,-0.271,-1.189,276.181,37.318,78867.682,36.359,103.633
甘肃,嘉峪关市,9.368,29.347,15.582,15.938,0.36,69.003,2.878,-2.383,275.325,33.207,81481.025,39.798,98.145
甘肃,天水市,41.401,70.105,10.577,18.938,0.783,56.399,0.927,0.023,279.399,44.676,82432.101,34.645,105.739
甘肃,定西市,33.721,52.871,7.6,13.476,0.704,63.767,0.557,-1.599,276.416,38.06,76981.405,35.124,104.432
甘肃,平凉市,31.857,63.762,8.927,18.286,0.714,63.267,1.892,-1.843,280.483,37.617,84251.836,35.304,106.644
甘肃,庆阳市,21.956,37.382,8.777,11.807,0.477,56.017,3.562,-3.15,279.756,38.793,85517.403,36.149,107.596
甘肃,张掖市,7.127,14.479,3.055,4.091,0.238,61.528,4.049,-0.671,271.054,38.754,74375.847,38.94,99.855
甘肃,武威市,9.321,16.439,2.582,4.214,0.316,56.4,2.684,-2.731,275.14,35.117,81198.16,38.163,103.073
甘肃,甘南藏族自治州,5.585,8.271,1.379,2.48,0.223,67.328,3.46,-0.761,272.346,36.614,67296.434,34.331,102.768
甘肃,白银市,23.289,42.795,12.399,16.816,0.688,57.811,1.889,-2.395,276.858,37.594,81277.248,36.59,104.646
甘肃,酒泉市,2.051,3.151,1.214,1.089,0.155,56.248,3.233,-0.249,272.826,45.16,78918.243,40.236,96.062
甘肃,金昌市,10.735,25.229,3.682,6.593,0.322,65.245,4.014,-2.464,275.424,32.129,80395.104,38.44,102.048
甘肃,陇南市,27.163,43.812,9.691,13.898,0.535,63.63,0.353,1.72,279.768,52.026,81963.069,33.599,105.224
福建,三明市,22.788,31.862,10.229,9.813,0.726,53.118,3.909,2.027,289.312,76.816,95065.711,26.29,117.395
福建,南平市,22.805,32.254,11.042,9.834,0.631,55.032,3.334,1.345,287.707,76.584,95786.826,27.324,118.143
福建,厦门市,32.622,55.842,8.788,28.243,0.678,59.263,2.46,-0.883,292.708,75.213,100287.475,24.642,118.11
福建,宁德市,27.501,39.976,9.05,11.543,0.62,55.224,5.16,0.966,288.235,74.733,95065.348,26.968,119.474
福建,泉州市,33.298,51.913,8.228,17.167,0.617,63.731,3.872,0.63,290.552,79.182,96515.007,25.201,118.249
福建,漳州市,29.966,44.602,6.711,14.108,0.604,71.436,2.604,-0.207,292.147,79.983,98142.0,24.372,117.444
福建,福州市,37.141,55.747,8.708,19.174,0.705,53.184,5.135,0.529,290.196,74.738,97223.647,26.083,119.206
福建,莆田市,47.285,68.674,8.874,16.626,0.651,64.064,4.511,0.315,291.229,74.602,98020.299,25.445,118.864
福建,龙岩市,24.369,34.267,8.632,9.291,0.561,69.7,2.457,1.716,289.971,82.634,95112.267,25.256,116.739
西藏,山南市,7.253,8.489,0.563,1.473,0.161,86.173,4.706,0.652,275.103,53.306,66168.622,28.295,92.274
西藏,拉萨市,1.96,3.748,0.042,1.82,0.167,81.079,6.224,0.403,268.617,48.904,56528.002,30.043,91.093
西藏,日喀则市,1.733,2.127,0.164,0.461,0.121,81.916,7.335,-1.752,266.955,42.326,55363.378,29.483,86.493
西藏,昌都市,0.949,1.176,0.047,0.602,0.131,77.358,6.576,3.686,269.489,48.166,58947.425,30.753,97.044
西藏,林芝市,3.191,3.683,0.229,1.361,0.121,77.048,1.552,0.909,273.601,56.578,66400.383,29.184,95.25
西藏,玉树藏族自治州,0.509,0.705,0.05,0.346,0.133,71.205,6.382,-0.481,266.511,54.679,57051.079,34.196,94.317
西藏,那曲市,0.361,0.396,0.019,0.157,0.116,76.292,7.76,-1.978,265.649,50.119,55348.702,32.709,89.262
西藏,阿里地区,0.452,0.615,0.055,0.51,0.113,72.328,8.344,-1.859,262.9,44.989,54838.995,33.013,82.553
贵州,六盘水市,52.779,80.289,13.212,16.005,0.745,63.951,0.817,2.018,287.272,47.71,83011.337,26.106,104.896
贵州,安顺市,49.56,77.226,11.983,12.763,0.708,64.448,-2.094,0.113,287.896,61.779,88073.094,25.986,105.978
贵州,毕节市,50.872,76.496,11.117,13.344,0.753,70.176,1.114,3.352,285.993,53.659,83326.846,27.063,105.211
贵州,贵阳市,56.039,77.404,15.932,22.158,0.806,53.218,-0.762,1.587,285.813,73.031,88130.408,26.845,106.71
贵州,遵义市,47.835,63.08,15.246,13.981,0.754,54.029,-1.411,1.272,285.547,68.102,90302.557,28.167,107.102
贵州,铜仁市,38.954,61.718,14.819,9.504,0.76,45.594,-0.7,-0.01,285.999,71.527,92726.067,27.937,108.534
贵州,黔东南苗族侗族自治州,39.587,56.084,14.423,7.644,0.724,51.629,-1.056,-0.637,287.805,79.794,92623.911,26.495,108.574
贵州,黔南布依族苗族自治州,41.882,58.977,12.622,10.183,0.651,57.926,-1.297,0.474,288.338,74.701,90302.642,26.0,107.265
贵州,黔西南布依族苗族自治州,34.449,62.064,12.596,10.198,0.718,62.313,-0.239,0.861,290.202,51.272,88451.228,25.256,105.467
辽宁,丹东市,61.391,79.528,16.96,27.32,1.188,54.969,-3.323,4.694,273.164,81.904,98120.397,40.554,124.376
辽宁,大连市,67.203,90.028,12.01,25.253,1.01,60.676,-2.462,1.953,273.986,88.387,100329.842,39.591,122.22
辽宁,抚顺市,57.331,70.33,16.048,26.331,1.092,56.792,-1.294,7.814,271.533,77.517,96226.941,41.841,124.65
辽宁,朝阳市,69.949,104.841,28.16,22.652,1.044,63.035,2.111,0.5,269.355,62.021,95708.225,41.545,120.053
辽宁,本溪市,56.153,70.195,16.241,26.196,1.143,57.147,-2.433,8.221,271.649,80.995,95603.653,41.232,124.544
辽宁,沈阳市,105.346,136.849,38.579,51.874,1.585,40.091,0.325,2.051,271.126,80.313,100481.851,42.081,123.159
辽宁,盘锦市,104.987,134.839,38.367,46.789,1.456,39.8,1.026,0.747,271.725,77.532,101163.856,41.13,122.01
辽宁,营口市,76.283,102.487,16.119,29.347,1.285,55.594,-2.575,4.64,273.547,79.255,98857.11,40.395,122.478
辽宁,葫芦岛市,81.715,115.382,34.221,39.374,1.322,50.576,1.139,-1.059,270.899,69.762,98569.583,40.66,120.215
辽宁,辽阳市,78.496,102.649,23.526,37.212,1.434,56.405,-1.698,6.235,273.478,76.056,99060.398,41.153,123.261
辽宁,铁岭市,78.347,97.018,20.025,38.213,1.287,52.055,-0.201,3.879,270.162,82.607,98881.922,42.653,124.158
辽宁,锦州市,99.387,131.001,47.014,44.372,1.19,46.227,0.951,-0.452,269.83,75.129,100321.815,41.502,121.659
辽宁,阜新市,90.177,121.765,42.316,37.05,1.064,53.897,0.743,0.091,267.838,77.416,98777.412,42.289,121.968
辽宁,鞍山市,83.176,110.801,21.835,36.37,1.432,54.67,-1.817,3.887,272.986,81.643,99173.484,40.731,123.007
重庆,重庆城区,51.407,70.441,13.22,24.363,0.894,50.382,-1.89,0.696,287.457,60.017,94814.645,29.824,107.125
重庆,重庆郊县,39.445,51.938,13.556,8.98,0.673,51.7,-0.038,0.274,284.548,64.147,91027.027,30.334,108.755
陕西,咸阳市,71.527,104.031,12.428,39.183,1.205,52.304,1.153,-0.55,283.911,49.734,91181.522,34.779,108.367
陕西,商洛市,26.656,34.631,5.713,11.441,0.51,52.272,3.306,-0.739,282.882,52.752,89099.811,33.64,109.889
陕西,安康市,27.553,35.515,6.574,6.777,0.528,57.969,3.112,-0.236,283.51,58.525,89709.461,32.735,108.932
陕西,宝鸡市,41.996,66.036,7.543,20.93,0.68,57.872,2.782,0.274,282.172,45.755,86098.434,34.386,107.193
陕西,延安市,29.012,45.833,10.672,20.997,0.78,49.332,4.669,-3.032,279.86,45.077,87227.069,36.432,109.316
陕西,榆林市,31.881,88.795,13.017,22.042,0.738,50.637,6.114,-3.382,277.674,39.889,87534.91,38.041,109.581
陕西,汉中市,33.746,47.408,8.105,12.596,0.673,59.683,2.016,0.098,283.351,54.393,88776.905,33.088,107.098
陕西,渭南市,56.718,85.983,18.098,33.327,1.089,48.806,1.663,0.021,284.013,53.657,93525.207,34.919,109.855
陕西,西安市,42.276,63.706,8.493,31.763,0.848,49.208,2.008,0.051,283.645,49.298,90269.402,34.12,108.77
陕西,铜川市,48.105,61.961,12.132,22.964,0.879,52.705,3.236,-1.626,282.735,48.052,88866.213,35.198,109.058
青海,保亭黎族苗族自治县,16.9,25.244,1.594,4.162,0.376,50.07,-2.932,-0.088,293.998,90.136,97178.35,18.566,109.618
青海,吐鲁番市,9.101,20.467,2.857,4.975,0.313,57.612,0.487,0.244,279.005,40.506,90185.515,42.386,89.851
青海,果洛藏族自治州,0.621,0.794,0.085,0.585,0.148,71.453,6.307,0.342,266.856,52.694,59676.744,34.127,99.404
青海,海东市,15.456,23.425,6.719,9.504,0.58,57.721,0.367,-0.238,273.077,33.873,72465.061,36.347,102.34
青海,海北藏族自治州,1.113,1.473,0.619,0.877,0.142,60.323,4.195,-1.412,266.131,41.443,64953.037,37.775,100.288
青海,海南藏族自治州,1.242,1.478,0.492,0.804,0.139,61.306,3.883,-1.136,270.433,33.19,66155.968,35.89,100.272
青海,海西蒙古族藏族自治州,0.429,0.495,0.179,0.262,0.126,62.029,4.538,-1.659,268.406,48.186,64280.724,36.677,94.519
青海,西宁市,13.648,24.946,6.869,10.536,0.618,61.045,2.387,-0.97,270.812,32.023,69227.532,36.842,101.423
青海,黄南藏族自治州,2.846,3.239,1.066,1.319,0.168,63.039,3.379,-1.101,270.913,33.864,65475.046,35.022,101.631
香港,香港特别行政区,24.455,34.53,4.685,31.185,0.38,61.99,-1.18,2.545,294.015,90.21,100912.24,22.45,114.22
黑龙江,七台河市,41.343,77.384,10.419,19.463,0.661,62.011,-4.074,2.33,259.667,78.103,98509.658,45.87,130.943
黑龙江,伊春市,12.803,18.409,5.516,6.834,0.3,61.348,-3.752,-0.562,256.976,72.745,96925.492,47.772,129.184
黑龙江,佳木斯市,23.05,34.569,6.498,11.985,0.463,55.54,-1.236,1.081,255.71,78.781,100834.374,47.207,132.11
黑龙江,双鸭山市,25.771,35.953,8.464,13.059,0.461,55.192,-1.175,1.853,257.454,79.228,100397.056,46.722,132.643
黑龙江,哈尔滨市,37.619,48.359,10.084,19.924,0.614,56.091,-5.537,0.547,262.043,78.736,98437.198,45.634,127.964
黑龙江,大兴安岭地区,26.817,30.213,8.188,5.112,0.336,43.469,-1.171,1.513,254.35,82.264,94917.353,52.286,124.212
黑龙江,大庆市,33.684,53.743,14.142,19.349,0.701,62.581,-4.632,-1.704,260.132,79.416,99784.12,46.327,124.687
黑龙江,牡丹江市,38.736,52.954,6.724,11.891,0.529,60.334,-3.342,3.945,262.018,81.659,95350.439,44.592,129.883
黑龙江,绥化市,33.329,52.391,10.176,15.369,0.563,57.357,-5.809,-1.372,258.6,80.425,99081.224,46.89,126.634
黑龙江,鸡西市,35.466,53.576,8.841,13.368,0.54,54.986,-2.346,0.857,258.408,81.663,100048.353,45.626,132.289
黑龙江,鹤岗市,13.724,22.621,4.981,8.668,0.423,59.057,-0.662,-1.431,256.09,72.669,99729.124,47.661,130.778
黑龙江,黑河市,16.456,22.418,4.867,5.06,0.387,57.921,-2.896,0.071,256.051,78.339,97377.861,49.268,127.004
黑龙江,齐齐哈尔市,33.24,45.244,9.624,11.985,0.576,54.076,-4.141,-1.375,257.959,80.136,99149.348,47.715,124.57
