province,city,PM2.5,PM10,SO2,NO2,CO,O3,U,V,TEMP,RH,PSFC,lat,lon
上海,上海市,36.558,52.923,13.862,47.175,0.752,42.268,3.431,-6.02,274.218,51.066,102994.67,31.173,121.42
云南,临沧市,46.726,49.511,7.633,10.231,0.896,74.636,4.266,2.562,283.902,75.444,84080.484,23.935,99.686
云南,丽江市,24.58,43.295,7.414,6.104,0.817,71.688,7.878,0.562,279.027,64.066,74368.547,26.96,100.515
云南,保山市,47.072,64.84,7.019,13.452,0.825,64.626,6.269,0.784,282.947,75.051,81973.048,24.953,98.962
云南,大理白族自治州,34.533,53.731,5.08,5.031,0.74,72.264,8.163,1.421,280.542,74.718,78031.887,25.726,100.053
云南,德宏傣族景颇族自治州,51.812,60.143,7.957,17.953,0.882,52.123,3.97,0.789,285.595,69.919,86286.46,24.535,98.052
云南,怒江傈僳族自治州,27.674,43.998,3.365,2.747,0.616,70.058,4.885,0.118,275.091,92.715,72685.663,26.916,98.885
云南,文山壮族苗族自治州,53.943,76.288,11.241,9.924,0.606,62.797,-0.472,2.602,276.448,55.067,86945.203,23.696,104.735
云南,昆明市,54.265,72.385,8.667,22.44,1.019,44.795,5.336,5.666,276.723,90.139,79178.618,25.384,102.863
云南,昭通市,55.017,81.774,16.779,16.554,0.825,47.471,-1.671,-1.108,274.509,69.572,84266.252,27.667,103.985
云南,普洱市,34.342,47.663,8.337,4.764,0.691,67.495,-0.491,3.811,280.72,84.091,86284.968,23.159,100.718
云南,曲靖市,59.016,75.257,12.174,18.514,0.792,49.859,2.018,4.841,274.516,81.54,80007.429,25.737,103.929
云南,楚雄彝族自治州,34.811,45.916,6.866,6.088,0.77,59.731,5.642,5.866,280.159,81.208,80938.1,25.328,101.567
云南,玉溪市,47.845,71.041,7.875,10.254,0.878,53.221,1.781,5.006,278.554,85.802,83655.82,24.136,102.217
云南,红河哈尼族彝族自治州,55.497,73.696,9.776,8.173,0.672,65.048,-0.74,3.148,276.741,80.766,85492.136,23.451,103.034
云南,西双版纳傣族自治州,38.163,51.122,9.159,5.444,0.663,61.277,-2.906,1.228,281.182,76.821,89429.513,21.939,100.912
云南,迪庆藏族自治州,13.87,21.668,2.872,1.989,0.549,75.873,8.325,1.232,272.76,75.998,66978.72,27.957,99.459
内蒙古,乌兰察布市,7.862,12.671,5.419,5.351,0.397,63.019,6.24,-2.226,259.561,59.515,86053.559,41.691,112.44
内蒙古,乌海市,32.1,67.161,41.812,37.208,1.03,47.016,4.236,-3.422,265.082,31.818,88212.244,39.396,106.856
内蒙古,兴安盟,11.026,14.859,6.004,5.221,0.364,51.638,1.005,-0.817,251.778,55.987,95355.128,46.244,121.341
内蒙古,包头市,6.142,10.337,3.673,5.17,0.325,62.511,4.69,-2.91,260.139,54.885,86175.709,41.549,110.276
内蒙古,呼伦贝尔市,6.198,8.74,6.101,5.13,0.263,51.29,0.908,-0.122,247.35,71.833,93937.31,49.636,121.171
内蒙古,呼和浩特市,28.938,58.016,21.429,29.433,0.934,50.233,3.314,-1.696,261.486,50.816,86507.229,40.578,111.513
内蒙古,巴彦淖尔市,4.991,7.274,2.542,3.759,0.267,62.8,2.625,-2.581,262.19,40.61,87819.004,41.446,107.582
内蒙古,赤峰市,8.882,13.279,8.791,5.918,0.392,51.096,2.25,-0.989,256.205,59.806,92215.066,43.226,118.892
内蒙古,通辽市,13.333,16.877,6.68,5.908,0.342,48.182,0.403,-1.237,255.341,48.904,98831.512,43.814,121.591
内蒙古,鄂尔多斯市,16.907,30.297,19.991,20.546,0.595,48.003,3.289,-2.359,264.224,36.495,87421.141,39.407,108.63
内蒙古,锡林郭勒盟,2.041,2.917,1.805,1.098,0.2,59.099,4.831,-1.598,255.236,73.419,89159.7,44.179,115.482
内蒙古,阿拉善盟,7.766,11.242,3.628,2.255,0.241,54.215,2.42,-2.076,264.23,42.595,88194.991,40.473,102.467
北京,北京市,30.208,43.133,10.841,38.463,0.781,38.688,1.576,1.151,266.153,35.238,98720.901,40.158,116.395
台湾,台湾省,41.547,46.877,9.235,13.001,0.404,63.451,-2.969,-4.999,280.624,71.094,93447.071,23.757,120.975
吉林,吉林市,49.397,58.801,12.757,20.358,0.957,55.239,1.237,-1.907,250.739,74.522,97952.183,43.573,126.859
吉林,四平市,55.251,64.34,10.227,21.387,0.901,46.146,-0.718,-1.49,253.823,64.927,100539.731,43.472,124.386
吉林,延边朝鲜族自治州,19.533,24.962,6.761,8.425,0.42,58.51,4.68,-3.942,251.886,66.955,94381.071,43.141,129.147
吉林,松原市,48.042,54.907,10.797,15.76,0.81,51.878,-0.267,-1.208,252.475,64.751,100982.856,44.785,124.496
吉林,白城市,33.652,39.989,7.763,11.196,0.603,50.46,-0.2,-1.064,253.725,54.217,101107.589,45.35,123.031
吉林,白山市,39.159,46.375,18.946,20.853,0.765,47.398,0.633,-2.845,249.322,74.117,92433.257,42.063,127.256
吉林,辽源市,75.117,85.554,15.934,36.198,1.256,36.86,0.165,-2.063,252.372,75.568,98403.119,42.836,125.32
吉林,通化市,57.372,69.644,20.189,29.565,1.109,41.039,-0.125,-2.833,251.855,73.363,96335.7,41.939,125.927
吉林,长春市,64.624,75.764,15.334,26.829,1.182,48.781,0.218,-1.641,251.1,71.214,100457.691,44.268,125.611
四川,乐山市,78.003,96.141,11.418,20.955,0.768,44.366,-1.118,-0.577,275.381,66.431,90073.537,29.218,103.569
四川,内江市,87.483,118.065,12.55,34.132,0.912,34.989,-3.343,-0.859,280.16,43.229,97491.569,29.62,104.95
四川,凉山彝族自治州,42.326,54.648,8.871,11.275,0.833,59.056,2.99,1.368,275.632,66.737,73881.453,27.883,102.065
四川,南充市,74.67,102.359,8.731,28.561,1.035,49.434,-2.082,-0.309,278.606,47.832,97593.993,31.19,106.199
四川,宜宾市,86.466,118.415,17.305,32.744,0.939,31.939,-0.709,-2.224,279.47,50.429,95723.477,28.573,104.621
四川,巴中市,68.352,93.695,10.25,22.499,1.042,48.458,-0.169,-0.046,275.625,52.979,93133.998,32.033,107.031
四川,广元市,71.788,92.772,13.611,24.772,0.901,39.783,0.288,1.846,275.2,60.519,92188.649,32.261,105.788
四川,广安市,63.407,93.516,9.278,27.068,0.861,44.75,-2.453,0.094,279.507,43.401,97596.574,30.43,106.628
四川,德阳市,92.203,122.248,5.7,31.875,0.882,30.207,-0.484,0.405,276.298,59.287,93835.387,31.13,104.436
四川,成都市,86.394,119.346,8.502,38.08,0.929,32.725,-0.71,-0.431,276.803,59.063,93978.567,30.64,103.929
四川,攀枝花市,58.709,90.518,36.568,30.932,1.578,43.915,0.936,3.915,281.596,68.598,81280.251,26.791,101.734
四川,泸州市,66.936,100.598,19.891,33.189,0.872,29.952,-2.948,1.497,279.383,44.296,94017.147,28.424,105.675
四川,甘孜藏族自治州,5.095,5.894,0.644,1.168,0.153,70.286,7.896,-2.464,269.388,42.933,60702.613,30.936,100.009
四川,眉山市,85.392,111.894,10.305,30.551,0.867,37.521,-1.495,-0.671,277.639,57.959,94435.663,29.912,103.766
四川,绵阳市,75.342,92.279,7.556,20.013,0.689,39.359,0.175,0.926,273.568,65.263,88410.361,31.86,104.704
四川,自贡市,96.344,124.623,14.806,37.205,0.936,31.496,-3.002,-1.594,280.368,44.837,97445.74,29.307,104.659
四川,资阳市,74.784,109.427,7.973,29.114,0.866,39.973,-2.859,-0.047,279.791,43.355,97780.88,30.102,105.149
四川,达州市,75.12,100.257,10.98,27.248,1.185,52.765,-1.28,-0.05,277.033,45.547,94805.677,31.335,107.636
四川,遂宁市,77.623,108.588,5.968,30.03,0.893,43.758,-2.077,0.009,279.27,45.963,98052.183,30.642,105.457
四川,阿坝藏族羌族自治州,6.798,9.135,1.098,2.783,0.208,63.019,2.245,-0.948,266.1,50.598,65056.069,32.406,102.61
四川,雅安市,70.733,83.885,11.52,13.653,0.654,54.122,-1.008,-0.164,270.82,76.636,80118.003,29.932,102.689
天津,天津市,30.18,50.887,12.615,48.823,0.842,31.026,1.061,1.569,267.816,28.192,102791.015,39.315,117.308
宁夏,中卫市,35.22,67.253,15.945,24.042,0.741,47.943,4.179,-2.787,266.334,45.103,83929.133,37.018,105.509
宁夏,吴忠市,32.271,59.085,20.024,22.36,0.709,47.607,5.002,-2.377,265.995,40.179,85508.066,37.454,106.577
宁夏,固原市,44.098,80.256,17.326,30.905,1.008,51.08,3.551,-2.787,265.783,53.556,81147.255,35.905,106.183
宁夏,石嘴山市,34.636,69.508,42.314,31.595,0.911,50.352,3.873,-3.302,266.028,27.297,87221.038,39.013,106.499
宁夏,银川市,39.426,80.898,41.15,37.717,1.051,48.046,2.998,-1.803,266.937,27.981,87557.609,38.287,106.342
安徽,亳州市,63.648,96.641,17.557,41.058,0.805,42.122,-3.149,2.134,272.281,49.579,102792.437,33.44,116.162
安徽,六安市,53.429,84.009,14.839,41.485,0.81,52.303,-2.255,0.654,272.594,54.339,100135.894,31.617,116.209
安徽,合肥市,69.218,95.078,15.38,54.14,1.023,40.211,-3.491,-0.755,272.75,57.24,102706.656,31.766,117.359
安徽,安庆市,55.621,84.741,15.84,49.41,0.789,48.987,-2.493,-2.774,273.812,50.383,100594.878,30.557,116.473
安徽,宣城市,52.233,75.087,14.14,37.279,0.855,45.662,-1.281,-2.364,272.153,59.819,100536.48,30.676,118.846
安徽,宿州市,46.027,73.945,13.89,32.577,0.687,45.701,-2.76,0.95,271.297,40.259,102772.881,33.844,117.23
安徽,池州市,54.515,83.581,16.637,45.876,0.836,44.747,-2.348,-2.725,273.863,53.179,100760.687,30.296,117.379
安徽,淮北市,49.85,81.432,18.399,40.2,0.693,41.715,-2.968,1.553,271.811,44.04,102808.278,33.722,116.747
安徽,淮南市,66.075,94.686,16.806,45.304,0.846,44.327,-3.852,0.927,272.785,54.906,102871.663,32.463,116.746
安徽,滁州市,41.652,66.22,11.718,32.694,0.649,48.593,-2.546,-1.173,271.732,51.413,102601.666,32.55,118.076
安徽,芜湖市,70.43,94.136,18.157,54.284,1.067,40.401,-3.09,-2.234,273.281,57.124,102886.73,31.167,118.162
安徽,蚌埠市,48.132,76.956,14.216,33.588,0.685,46.57,-3.121,0.505,271.854,50.779,102863.322,33.121,117.263
安徽,铜陵市,73.119,102.614,19.189,63.532,1.104,41.64,-2.726,-2.558,274.012,58.253,102712.341,30.883,117.531
安徽,阜阳市,77.08,114.88,16.983,44.839,0.993,42.442,-3.645,2.157,272.763,54.112,102758.7,32.937,115.723
安徽,马鞍山市,65.23,89.822,18.389,55.283,0.93,38.122,-2.972,-2.302,272.397,53.16,102903.083,31.622,118.386
安徽,黄山市,37.506,62.591,14.883,27.35,0.699,48.628,-1.736,-2.352,272.783,50.448,98377.955,29.869,118.09
山东,东营市,34.559,60.001,32.514,41.98,0.984,33.584,1.029,1.777,266.795,36.872,103015.364,37.57,118.572
山东,临沂市,30.065,54.801,18.272,29.421,0.816,45.958,-0.492,0.268,267.921,38.262,101181.393,35.289,118.27
山东,威海市,16.066,28.797,10.246,14.537,0.575,61.691,3.883,-5.205,266.431,56.153,102225.053,37.148,122.028
山东,德州市,31.601,63.836,22.954,40.7,1.148,37.229,0.874,3.678,269.332,27.029,102833.773,37.233,116.679
山东,日照市,20.81,42.246,12.921,28.807,0.733,48.003,1.147,-1.214,266.932,38.864,101287.312,35.566,119.108
山东,枣庄市,43.423,79.16,20.876,33.544,0.792,42.134,-2.066,1.718,269.814,34.706,101968.712,34.925,117.383
山东,泰安市,40.674,68.678,24.832,40.957,1.085,35.458,-0.84,2.311,268.753,32.68,101010.253,35.993,117.04
山东,济南市,31.922,63.608,25.925,42.393,1.098,35.081,0.521,2.661,268.282,33.355,100947.678,36.639,117.254
山东,济宁市,44.099,74.831,22.986,40.095,0.992,37.04,-1.642,2.924,270.426,33.19,102406.044,35.375,116.697
山东,淄博市,35.935,65.162,33.008,43.845,1.245,34.765,1.53,1.625,267.2,35.56,100297.79,36.623,118.062
山东,滨州市,34.847,56.209,26.725,43.115,1.071,35.284,1.772,2.45,268.094,32.821,102933.317,37.516,117.852
山东,潍坊市,33.782,59.958,22.139,38.432,1.001,38.306,1.59,-0.703,266.893,36.767,101873.038,36.53,119.092
山东,烟台市,25.153,44.592,15.072,25.83,0.95,49.532,3.118,-3.841,266.167,49.643,101758.658,37.25,120.789
山东,聊城市,42.498,88.741,23.89,44.994,1.263,37.963,-0.662,4.629,270.392,27.495,102609.349,36.458,115.863
山东,菏泽市,54.653,98.259,20.032,43.485,1.211,38.767,-2.039,3.656,271.404,34.616,102528.953,35.134,115.69
山东,青岛市,28.658,53.454,17.627,34.369,0.905,42.942,2.097,-2.95,266.655,44.182,102461.023,36.46,120.172
山西,临汾市,69.179,96.215,99.499,39.351,1.68,41.447,2.332,-0.375,268.721,37.355,90584.292,36.227,111.398
山西,吕梁市,46.043,73.959,53.624,29.068,1.468,39.251,3.16,-0.942,265.948,36.952,88027.902,37.663,111.27
山西,大同市,26.056,44.929,27.841,23.399,0.921,45.398,4.819,-1.822,262.416,49.956,87397.352,39.911,113.713
山西,太原市,34.223,65.785,34.541,32.019,0.983,40.313,4.344,-2.548,265.686,34.428,87844.057,37.967,112.321
山西,忻州市,39.094,73.611,34.312,30.15,0.994,41.753,3.872,-1.73,263.089,42.383,86260.346,38.877,112.391
山西,晋中市,39.027,64.447,47.909,39.501,1.099,37.447,3.328,-1.114,266.472,31.945,88824.919,37.328,112.997
山西,晋城市,64.325,101.114,58.994,42.119,1.443,43.442,2.666,1.063,267.997,38.623,90979.356,35.625,112.752
山西,朔州市,45.3,91.348,50.285,40.349,1.213,35.782,5.472,-1.108,262.427,50.388,86751.993,39.619,112.655
山西,运城市,100.739,148.099,115.573,53.153,2.151,37.701,1.316,1.105,271.808,41.855,95034.854,35.205,111.071
山西,长治市,42.815,66.78,53.85,37.684,1.137,40.958,3.959,-0.109,267.172,37.201,89162.288,36.48,112.915
山西,阳泉市,47.68,82.359,46.314,45.28,1.178,34.128,3.804,-2.102,266.846,32.629,90785.691,38.031,113.512
广东,东莞市,35.739,51.343,9.842,37.354,0.621,69.764,-4.697,-6.331,281.501,31.072,102247.393,22.931,113.81
广东,中山市,39.911,54.651,10.354,45.126,0.604,65.693,-3.821,-7.197,282.408,38.554,102224.306,22.5,113.383
广东,云浮市,42.907,61.426,8.969,27.778,0.619,58.994,-4.273,-5.087,280.055,32.005,100183.715,22.776,111.818
广东,佛山市,38.225,56.319,10.401,48.393,0.604,58.146,-3.273,-6.579,281.335,30.356,102332.95,23.035,112.979
广东,广州市,34.99,50.123,9.74,33.521,0.58,68.707,-4.217,-6.196,280.871,29.827,101367.752,23.339,113.525
广东,惠州市,31.652,44.892,8.102,18.165,0.556,76.661,-4.122,-7.62,280.028,31.642,100311.64,23.244,114.485
广东,揭阳市,41.687,58.377,11.524,28.708,0.678,72.593,-3.612,-7.227,281.503,34.925,100908.213,23.323,116.123
广东,梅州市,32.592,46.916,9.468,22.981,0.574,67.832,-1.839,-5.396,278.856,33.837,98849.08,24.169,116.07
广东,汕头市,40.376,54.805,11.785,25.747,0.631,77.736,-4.628,-7.984,282.641,40.616,102077.588,23.339,116.614
广东,汕尾市,34.231,48.28,8.725,18.505,0.578,78.386,-4.031,-7.515,281.677,32.551,100593.81,23.024,115.527
广东,江门市,41.533,55.966,10.716,40.329,0.57,60.916,-3.505,-7.722,281.639,35.092,101636.665,22.289,112.676
广东,河源市,30.907,45.596,8.65,15.874,0.573,69.678,-2.624,-7.319,278.222,32.697,99078.358,24.021,114.969
广东,深圳市,35.722,51.212,10.423,33.677,0.628,73.926,-4.398,-8.199,281.451,34.269,101691.4,22.667,114.143
广东,清远市,39.913,55.979,12.032,22.374,0.643,63.318,-3.932,-6.207,278.267,30.764,98607.047,24.295,112.871
广东,湛江市,48.305,64.13,11.716,17.401,0.596,87.215,-3.597,-5.597,284.15,33.766,102059.959,21.091,110.163
广东,潮州市,38.589,53.915,9.994,22.95,0.608,72.372,-4.509,-6.93,280.954,37.223,100333.25,23.755,116.754
广东,珠海市,39.02,49.597,13.632,34.548,0.52,68.975,-3.597,-8.455,283.202,43.492,102259.705,22.095,113.317
广东,肇庆市,42.278,59.921,9.889,24.841,0.604,61.257,-4.746,-5.166,280.066,29.56,100307.165,23.505,112.199
广东,茂名市,45.386,63.162,10.082,19.254,0.602,75.133,-5.07,-5.806,281.606,29.934,100189.027,22.013,110.952
广东,阳江市,42.782,57.895,9.832,22.17,0.568,66.201,-4.035,-7.638,281.043,30.996,100754.415,22.042,111.786
广东,韶关市,37.874,54.667,12.27,25.918,0.765,63.809,-3.954,-5.555,276.743,32.394,97819.387,24.785,113.819
广西,北海市,58.244,78.231,11.743,18.078,0.729,77.714,-3.865,-5.546,283.279,27.204,102175.496,21.674,109.37
广西,南宁市,59.121,85.577,16.922,35.658,0.818,52.322,-3.515,-3.791,280.891,30.158,100328.843,23.051,108.469
广西,崇左市,55.366,76.133,15.35,26.163,0.696,54.858,-3.867,-3.202,280.769,33.07,98962.634,22.483,107.291
广西,来宾市,60.92,81.198,17.383,26.692,0.776,55.167,-3.067,-3.773,279.849,28.403,99094.138,23.859,109.417
广西,柳州市,50.543,68.522,16.669,20.792,0.632,59.381,-3.144,-3.048,278.956,29.055,98493.202,24.956,109.372
广西,桂林市,46.622,61.866,17.684,21.133,0.551,67.611,-4.278,-3.885,277.064,31.39,96785.025,25.353,110.513
广西,梧州市,53.645,79.27,12.685,27.447,0.804,58.778,-3.91,-3.959,280.108,30.094,99929.717,23.484,110.996
广西,河池市,51.482,78.678,13.637,21.064,0.693,41.696,-3.321,-1.069,278.257,33.831,96021.916,24.628,107.843
广西,玉林市,53.892,75.99,12.756,22.716,0.701,69.034,-4.567,-5.45,281.114,30.5,100322.046,22.452,110.164
广西,百色市,55.071,84.306,14.14,21.7,0.761,44.398,-2.775,0.793,278.314,36.756,93804.297,23.981,106.292
广西,贵港市,60.312,85.113,14.302,24.502,0.776,62.041,-4.07,-3.783,280.858,28.332,100836.04,23.322,110.021
广西,贺州市,52.168,73.312,15.23,21.468,0.719,60.264,-3.578,-5.221,278.556,31.186,98026.684,24.364,111.394
广西,钦州市,57.953,85.239,13.181,25.584,0.785,71.068,-3.794,-5.265,282.183,28.886,101466.124,22.173,109.01
广西,防城港市,53.564,78.477,14.671,25.71,0.72,67.623,-3.324,-5.273,281.358,31.761,99800.025,21.88,108.002
新疆,乌鲁木齐市,60.39,90.397,7.208,21.562,1.012,54.899,-0.642,2.706,262.272,48.08,84493.377,43.746,87.818
新疆,五家渠市,143.03,194.19,17.767,39.847,1.817,49.68,2.227,-1.19,257.817,80.87,97636.51,44.363,87.517
新疆,伊犁哈萨克自治州,23.154,28.733,6.328,9.045,0.604,56.076,0.493,1.871,266.076,33.31,80185.488,43.438,82.146
新疆,克孜勒苏柯尔克孜自治州,7.99,22.972,1.002,1.407,0.283,69.513,7.699,-0.202,259.075,56.686,70006.885,39.661,75.949
新疆,克拉玛依市,48.744,62.153,7.94,19.183,0.668,57.051,-0.913,-1.727,260.895,68.014,98602.156,45.457,85.207
新疆,北屯市,7.446,9.804,19.764,24.6,0.816,64.208,-2.544,1.958,260.46,57.702,96600.832,47.27,87.868
新疆,博尔塔拉蒙古自治州,33.31,50.518,10.143,11.988,0.908,57.194,1.103,1.407,260.528,54.522,86586.648,44.714,82.114
新疆,双河市,45.372,78.934,18.18,18.128,1.26,58.856,0.474,-1.362,260.576,65.6,99180.834,44.87,82.474
新疆,可克达拉市,85.204,107.162,27.586,34.278,1.924,55.806,-1.448,0.528,271.636,31.586,95153.722,43.918,80.786
新疆,和田地区,4.832,11.031,1.142,1.122,0.258,58.483,4.011,1.717,263.684,49.105,74009.82,37.059,80.934
新疆,哈密市,6.625,11.311,2.026,3.196,0.402,60.669,-1.248,1.396,264.912,42.503,88927.219,43.042,93.517
新疆,喀什地区,13.295,29.377,2.211,2.358,0.32,58.648,5.856,2.112,262.415,60.994,76166.835,38.125,77.178
新疆,图木舒克市,10.338,11.605,3.687,1.553,0.22,46.803,-1.193,-0.537,267.153,74.495,89949.967,39.892,79.182
新疆,塔城地区,27.436,33.695,4.856,9.97,0.484,60.474,-1.395,0.806,262.227,54.374,90124.898,45.642,84.789
新疆,巴音郭楞蒙古自治州,5.109,6.983,1.167,0.907,0.205,56.556,2.468,0.058,263.303,54.178,79423.273,39.463,87.481
新疆,新星市,16.49,35.385,3.765,11.09,0.945,50.305,-1.465,0.74,266.665,46.175,93661.965,42.75,93.68
新疆,昆玉市,32.65,92.653,7.843,10.847,1.197,55.143,-2.943,0.907,269.52,56.443,87415.557,37.457,79.093
新疆,昌吉回族自治州,44.542,56.632,5.559,13.964,0.705,56.034,-0.406,1.101,262.864,51.701,90432.564,44.342,88.608
新疆,石河子市,218.045,251.625,21.53,72.21,2.395,46.775,1.84,-0.4,260.05,77.71,95586.755,44.245,86.035
新疆,胡杨河市,58.388,72.378,6.496,19.782,0.718,55.236,-0.968,-0.332,258.516,80.85,99142.084,44.852,84.772
新疆,铁门关市,40.693,78.323,4.397,7.387,1.417,53.257,0.827,0.69,266.613,63.947,92536.243,41.773,85.66
新疆,阿克苏地区,14.035,25.048,2.666,2.467,0.308,53.322,1.045,0.03,264.803,67.783,85749.082,40.965,81.578
新疆,阿勒泰地区,4.922,5.866,3.701,4.263,0.352,62.905,-4.654,1.742,262.349,47.102,89056.918,46.902,88.421
新疆,阿拉尔市,21.937,44.931,3.291,4.126,0.478,50.425,0.113,0.496,267.43,75.938,90879.612,40.629,80.998
江苏,南京市,46.342,72.283,15.35,46.843,0.733,40.102,-1.975,-2.917,272.126,47.936,102959.311,31.899,118.876
江苏,南通市,24.106,35.111,9.011,15.925,0.545,61.195,3.039,-5.736,272.655,52.307,103019.458,32.201,120.979
江苏,宿迁市,25.926,44.749,10.608,21.666,0.626,53.372,-1.879,-1.828,270.589,39.323,103071.381,33.765,118.495
江苏,常州市,47.722,71.115,13.854,45.179,0.795,41.977,-0.562,-4.564,272.563,47.66,102999.707,31.613,119.666
江苏,徐州市,44.366,71.287,14.877,31.571,0.707,45.139,-2.487,0.877,270.57,35.686,102771.709,34.363,117.513
江苏,扬州市,28.454,50.36,9.469,23.009,0.582,52.15,-0.49,-4.193,271.484,43.359,103110.624,32.709,119.486
江苏,无锡市,45.238,70.15,15.13,48.456,0.885,40.414,0.56,-5.019,272.762,47.058,102883.26,31.546,120.066
江苏,泰州市,30.159,50.717,10.239,21.584,0.645,53.582,0.557,-5.12,271.382,43.918,103050.793,32.605,120.048
江苏,淮安市,22.362,43.676,10.345,20.97,0.603,54.379,-1.082,-3.095,271.066,42.121,103059.432,33.362,118.985
江苏,盐城市,18.306,30.607,8.324,12.599,0.498,60.959,1.295,-5.262,270.962,47.144,103078.75,33.529,120.156
江苏,苏州市,37.492,57.771,13.443,44.083,0.774,45.52,1.701,-5.831,273.712,48.104,103013.572,31.374,120.661
江苏,连云港市,18.896,33.05,10.54,19.51,0.615,55.379,-0.603,-3.018,269.338,41.288,102931.687,34.519,119.133
江苏,镇江市,41.597,67.071,13.449,42.592,0.693,42.026,-0.791,-4.131,271.878,45.284,102986.845,32.016,119.49
江西,上饶市,41.088,67.041,16.547,24.519,0.702,49.478,-2.611,-2.246,275.327,37.249,100553.279,28.778,117.47
江西,九江市,46.93,75.836,15.608,32.547,0.761,49.531,-2.31,-1.863,275.696,44.109,100517.543,29.313,115.444
江西,南昌市,46.011,79.928,16.716,36.752,0.909,50.529,-1.937,-2.752,277.111,41.172,102515.665,28.671,116.016
江西,吉安市,49.939,76.805,16.762,23.024,0.82,55.463,-2.199,-3.417,275.814,39.936,100060.571,26.954,114.831
江西,宜春市,51.201,82.912,17.88,34.396,0.943,49.611,-2.392,-2.07,275.723,40.528,100464.129,28.29,114.974
江西,抚州市,42.746,64.699,14.487,20.256,0.674,57.341,-2.175,-3.784,275.659,35.445,100054.588,27.514,116.42
江西,新余市,55.856,89.532,21.792,36.725,1.042,48.392,-1.977,-2.67,276.143,39.913,101450.949,27.847,114.836
江西,景德镇市,41.427,69.204,15.763,27.502,0.641,47.018,-2.295,-2.448,275.692,37.965,101452.075,29.287,117.24
江西,萍乡市,56.983,88.83,19.474,31.316,0.996,50.942,-4.279,-1.434,275.762,38.756,99004.357,27.505,113.908
江西,赣州市,37.576,54.72,12.18,17.597,0.732,62.49,-1.957,-5.574,275.698,35.879,98213.746,25.692,115.279
江西,鹰潭市,43.58,67.568,16.867,23.298,0.705,53.615,-3.497,-2.565,275.765,34.979,101092.889,28.222,117.094
河北,保定市,66.55,96.655,30.134,46.33,1.347,37.456,1.587,1.183,267.667,30.384,98738.04,39.018,115.159
河北,唐山市,31.141,55.394,16.753,46.629,0.992,33.156,0.349,1.708,265.731,41.769,102261.348,39.731,118.354
河北,廊坊市,42.61,70.343,20.62,48.628,1.048,33.224,1.265,2.196,268.25,25.552,102824.163,39.267,116.632
河北,张家口市,11.158,16.041,6.861,8.915,0.462,61.872,5.169,-2.788,260.417,56.359,87799.583,40.877,115.042
河北,承德市,13.15,22.141,5.507,16.838,0.519,50.835,3.748,-0.694,259.804,53.237,91275.69,41.339,117.578
河北,沧州市,41.553,68.444,25.273,45.323,1.121,35.967,1.962,2.793,268.929,23.627,102898.068,38.258,116.744
河北,石家庄市,74.193,120.433,45.507,55.388,1.654,28.726,0.443,1.936,269.206,28.376,99322.976,38.135,114.407
河北,秦皇岛市,25.846,51.265,17.692,35.407,1.018,40.672,0.787,0.024,262.314,50.271,99776.669,40.12,119.193
河北,衡水市,45.407,76.31,23.984,40.706,1.259,37.354,0.812,4.539,269.61,23.662,102746.197,37.755,115.813
河北,邢台市,62.417,106.356,34.886,48.199,1.379,34.573,-0.05,4.487,270.361,26.949,101112.111,37.195,114.815
河北,邯郸市,64.39,107.416,34.947,49.053,1.413,35.667,0.123,4.327,270.608,28.236,100619.811,36.538,114.596
河南,三门峡市,53.324,84.979,28.727,38.025,1.065,47.652,1.403,1.042,270.798,43.554,92525.645,34.362,111.101
河南,信阳市,56.143,89.327,15.118,37.953,0.959,52.195,-2.488,1.347,274.282,46.013,101690.476,32.091,114.907
河南,南阳市,58.552,97.257,14.484,44.65,1.05,50.427,-1.285,1.02,274.194,44.855,99399.297,33.034,112.323
河南,周口市,82.691,133.524,19.367,48.911,1.119,42.196,-2.39,2.785,272.893,44.037,102476.513,33.738,114.884
河南,商丘市,63.646,104.078,18.504,42.68,0.948,40.546,-2.451,2.874,271.968,40.493,102585.144,34.277,115.718
河南,安阳市,58.42,96.61,27.852,50.45,1.368,38.0,0.239,3.722,270.932,29.498,100214.592,35.888,114.318
河南,平顶山市,74.047,118.931,20.078,55.599,1.134,39.919,-0.858,1.349,272.948,44.129,100086.387,33.8,113.025
河南,开封市,80.869,114.913,21.259,53.583,1.136,35.718,-1.3,2.97,272.398,33.717,102167.883,34.594,114.514
河南,新乡市,63.07,101.462,25.047,58.069,1.319,32.42,-0.011,2.659,271.437,30.599,101146.825,35.256,114.111
河南,洛阳市,53.849,89.499,24.968,43.779,1.149,43.726,0.917,0.511,271.222,42.311,95080.918,34.274,112.019
河南,济源市,64.006,103.716,37.32,50.024,1.414,35.919,-0.455,0.089,270.766,33.861,97039.232,35.105,112.445
河南,漯河市,82.068,140.225,21.282,55.383,1.169,43.137,-1.854,2.108,273.177,44.518,102280.965,33.652,113.945
河南,濮阳市,55.012,97.663,22.433,46.757,1.434,40.454,-1.181,4.362,271.161,29.397,102466.258,35.809,115.283
河南,焦作市,59.626,107.58,30.513,58.894,1.519,26.803,-1.012,0.036,271.886,31.518,100931.811,35.121,113.163
河南,许昌市,85.99,131.895,24.641,60.081,1.202,32.188,-1.471,1.543,272.558,39.796,101547.004,34.075,113.707
河南,郑州市,70.805,111.321,24.717,63.564,1.252,26.959,-0.56,2.286,271.877,36.172,100115.623,34.634,113.438
河南,驻马店市,62.264,110.814,16.582,47.192,1.049,48.084,-2.413,2.388,273.722,46.605,101967.001,32.925,114.174
河南,鹤壁市,58.271,96.126,24.069,55.293,1.387,35.102,0.649,3.973,271.098,28.609,101498.143,35.716,114.319
浙江,丽水市,36.649,53.646,13.774,20.988,0.599,55.357,-1.294,-3.714,271.942,41.216,95468.047,28.194,119.51
浙江,台州市,49.558,74.585,15.127,33.479,0.808,49.829,1.481,-5.902,274.352,44.468,100005.005,28.742,121.109
浙江,嘉兴市,53.45,76.595,13.38,54.743,0.868,37.699,1.893,-4.948,274.381,48.11,103007.413,30.635,120.754
浙江,宁波市,58.05,83.073,15.669,47.237,0.876,41.11,3.145,-5.569,274.824,51.263,101630.38,29.706,121.49
浙江,杭州市,44.321,68.356,13.196,33.782,0.776,46.841,-0.215,-3.447,272.844,53.707,99906.377,29.891,119.464
浙江,温州市,43.39,63.933,14.636,26.463,0.672,58.567,0.294,-5.714,274.6,36.986,98706.132,27.897,120.411
浙江,湖州市,49.843,71.897,13.016,44.261,0.813,42.758,0.96,-3.751,272.817,55.916,101676.77,30.757,119.871
浙江,绍兴市,59.074,88.144,13.554,47.777,0.895,39.679,1.517,-4.115,273.544,52.275,100778.737,29.709,120.64
浙江,舟山市,39.08,55.91,14.388,25.64,0.68,54.698,4.438,-7.172,276.32,53.207,102660.472,30.038,122.23
浙江,衢州市,37.906,59.524,15.489,26.506,0.686,47.129,-2.674,-2.413,273.758,41.106,99065.064,28.912,118.675
浙江,金华市,47.089,70.781,14.058,35.406,0.734,45.66,-0.264,-3.592,273.154,47.26,99339.448,29.109,119.967
海南,万宁市,35.731,42.156,8.139,6.664,0.431,73.784,-0.631,-7.573,286.184,60.362,100805.906,18.842,110.294
海南,三亚市,40.687,49.063,6.883,11.026,0.667,80.323,-2.396,-3.84,286.177,51.769,99499.617,18.413,109.407
海南,东方市,35.71,38.971,7.367,3.967,0.408,73.439,-3.958,-6.085,285.696,51.219,100218.949,18.971,108.838
海南,临高县,36.147,45.847,8.16,6.126,0.41,80.346,-3.874,-5.781,286.263,52.426,101515.55,19.821,109.733
海南,乐东黎族自治县,37.772,42.077,6.912,5.104,0.484,75.879,-3.486,-4.917,285.319,52.899,98582.563,18.659,109.072
海南,五指山市,39.76,44.838,7.356,4.97,0.464,76.716,-3.748,-6.836,282.36,64.954,95236.612,18.81,109.518
海南,儋州市,38.728,46.43,7.706,5.643,0.422,75.033,-4.068,-5.124,285.986,52.846,101150.404,19.568,109.399
海南,定安县,36.692,48.697,8.597,9.17,0.448,79.173,-1.96,-5.797,286.088,58.975,101155.413,19.47,110.28
海南,屯昌县,39.094,49.728,9.202,9.322,0.46,75.942,-1.346,-5.066,285.254,59.894,100342.968,19.342,110.076
海南,文昌市,30.112,39.842,8.421,6.212,0.398,84.13,-2.712,-7.548,287.151,60.157,101938.334,19.707,110.773
海南,昌江黎族自治县,37.558,41.904,7.5,4.222,0.41,75.176,-5.204,-5.647,284.712,56.221,99175.68,19.233,109.016
海南,海口市,33.536,45.462,8.866,7.903,0.418,86.261,-3.403,-6.445,286.714,57.075,101770.881,19.842,110.393
海南,澄迈县,37.059,49.07,9.347,8.946,0.44,79.914,-2.734,-5.569,286.12,55.307,101315.279,19.676,109.989
海南,琼中黎族苗族自治县,40.274,48.116,8.023,6.805,0.451,73.18,-1.446,-5.421,283.665,63.339,98046.311,19.087,109.847
海南,琼海市,32.838,41.412,8.273,7.353,0.432,78.458,-0.983,-6.002,286.77,58.13,101702.15,19.22,110.43
海南,白沙黎族自治县,39.855,46.102,7.676,5.346,0.434,74.388,-3.6,-4.659,283.535,60.611,97762.79,19.2,109.388
海南,陵水黎族自治县,37.83,43.284,7.55,8.28,0.53,76.293,-2.711,-7.724,285.973,56.503,100080.729,18.581,109.913
湖北,仙桃市,56.584,90.196,12.85,48.306,0.98,41.814,-3.289,-0.199,276.9,40.896,102725.613,30.284,113.417
湖北,十堰市,36.557,55.298,13.723,19.229,0.714,59.328,-1.047,0.073,274.081,43.154,94184.86,32.462,110.476
湖北,咸宁市,48.37,76.691,11.46,33.212,0.795,50.372,-2.652,-0.41,276.364,39.698,100722.11,29.621,114.178
湖北,天门市,63.455,95.982,16.419,55.638,1.189,42.762,-3.088,0.974,276.709,40.157,102670.74,30.633,113.053
湖北,孝感市,55.959,88.103,13.756,50.503,1.089,41.247,-2.296,0.995,275.969,40.868,102051.532,31.116,113.869
湖北,宜昌市,51.486,71.329,12.592,29.165,0.822,57.026,-0.432,2.056,274.572,43.42,95099.029,30.746,111.129
湖北,恩施土家族苗族自治州,55.512,75.56,12.358,15.451,0.821,53.256,0.383,1.856,272.777,57.778,90294.439,30.195,109.552
湖北,武汉市,60.74,93.171,14.147,57.412,1.045,37.298,-2.678,-0.049,276.558,42.25,102631.372,30.606,114.349
湖北,潜江市,64.176,100.433,16.084,56.024,1.221,43.827,-2.94,0.954,277.107,38.747,102666.34,30.33,112.77
湖北,神农架林区,28.518,36.719,9.222,5.798,0.43,64.702,2.621,0.377,269.557,48.018,83295.098,31.592,110.49
湖北,荆州市,53.752,88.146,14.367,44.949,1.047,51.157,-1.74,0.972,277.567,37.75,102402.133,30.01,112.512
湖北,荆门市,60.166,87.841,18.311,49.299,1.085,51.244,-1.96,2.578,276.588,38.698,101557.588,31.059,112.616
湖北,襄阳市,49.272,73.132,16.015,30.664,0.828,59.448,-0.773,3.247,275.46,41.047,98591.796,31.919,111.96
湖北,鄂州市,58.323,86.896,16.291,48.186,1.026,43.583,-3.03,0.156,276.413,43.239,102688.667,30.337,114.794
湖北,随州市,52.7,85.527,15.051,37.95,1.039,51.857,-1.812,2.694,275.422,39.842,100820.38,31.809,113.43
湖北,黄冈市,51.628,76.432,13.791,35.14,0.851,51.105,-2.698,-0.129,275.012,41.131,100834.944,30.702,115.358
湖北,黄石市,53.019,81.073,15.924,38.355,0.907,47.783,-2.954,-0.146,276.111,46.484,101636.618,29.925,115.034
湖南,娄底市,44.097,87.212,16.648,35.52,1.129,52.934,-2.444,-1.34,275.808,34.797,98392.901,27.715,111.632
湖南,岳阳市,49.646,82.803,12.542,34.098,0.766,51.194,-2.673,0.016,277.297,33.384,101456.892,29.081,113.275
湖南,常德市,44.286,76.354,13.341,27.909,0.89,58.991,-0.227,1.094,276.638,38.449,100602.454,29.271,111.524
湖南,张家界市,41.329,70.78,12.092,15.811,0.674,60.64,-0.27,0.663,274.752,44.474,96416.754,29.379,110.526
湖南,怀化市,55.344,100.069,14.987,26.414,0.954,48.13,-3.09,-0.71,276.884,31.864,97377.358,27.535,110.071
湖南,株洲市,54.703,83.418,17.667,31.254,0.913,52.069,-4.474,-1.754,276.354,37.09,99116.553,27.109,113.513
湖南,永州市,51.343,73.56,17.787,28.523,0.724,59.192,-3.334,-3.875,276.345,37.236,97598.652,25.748,111.723
湖南,湘潭市,45.92,87.114,17.844,50.863,1.133,44.162,-1.891,-2.09,276.916,39.332,101570.497,27.744,112.619
湖南,湘西土家族苗族自治州,51.726,91.028,12.081,20.359,0.835,45.852,-2.22,0.274,275.54,41.782,96328.104,28.708,109.718
湖南,益阳市,40.299,80.835,13.843,30.048,1.037,57.386,-1.824,0.284,276.58,35.641,100076.564,28.525,111.919
湖南,衡阳市,55.982,84.453,18.148,41.153,0.976,49.303,-1.998,-3.227,277.402,38.23,101015.863,26.781,112.565
湖南,邵阳市,63.535,92.165,17.895,30.474,0.857,55.191,-3.403,-1.706,275.314,34.268,96009.088,26.893,110.881
湖南,郴州市,46.509,68.238,15.789,27.293,0.931,55.949,-2.108,-3.954,275.964,35.399,96693.358,25.769,113.109
湖南,长沙市,51.521,87.472,15.319,43.59,1.028,46.232,-2.913,-0.655,276.575,36.592,100948.122,28.235,113.159
甘肃,临夏回族自治州,55.422,104.039,18.669,40.766,1.644,56.815,-0.662,-0.779,266.964,47.412,77501.999,35.617,103.291
甘肃,兰州市,47.62,81.323,19.367,34.391,1.18,52.963,-1.216,-0.585,266.557,47.048,79225.98,36.359,103.633
甘肃,嘉峪关市,37.815,125.697,16.697,31.822,0.67,67.645,0.408,-0.878,264.9,35.748,81939.907,39.798,98.145
甘肃,天水市,71.67,114.355,17.722,30.001,1.317,58.559,0.61,-0.69,268.319,66.302,82964.508,34.645,105.739
甘肃,定西市,58.75,93.047,13.615,23.096,1.258,56.792,0.363,-0.933,266.051,55.825,77277.378,35.124,104.432
甘肃,平凉市,51.541,92.555,15.45,31.695,1.145,57.076,1.236,-2.012,267.646,58.779,84892.989,35.304,106.644
甘肃,庆阳市,38.486,61.383,16.649,22.446,0.801,57.284,2.856,-2.556,266.6,51.74,86209.329,36.149,107.596
甘肃,张掖市,14.269,31.934,3.787,6.254,0.32,61.738,3.65,-1.542,262.903,38.555,74628.616,38.94,99.855
甘肃,武威市,29.768,49.546,6.002,8.676,0.715,55.306,2.643,-2.259,264.813,46.517,81706.267,38.163,103.073
甘肃,甘南藏族自治州,4.928,7.904,1.317,3.029,0.22,63.948,4.132,-2.578,265.081,38.75,67304.598,34.331,102.768
甘肃,白银市,44.135,75.061,18.145,25.351,0.947,49.585,1.202,-2.552,266.047,50.422,81750.846,36.59,104.646
甘肃,酒泉市,4.263,9.502,1.512,2.023,0.172,59.597,0.056,0.176,263.746,34.506,79289.0,40.236,96.062
甘肃,金昌市,29.408,59.018,6.021,10.84,0.599,58.633,2.898,-2.157,265.409,45.308,80850.865,38.44,102.048
甘肃,陇南市,51.152,75.043,15.783,21.31,0.786,49.934,-0.18,0.827,269.808,73.172,82454.186,33.599,105.224
福建,三明市,29.077,41.435,10.646,17.495,0.509,64.053,-2.254,-3.672,274.74,33.702,96032.06,26.29,117.395
福建,南平市,30.829,44.54,12.675,13.818,0.541,62.6,-1.576,-3.363,274.836,31.796,96886.449,27.324,118.143
福建,厦门市,30.602,49.052,11.998,22.977,0.552,67.452,-5.153,-9.47,280.447,38.672,101338.333,24.642,118.11
福建,宁德市,35.001,46.891,12.421,14.342,0.532,71.546,-1.784,-4.399,274.798,33.418,96142.651,26.968,119.474
福建,泉州市,27.86,41.866,10.259,17.913,0.527,73.172,-3.41,-6.784,277.374,38.028,97414.971,25.201,118.249
福建,漳州市,32.393,49.183,10.583,20.404,0.524,69.559,-4.065,-6.371,279.33,38.724,99045.94,24.372,117.444
福建,福州市,31.367,42.864,10.937,16.968,0.549,77.823,-3.114,-5.998,277.062,39.622,98316.405,26.083,119.206
福建,莆田市,28.82,40.673,10.681,17.012,0.554,80.531,-3.717,-8.328,278.174,41.531,99050.243,25.445,118.864
福建,龙岩市,28.516,41.423,10.14,16.168,0.48,66.968,-2.409,-4.677,276.232,32.645,95928.429,25.256,116.739
西藏,山南市,14.524,17.257,1.09,1.43,0.184,84.248,8.41,-2.597,274.552,51.995,66172.428,28.295,92.274
西藏,拉萨市,4.646,8.4,0.028,1.366,0.158,82.743,13.296,-1.784,269.436,38.911,56470.329,30.043,91.093
西藏,日喀则市,1.487,2.319,0.134,0.289,0.112,79.968,13.591,0.062,265.629,54.778,55328.408,29.483,86.493
西藏,昌都市,1.743,2.374,0.087,0.425,0.119,74.586,10.263,-1.706,269.334,44.477,58760.596,30.753,97.044
西藏,林芝市,11.296,12.433,0.966,1.418,0.144,78.015,3.516,0.052,272.407,65.233,66317.101,29.184,95.25
西藏,玉树藏族自治州,0.601,0.697,0.042,0.214,0.115,71.55,11.072,-2.785,263.668,45.11,56855.947,34.196,94.317
西藏,那曲市,0.421,0.762,0.04,0.122,0.111,76.377,14.039,-0.858,263.649,52.426,55152.053,32.709,89.262
西藏,阿里地区,0.941,1.471,0.117,0.289,0.113,76.223,16.302,3.413,259.153,55.487,54466.107,33.013,82.553
贵州,六盘水市,59.375,91.905,16.516,18.408,0.752,51.265,-0.885,4.988,273.714,60.157,83385.37,26.106,104.896
贵州,安顺市,52.685,82.582,16.647,19.419,0.589,50.272,-2.033,4.05,275.605,43.669,88745.095,25.986,105.978
贵州,毕节市,57.688,90.212,21.478,25.271,0.753,47.942,-0.658,4.561,274.271,59.653,83722.153,27.063,105.211
贵州,贵阳市,56.372,95.1,33.685,44.554,0.838,35.992,-1.568,4.772,275.52,44.109,88784.949,26.845,106.71
贵州,遵义市,56.337,82.266,19.646,22.138,0.796,37.699,-3.583,3.821,275.649,49.03,91091.571,28.167,107.102
贵州,铜仁市,53.826,110.335,16.623,23.028,1.162,35.367,-2.851,1.781,275.799,41.441,93649.92,27.937,108.534
贵州,黔东南苗族侗族自治州,55.194,90.195,18.4,24.269,0.802,41.74,-2.951,-0.434,275.997,35.865,93524.615,26.495,108.574
贵州,黔南布依族苗族自治州,53.841,78.575,18.442,23.48,0.609,43.827,-2.473,1.714,275.869,40.26,91096.52,26.0,107.265
贵州,黔西南布依族苗族自治州,45.949,85.64,11.984,13.899,0.746,45.913,-1.519,3.525,276.49,41.75,89139.769,25.256,105.467
辽宁,丹东市,29.586,39.99,12.201,19.269,0.699,48.944,0.805,-5.282,257.301,56.667,99547.752,40.554,124.376
辽宁,大连市,23.818,35.092,15.144,22.102,0.616,45.088,1.943,-4.096,260.125,43.404,102117.834,39.591,122.22
辽宁,抚顺市,45.922,58.099,11.922,23.25,0.842,44.869,-0.176,-2.861,253.932,71.314,97690.609,41.841,124.65
辽宁,朝阳市,23.976,41.143,25.648,19.883,1.021,43.99,0.329,-0.457,258.984,43.757,97226.274,41.545,120.053
辽宁,本溪市,39.286,52.887,15.34,24.009,0.862,45.266,0.71,-4.361,254.39,68.228,96933.488,41.232,124.544
辽宁,沈阳市,42.278,57.681,15.925,27.585,0.699,39.761,-1.054,-2.165,257.454,48.322,102364.831,42.081,123.159
辽宁,盘锦市,30.533,46.666,25.119,31.124,0.797,37.608,0.303,-2.497,259.547,37.702,103074.568,41.13,122.01
辽宁,营口市,34.122,51.116,21.35,31.863,0.882,37.976,1.258,-3.481,258.291,45.566,100583.464,40.395,122.478
辽宁,葫芦岛市,26.781,47.466,26.35,24.236,1.068,44.251,0.419,-0.822,260.064,41.311,100282.079,40.66,120.215
辽宁,辽阳市,49.494,71.52,30.266,40.638,1.242,31.165,0.157,-2.594,257.494,53.267,100813.764,41.153,123.261
辽宁,铁岭市,54.001,69.323,10.254,25.437,0.882,43.053,-0.97,-2.247,254.94,64.99,100631.52,42.653,124.158
辽宁,锦州市,25.397,38.428,22.831,21.73,0.672,42.66,0.367,-2.28,259.096,37.652,102167.953,41.502,121.659
辽宁,阜新市,17.792,25.775,10.462,11.834,0.433,44.735,0.059,-2.093,257.483,39.879,100527.681,42.289,121.968
辽宁,鞍山市,37.392,55.183,24.256,34.512,1.046,35.266,1.053,-3.687,258.358,45.668,100868.587,40.731,123.007
重庆,重庆城区,67.856,92.659,14.167,27.595,0.891,41.691,-2.786,1.231,278.562,44.998,95835.973,29.824,107.125
重庆,重庆郊县,54.751,75.18,15.5,14.201,0.789,51.496,-0.953,1.244,274.979,47.484,91889.258,30.334,108.755
陕西,咸阳市,81.547,127.814,21.98,50.82,1.471,52.927,1.247,-2.347,270.631,48.654,92197.005,34.779,108.367
陕西,商洛市,39.764,56.952,11.998,21.043,0.726,57.562,0.859,0.561,271.273,47.254,89963.159,33.64,109.889
陕西,安康市,44.087,58.146,10.242,14.076,0.694,63.568,0.717,-0.099,273.303,48.52,90542.506,32.735,108.932
陕西,宝鸡市,59.608,86.152,12.587,29.672,0.899,59.092,0.883,-0.442,270.158,60.79,86824.978,34.386,107.193
陕西,延安市,30.436,48.23,27.73,29.476,1.047,46.927,2.835,-1.978,268.014,43.836,87996.8,36.432,109.316
陕西,榆林市,27.542,47.512,28.859,33.913,1.09,38.12,3.081,-2.237,266.103,42.884,88353.108,38.041,109.581
陕西,汉中市,59.22,76.997,13.193,17.974,0.867,52.256,0.92,0.403,273.266,58.431,89557.223,33.088,107.098
陕西,渭南市,76.645,124.6,50.236,57.954,1.469,40.003,1.864,0.095,272.572,43.279,94638.26,34.919,109.855
陕西,西安市,71.734,103.903,16.455,52.466,1.195,45.864,1.816,0.204,271.692,52.678,91226.235,34.12,108.77
陕西,铜川市,50.807,79.864,23.906,33.707,1.109,55.218,2.202,-2.442,270.211,39.946,89725.63,35.198,109.058
青海,保亭黎族苗族自治县,40.342,47.206,7.22,9.87,0.608,78.992,-3.004,-5.578,284.842,57.066,97833.232,18.566,109.618
青海,吐鲁番市,16.013,28.106,4.3,5.665,0.454,54.629,0.356,0.664,265.12,51.246,91064.309,42.386,89.851
青海,果洛藏族自治州,0.568,0.805,0.102,0.666,0.116,66.315,4.439,-1.824,261.741,42.971,59514.252,34.127,99.404
青海,海东市,32.222,47.411,13.897,17.479,0.793,54.487,1.124,-0.737,265.846,42.08,72574.587,36.347,102.34
青海,海北藏族自治州,1.309,1.809,0.546,0.819,0.144,70.574,5.664,-3.698,260.757,31.466,64872.946,37.775,100.288
青海,海南藏族自治州,0.861,1.024,0.301,0.611,0.12,64.714,5.47,-1.953,264.565,26.583,66140.497,35.89,100.272
青海,海西蒙古族藏族自治州,0.683,0.816,0.302,0.384,0.12,65.707,4.808,-0.88,263.176,30.75,64169.298,36.677,94.519
青海,西宁市,18.431,31.621,6.281,8.445,0.641,64.619,4.04,-2.243,264.679,33.904,69242.215,36.842,101.423
青海,黄南藏族自治州,2.299,2.614,0.753,1.242,0.138,63.947,4.748,-2.795,264.025,30.405,65452.237,35.022,101.631
香港,香港特别行政区,33.205,46.455,10.72,28.76,0.55,80.785,-4.575,-8.685,282.87,38.53,101843.44,22.45,114.22
黑龙江,七台河市,22.917,35.222,5.865,10.173,0.417,50.309,6.302,-2.703,251.095,74.583,99031.767,45.87,130.943
黑龙江,伊春市,5.268,6.237,3.269,5.337,0.261,52.425,2.665,-3.187,249.688,72.603,97557.814,47.772,129.184
黑龙江,佳木斯市,11.682,15.337,4.156,6.495,0.329,51.045,3.582,-2.399,251.392,75.146,101163.631,47.207,132.11
黑龙江,双鸭山市,13.817,16.804,5.464,8.225,0.34,49.011,4.649,-2.916,250.528,76.485,100638.39,46.722,132.643
黑龙江,哈尔滨市,42.363,47.905,9.895,21.528,0.818,48.894,2.736,-0.313,248.977,73.727,99668.818,45.634,127.964
黑龙江,大兴安岭地区,1.617,2.552,2.342,2.329,0.214,51.771,3.371,-1.12,248.192,72.416,95640.986,52.286,124.212
黑龙江,大庆市,47.312,51.684,11.707,21.523,0.795,47.86,0.532,-1.214,250.154,70.146,101268.594,46.327,124.687
黑龙江,牡丹江市,17.843,26.785,4.526,7.029,0.439,54.907,4.179,-3.858,251.656,67.546,95923.341,44.592,129.883
黑龙江,绥化市,32.115,32.833,5.51,14.085,0.669,49.873,1.211,-2.402,247.601,74.528,100306.993,46.89,126.634
黑龙江,鸡西市,14.946,19.804,5.28,9.216,0.327,46.758,4.909,-4.849,252.191,73.507,100296.706,45.626,132.289
黑龙江,鹤岗市,5.095,6.312,2.588,4.309,0.279,52.993,4.073,-4.72,251.268,67.913,100148.879,47.661,130.778
黑龙江,黑河市,5.486,7.375,2.732,4.098,0.3,54.918,1.441,-2.299,248.17,73.339,98113.737,49.268,127.004
黑龙江,齐齐哈尔市,42.791,49.177,8.862,12.689,0.736,47.968,0.391,-2.136,247.476,69.849,100354.64,47.715,124.57
