province,city,PM2.5,PM10,SO2,NO2,CO,O3,U,V,TEMP,RH,PSFC,lat,lon
上海,上海市,123.229,142.858,24.682,78.2,1.536,38.415,1.666,-6.164,276.088,60.318,102853.908,31.173,121.42
云南,临沧市,33.521,38.85,8.327,8.808,0.731,66.992,-0.319,3.738,281.738,71.797,83990.277,23.935,99.686
云南,丽江市,34.037,52.863,10.925,8.437,1.056,66.46,6.672,2.712,277.576,62.995,74345.762,26.96,100.515
云南,保山市,36.76,56.06,9.343,18.801,0.81,57.904,0.812,1.672,281.045,67.538,81887.789,24.953,98.962
云南,大理白族自治州,35.153,57.661,8.57,9.825,0.93,64.177,4.716,3.449,278.293,71.544,78000.179,25.726,100.053
云南,德宏傣族景颇族自治州,38.287,49.19,8.792,20.048,0.762,60.101,-1.482,1.1,284.104,62.423,86144.04,24.535,98.052
云南,怒江傈僳族自治州,24.769,44.123,4.264,6.189,0.56,66.027,3.374,2.046,274.996,79.766,72591.636,26.916,98.885
云南,文山壮族苗族自治州,48.888,62.535,13.45,6.638,0.934,60.371,0.016,1.69,277.025,63.873,86853.88,23.696,104.735
云南,昆明市,41.726,58.635,13.291,18.617,1.048,54.219,4.304,5.459,275.858,73.034,79156.093,25.384,102.863
云南,昭通市,56.737,82.144,14.957,15.917,0.966,50.14,-0.227,-0.387,273.616,54.902,84200.697,27.667,103.985
云南,普洱市,25.332,39.564,10.939,3.76,0.669,63.719,-1.879,3.348,280.156,81.059,86196.265,23.159,100.718
云南,曲靖市,41.421,55.362,12.501,13.102,0.836,58.292,4.018,5.006,275.452,66.815,79943.276,25.737,103.929
云南,楚雄彝族自治州,35.473,48.174,11.983,9.406,0.97,59.341,3.758,6.159,278.451,70.042,80939.788,25.328,101.567
云南,玉溪市,36.836,54.828,12.833,8.862,0.86,58.489,0.594,4.661,278.052,73.51,83612.083,24.136,102.217
云南,红河哈尼族彝族自治州,41.63,55.805,12.934,5.9,0.737,61.531,-1.044,2.994,277.559,75.871,85409.057,23.451,103.034
云南,西双版纳傣族自治州,22.017,38.9,11.263,4.575,0.675,55.88,-3.346,0.91,281.49,79.639,89295.564,21.939,100.912
云南,迪庆藏族自治州,11.933,23.426,2.024,1.926,0.403,71.062,8.077,2.339,272.566,72.44,66902.006,27.957,99.459
内蒙古,乌兰察布市,9.652,21.282,4.35,5.467,0.442,51.363,5.003,-3.999,256.152,68.837,86299.527,41.691,112.44
内蒙古,乌海市,26.021,83.221,24.352,22.935,0.575,62.554,4.11,-4.809,261.55,56.365,88445.418,39.396,106.856
内蒙古,兴安盟,5.861,7.815,3.952,3.051,0.279,40.553,4.791,-3.898,254.557,59.422,95481.317,46.244,121.341
内蒙古,包头市,7.022,18.975,2.488,3.91,0.309,53.491,2.905,-5.062,255.968,67.061,86407.32,41.549,110.276
内蒙古,呼伦贝尔市,8.525,9.077,6.268,6.413,0.288,40.258,2.313,-2.395,248.33,74.043,94160.91,49.636,121.171
内蒙古,呼和浩特市,31.609,91.407,15.65,24.531,0.982,46.988,2.394,-4.187,258.485,59.524,86678.922,40.578,111.513
内蒙古,巴彦淖尔市,3.764,8.089,1.989,1.837,0.237,52.966,0.435,-5.473,257.524,60.416,88108.692,41.446,107.582
内蒙古,赤峰市,9.593,17.051,7.11,4.84,0.373,43.944,3.142,-4.046,257.836,62.775,92485.598,43.226,118.892
内蒙古,通辽市,16.961,23.343,9.643,8.294,0.446,40.267,2.741,-3.229,259.579,54.53,98907.959,43.814,121.591
内蒙古,鄂尔多斯市,14.332,39.619,11.187,13.244,0.42,54.623,3.41,-4.125,260.905,55.442,87623.219,39.407,108.63
内蒙古,锡林郭勒盟,2.26,3.569,1.879,1.352,0.221,48.417,3.308,-3.65,253.595,75.665,89548.046,44.179,115.482
内蒙古,阿拉善盟,3.095,6.211,1.303,0.98,0.192,56.033,1.676,-3.96,260.552,55.081,88539.816,40.473,102.467
北京,北京市,24.777,58.164,8.643,28.137,0.659,40.727,1.869,-4.054,268.495,36.361,98778.218,40.158,116.395
台湾,台湾省,39.314,48.393,8.835,17.333,0.43,47.488,-0.637,-4.919,284.056,87.526,93292.829,23.757,120.975
吉林,吉林市,38.861,48.778,15.172,23.281,0.929,52.278,-0.78,3.24,258.427,70.09,98128.342,43.573,126.859
吉林,四平市,49.77,66.616,26.013,33.458,1.042,38.497,0.772,1.312,259.503,64.967,100529.43,43.472,124.386
吉林,延边朝鲜族自治州,27.91,33.447,9.817,15.019,0.554,46.278,1.467,0.357,257.764,63.794,94968.358,43.141,129.147
吉林,松原市,33.978,45.159,13.046,18.824,0.751,40.372,1.996,1.443,257.195,68.178,100927.978,44.785,124.496
吉林,白城市,18.436,24.475,6.458,9.875,0.488,39.176,2.009,-2.841,257.619,59.727,101059.899,45.35,123.031
吉林,白山市,23.971,29.657,15.991,21.453,0.869,47.458,-0.172,2.583,258.328,64.246,92858.077,42.063,127.256
吉林,辽源市,53.938,62.32,19.218,35.409,1.195,40.662,-0.227,3.45,260.458,67.256,98476.583,42.836,125.32
吉林,通化市,41.271,53.11,20.185,31.545,1.192,37.868,-0.431,2.334,260.08,67.058,96572.947,41.939,125.927
吉林,长春市,53.497,66.996,26.289,35.974,1.107,48.174,0.966,2.788,257.866,72.774,100452.933,44.268,125.611
四川,乐山市,58.399,84.392,12.028,28.511,0.781,39.91,-0.822,-2.076,273.754,43.368,90060.064,29.218,103.569
四川,内江市,72.328,116.471,15.067,42.423,1.004,25.981,-2.785,-2.635,278.731,32.709,97488.037,29.62,104.95
四川,凉山彝族自治州,30.693,44.022,10.847,11.767,0.872,62.873,5.038,3.261,275.53,55.509,73799.083,27.883,102.065
四川,南充市,61.203,110.091,11.311,48.044,0.867,39.448,-2.52,-2.413,277.096,36.946,97608.939,31.19,106.199
四川,宜宾市,79.536,113.142,16.315,34.455,0.993,28.678,0.274,-2.586,277.839,39.87,95718.948,28.573,104.621
四川,巴中市,44.558,72.731,6.73,27.331,0.718,52.511,-2.623,-1.413,274.209,34.392,93146.446,32.033,107.031
四川,广元市,40.848,79.802,9.919,29.853,0.727,44.203,-0.793,-1.301,273.545,34.063,92226.24,32.261,105.788
四川,广安市,66.212,112.628,14.782,43.367,0.89,37.297,-2.728,-1.807,278.404,34.479,97573.773,30.43,106.628
四川,德阳市,55.792,112.346,8.055,41.208,0.727,38.504,-1.789,-1.216,274.968,35.221,93851.411,31.13,104.436
四川,成都市,53.093,100.308,9.117,42.399,0.726,39.06,-1.679,-1.797,275.486,35.467,93996.011,30.64,103.929
四川,攀枝花市,51.935,79.421,44.128,35.65,1.997,47.871,2.542,5.614,280.751,55.238,81289.012,26.791,101.734
四川,泸州市,62.263,86.069,14.752,27.693,0.847,33.017,-1.527,0.573,277.948,45.932,93976.798,28.424,105.675
四川,甘孜藏族自治州,3.971,5.42,0.494,1.144,0.155,73.978,8.077,-1.031,268.878,42.459,60569.501,30.936,100.009
四川,眉山市,56.611,96.324,10.171,38.707,0.792,37.193,-1.47,-2.042,276.067,37.249,94452.423,29.912,103.766
四川,绵阳市,49.232,88.322,7.928,29.98,0.639,45.104,-0.983,-0.785,271.857,40.724,88411.114,31.86,104.704
四川,自贡市,84.772,122.179,16.815,43.754,1.007,23.15,-2.004,-3.006,278.827,34.11,97447.405,29.307,104.659
四川,资阳市,55.144,108.984,10.154,36.832,0.869,35.899,-2.664,-2.33,278.227,32.848,97782.985,30.102,105.149
四川,达州市,60.474,89.548,12.879,39.892,0.895,52.092,-2.966,-1.614,275.742,37.663,94794.844,31.335,107.636
四川,遂宁市,56.872,111.208,10.001,42.714,0.83,38.271,-2.772,-2.328,277.878,34.48,98059.188,30.642,105.457
四川,阿坝藏族羌族自治州,8.622,16.033,1.354,3.933,0.268,68.242,3.099,-0.667,266.443,45.594,64887.384,32.406,102.61
四川,雅安市,42.922,61.214,8.738,16.828,0.566,61.443,-1.39,-0.777,269.335,56.749,80051.789,29.932,102.689
天津,天津市,51.387,108.0,18.675,63.938,1.178,26.54,0.301,-0.681,270.383,35.693,102708.036,39.315,117.308
宁夏,中卫市,18.17,55.049,8.204,11.725,0.484,58.653,4.179,-4.159,262.518,53.834,84099.499,37.018,105.509
宁夏,吴忠市,17.444,55.116,11.758,11.252,0.401,57.982,5.949,-3.732,262.479,56.626,85689.4,37.454,106.577
宁夏,固原市,33.294,77.26,13.746,25.563,0.881,53.407,2.698,-4.589,262.394,49.833,81239.37,35.905,106.183
宁夏,石嘴山市,29.023,94.746,31.133,21.179,0.561,62.673,4.492,-5.059,262.074,52.234,87441.836,39.013,106.499
宁夏,银川市,31.898,106.519,33.304,22.896,0.676,57.733,4.199,-2.914,263.291,48.287,87783.57,38.287,106.342
安徽,亳州市,67.771,124.826,17.826,53.004,0.954,44.153,2.467,1.982,272.322,58.561,102684.665,33.44,116.162
安徽,六安市,65.997,99.455,17.47,41.88,0.796,59.476,1.046,-0.001,271.705,60.174,100085.589,31.617,116.209
安徽,合肥市,97.672,120.132,16.988,74.084,1.246,46.619,1.425,-0.46,272.282,75.502,102621.54,31.766,117.359
安徽,安庆市,93.355,107.932,16.788,43.138,0.875,55.465,-1.308,-2.752,272.557,58.076,100539.658,30.557,116.473
安徽,宣城市,110.116,136.603,18.822,41.881,1.25,64.835,0.158,-1.425,271.028,76.862,100453.229,30.676,118.846
安徽,宿州市,106.62,161.192,25.897,63.544,1.187,34.612,2.496,1.618,272.981,52.836,102606.5,33.844,117.23
安徽,池州市,95.998,127.325,17.183,45.812,1.119,59.024,-2.452,-2.379,272.041,68.809,100699.468,30.296,117.379
安徽,淮北市,85.648,148.299,27.165,62.885,1.108,37.489,2.351,1.794,272.758,53.768,102668.048,33.722,116.747
安徽,淮南市,75.437,117.303,17.94,54.416,0.863,49.665,1.701,0.216,272.676,72.286,102782.53,32.463,116.746
安徽,滁州市,105.31,156.976,19.216,80.169,1.222,44.807,2.028,-0.208,272.631,75.436,102474.884,32.55,118.076
安徽,芜湖市,146.057,159.33,22.934,78.536,1.568,48.95,0.84,-1.036,272.054,80.114,102804.865,31.167,118.162
安徽,蚌埠市,93.793,152.079,23.295,64.928,1.081,41.348,2.308,0.955,272.368,68.268,102733.162,33.121,117.263
安徽,铜陵市,133.592,155.708,22.384,69.314,1.439,52.048,-0.536,-1.69,272.306,74.794,102653.8,30.883,117.531
安徽,阜阳市,60.753,107.998,15.727,47.876,0.926,45.576,2.223,1.19,271.722,62.377,102693.071,32.937,115.723
安徽,马鞍山市,150.439,161.143,21.67,91.692,1.55,40.69,1.567,-1.629,272.531,75.142,102795.072,31.622,118.386
安徽,黄山市,70.99,96.141,14.212,21.457,0.935,59.62,-2.774,-2.789,271.252,64.53,98291.85,29.869,118.09
山东,东营市,54.325,102.945,38.326,54.845,1.239,27.414,0.242,2.033,271.355,37.58,102790.598,37.57,118.572
山东,临沂市,107.869,166.549,37.338,64.547,1.775,28.169,1.608,1.121,272.248,45.745,100980.046,35.289,118.27
山东,威海市,25.832,50.958,10.208,25.107,0.869,50.312,1.051,-1.289,271.659,59.875,102176.517,37.148,122.028
山东,德州市,62.09,121.146,33.695,63.706,1.352,27.792,1.517,1.341,272.468,25.47,102653.993,37.233,116.679
山东,日照市,85.031,132.049,30.498,63.695,1.531,29.373,1.067,0.74,272.166,41.537,101089.197,35.566,119.108
山东,枣庄市,103.169,180.082,34.823,57.853,1.438,25.128,1.564,1.695,272.934,44.936,101768.017,34.925,117.383
山东,泰安市,76.815,125.22,34.224,61.114,1.483,28.968,0.392,1.791,272.148,37.961,100828.878,35.993,117.04
山东,济南市,58.415,119.445,37.226,63.21,1.36,28.277,1.638,2.354,272.509,28.981,100775.245,36.639,117.254
山东,济宁市,79.613,139.918,30.449,56.982,1.347,29.258,1.215,2.594,273.073,37.695,102209.052,35.375,116.697
山东,淄博市,70.226,125.029,46.319,63.529,1.727,27.501,2.427,2.296,272.083,31.707,100124.308,36.623,118.062
山东,滨州市,66.717,117.863,42.042,65.801,1.522,26.283,0.946,1.526,271.961,33.367,102728.514,37.516,117.852
山东,潍坊市,62.604,107.973,30.565,55.446,1.343,29.856,1.006,2.394,271.786,40.947,101673.314,36.53,119.092
山东,烟台市,37.28,72.947,17.848,38.501,1.356,36.262,0.97,1.351,271.04,50.464,101648.904,37.25,120.789
山东,聊城市,65.948,129.596,30.42,60.075,1.335,30.728,0.571,1.499,272.908,25.971,102443.009,36.458,115.863
山东,菏泽市,72.044,143.343,22.805,55.527,1.279,31.608,2.216,2.815,273.347,34.354,102359.806,35.134,115.69
山东,青岛市,40.888,81.883,22.056,50.842,1.24,32.414,-0.297,1.101,271.47,52.874,102289.273,36.46,120.172
山西,临汾市,48.109,86.993,55.993,28.793,1.339,42.631,2.919,-1.995,266.709,51.886,90693.656,36.227,111.398
山西,吕梁市,42.272,82.391,40.237,24.18,1.194,42.702,3.718,-2.184,264.018,51.526,88145.763,37.663,111.27
山西,大同市,30.658,71.548,20.443,21.444,0.947,44.088,4.399,-3.933,261.129,53.374,87536.101,39.911,113.713
山西,太原市,40.139,88.81,41.325,30.61,0.999,43.022,4.996,-2.92,264.142,45.579,87942.041,37.967,112.321
山西,忻州市,30.81,73.378,23.659,23.453,0.722,47.264,4.176,-3.076,261.484,56.551,86360.964,38.877,112.391
山西,晋中市,45.362,99.107,64.302,39.341,1.247,37.121,4.512,-1.737,265.419,39.219,88917.181,37.328,112.997
山西,晋城市,53.561,110.14,50.821,34.898,1.632,46.912,3.387,-4.026,267.994,38.793,91016.504,35.625,112.752
山西,朔州市,36.557,102.186,33.151,31.576,0.98,44.074,4.63,-2.654,260.708,59.612,86882.542,39.619,112.655
山西,运城市,74.843,130.868,75.272,46.043,1.795,33.354,3.151,-1.343,270.047,51.045,95159.824,35.205,111.071
山西,长治市,40.452,86.825,49.713,36.941,1.267,41.584,4.209,-2.053,266.537,39.084,89234.296,36.48,112.915
山西,阳泉市,35.154,76.592,40.589,33.639,0.802,41.045,6.215,-2.93,266.171,37.821,90876.985,38.031,113.512
广东,东莞市,44.711,58.277,10.542,29.726,0.804,71.497,-3.227,-6.478,281.218,50.599,102065.454,22.931,113.81
广东,中山市,51.619,66.69,11.386,39.657,0.809,61.271,-2.054,-7.609,281.98,52.997,102053.188,22.5,113.383
广东,云浮市,52.749,66.826,12.317,21.081,0.688,63.605,-2.889,-5.505,279.635,46.182,100037.475,22.776,111.818
广东,佛山市,54.122,68.407,9.928,36.935,0.767,60.043,-2.633,-7.845,280.847,45.613,102171.785,23.035,112.979
广东,广州市,47.78,59.656,11.009,27.141,0.775,72.485,-3.122,-7.637,280.421,47.073,101191.117,23.339,113.525
广东,惠州市,38.526,49.999,11.825,15.301,0.789,81.489,-3.267,-8.586,279.628,55.466,100108.961,23.244,114.485
广东,揭阳市,29.457,43.554,12.524,20.384,0.899,51.888,-1.483,-7.647,281.477,62.726,100658.282,23.323,116.123
广东,梅州市,30.923,41.519,11.853,14.287,0.826,66.227,-0.401,-6.209,279.054,61.104,98624.895,24.169,116.07
广东,汕头市,27.387,41.434,12.432,21.224,0.877,46.73,-2.823,-7.456,282.996,65.46,101821.263,23.339,116.614
广东,汕尾市,28.145,41.612,11.63,14.218,0.827,65.182,-2.16,-7.968,281.509,62.543,100355.673,23.024,115.527
广东,江门市,57.736,70.528,12.479,29.939,0.737,61.455,-2.358,-8.928,281.0,49.926,101484.431,22.289,112.676
广东,河源市,40.446,51.787,14.09,14.571,0.842,82.888,-2.06,-8.757,277.721,56.235,98877.111,24.021,114.969
广东,深圳市,41.286,55.64,10.826,28.07,0.823,72.53,-3.117,-8.806,280.886,56.743,101505.73,22.667,114.143
广东,清远市,53.506,65.45,14.756,19.391,0.776,67.447,-3.417,-7.87,277.588,46.505,98446.454,24.295,112.871
广东,湛江市,53.292,65.573,13.565,12.213,0.741,84.134,-2.155,-6.314,283.471,47.293,101929.655,21.091,110.163
广东,潮州市,25.968,39.158,11.551,17.575,0.831,48.419,-1.819,-6.706,281.669,64.654,100072.298,23.755,116.754
广东,珠海市,53.872,68.522,17.942,33.875,0.765,61.085,-1.942,-8.838,282.562,55.937,102099.56,22.095,113.317
广东,肇庆市,51.265,63.675,12.489,20.884,0.661,67.142,-3.616,-6.078,279.683,42.925,100150.49,23.505,112.199
广东,茂名市,51.208,65.594,13.848,13.243,0.699,80.287,-3.843,-6.416,281.26,44.115,100040.849,22.013,110.952
广东,阳江市,54.158,66.702,14.661,14.672,0.68,68.868,-2.92,-8.216,280.538,47.57,100609.197,22.042,111.786
广东,韶关市,54.742,68.208,15.342,21.176,0.982,69.084,-3.159,-7.132,276.117,49.919,97655.196,24.785,113.819
广西,北海市,53.854,69.999,13.831,13.336,0.791,83.963,-3.18,-6.762,282.22,39.151,102057.639,21.674,109.37
广西,南宁市,49.606,68.671,14.019,21.085,0.712,77.128,-3.466,-5.2,280.208,42.588,100218.483,23.051,108.469
广西,崇左市,48.263,66.507,14.929,14.448,0.678,72.837,-3.831,-4.262,280.043,45.482,98860.216,22.483,107.291
广西,来宾市,51.844,65.753,12.842,13.202,0.645,80.687,-3.207,-5.503,279.131,40.828,98980.981,23.859,109.417
广西,柳州市,51.385,63.245,13.354,10.721,0.604,79.222,-3.368,-4.466,278.111,41.833,98398.126,24.956,109.372
广西,桂林市,52.836,63.187,15.036,13.633,0.551,82.093,-4.826,-5.355,276.034,44.081,96690.373,25.353,110.513
广西,梧州市,55.669,71.616,13.169,20.445,0.695,69.077,-3.377,-5.471,279.539,42.118,99792.348,23.484,110.996
广西,河池市,56.808,81.306,15.8,11.852,0.768,57.798,-3.38,-2.064,277.756,47.478,95923.216,24.628,107.843
广西,玉林市,51.784,70.561,14.279,15.577,0.754,82.539,-3.926,-6.852,280.276,43.191,100185.394,22.452,110.164
广西,百色市,55.821,78.297,18.959,12.672,1.061,56.883,-2.966,-0.197,278.016,50.539,93700.451,23.981,106.292
广西,贵港市,50.56,67.456,12.345,14.984,0.679,81.272,-4.063,-5.189,280.379,39.475,100708.214,23.322,110.021
广西,贺州市,57.24,71.659,14.554,15.771,0.627,70.259,-3.867,-7.359,277.589,44.486,97898.796,24.364,111.394
广西,钦州市,50.718,70.188,12.995,17.273,0.772,85.723,-3.328,-6.76,281.279,40.389,101346.748,22.173,109.01
广西,防城港市,49.081,68.624,15.107,19.868,0.726,82.298,-2.876,-6.599,280.431,44.64,99689.42,21.88,108.002
新疆,乌鲁木齐市,47.461,67.466,5.798,19.22,0.849,64.579,-1.008,2.339,260.652,46.909,84877.205,43.746,87.818
新疆,五家渠市,105.193,131.623,13.33,32.657,1.403,51.897,2.35,-1.34,255.227,73.477,98179.95,44.363,87.517
新疆,伊犁哈萨克自治州,17.557,22.351,6.653,8.663,0.752,64.956,0.884,0.345,265.558,34.656,80504.786,43.438,82.146
新疆,克孜勒苏柯尔克孜自治州,10.917,25.259,1.183,1.563,0.303,66.536,3.077,-1.176,260.065,65.468,70216.361,39.661,75.949
新疆,克拉玛依市,43.452,48.895,8.282,14.401,0.709,55.295,-1.263,-1.445,258.547,48.705,99161.867,45.457,85.207
新疆,北屯市,2.504,2.188,4.958,9.274,0.342,65.152,-3.926,3.452,260.682,42.93,97161.812,47.27,87.868
新疆,博尔塔拉蒙古自治州,28.337,42.14,12.623,11.443,0.93,62.616,0.688,0.099,259.705,41.335,87013.754,44.714,82.114
新疆,双河市,42.992,70.024,22.08,18.034,1.266,52.924,0.196,-1.062,258.69,41.506,99723.312,44.87,82.474
新疆,可克达拉市,68.268,90.308,27.802,33.654,2.582,52.412,-1.228,-0.088,269.886,33.678,95594.72,43.918,80.786
新疆,和田地区,5.21,16.319,1.253,0.694,0.226,60.03,4.542,0.598,263.243,56.217,74159.409,37.059,80.934
新疆,哈密市,4.94,8.733,1.458,2.298,0.541,64.435,-3.608,0.849,262.325,44.905,89361.363,43.042,93.517
新疆,喀什地区,16.332,31.056,2.634,2.173,0.348,58.87,4.668,1.496,263.388,63.538,76327.288,38.125,77.178
新疆,图木舒克市,10.105,11.3,4.832,1.963,0.222,47.532,-0.497,-0.275,267.665,71.69,90171.0,39.892,79.182
新疆,塔城地区,22.244,26.578,4.92,7.501,0.513,65.771,-1.874,0.958,260.929,38.524,90581.419,45.642,84.789
新疆,巴音郭楞蒙古自治州,4.439,6.159,1.308,0.663,0.196,57.208,1.398,-1.057,262.459,62.619,79579.483,39.463,87.481
新疆,新星市,21.78,48.09,4.325,12.86,1.85,52.73,-1.09,0.225,265.04,46.615,94093.105,42.75,93.68
新疆,昆玉市,28.417,136.093,5.04,4.88,0.733,47.413,-1.703,1.007,266.94,55.773,87707.913,37.457,79.093
新疆,昌吉回族自治州,30.907,39.234,4.093,11.565,0.583,66.179,-2.56,1.374,261.164,47.062,90921.257,44.342,88.608
新疆,石河子市,161.77,202.63,21.735,65.795,2.31,30.555,0.695,-0.315,257.995,66.28,96090.775,44.245,86.035
新疆,胡杨河市,46.704,55.024,7.908,12.476,0.68,56.328,-1.32,-0.196,256.502,61.75,99695.02,44.852,84.772
新疆,铁门关市,27.137,69.493,3.317,9.807,0.87,53.037,-0.35,1.647,264.283,63.5,92877.76,41.773,85.66
新疆,阿克苏地区,13.615,24.24,3.451,2.579,0.316,52.638,-0.358,0.011,263.894,70.873,85991.616,40.965,81.578
新疆,阿勒泰地区,1.642,1.817,1.671,2.474,0.223,69.668,-6.124,2.836,261.524,32.128,89536.367,46.902,88.421
新疆,阿拉尔市,17.649,35.293,3.283,3.22,0.416,47.332,-0.795,0.893,266.294,82.762,91136.009,40.629,80.998
江苏,南京市,143.18,180.591,19.346,92.795,1.409,38.864,1.9,-1.509,273.052,70.556,102833.546,31.899,118.876
江苏,南通市,113.029,141.848,22.227,54.607,1.273,52.469,2.109,-4.138,275.07,54.661,102897.266,32.201,120.979
江苏,宿迁市,124.937,171.367,23.318,65.428,1.274,37.712,2.556,0.804,273.362,62.379,102875.786,33.765,118.495
江苏,常州市,163.793,197.278,23.194,84.759,1.616,40.577,1.669,-2.673,274.067,64.369,102871.093,31.613,119.666
江苏,徐州市,120.244,175.411,26.574,60.305,1.276,28.888,2.275,1.679,273.181,49.545,102572.341,34.363,117.513
江苏,扬州市,129.254,202.9,19.361,85.618,1.404,43.703,1.825,-1.221,273.958,64.964,102957.455,32.709,119.486
江苏,无锡市,161.062,204.514,26.345,87.409,1.768,38.149,1.795,-3.566,274.395,60.664,102754.812,31.546,120.066
江苏,泰州市,152.416,212.308,22.595,86.5,1.605,44.45,1.861,-2.174,273.826,56.914,102907.593,32.605,120.048
江苏,淮安市,123.867,185.456,21.249,70.993,1.34,41.472,2.345,-0.062,273.712,64.196,102884.538,33.362,118.985
江苏,盐城市,137.505,186.627,22.491,59.722,1.388,44.327,2.814,-1.163,274.035,54.766,102919.147,33.529,120.156
江苏,苏州市,143.518,186.219,27.217,84.252,1.661,39.456,1.65,-5.31,275.537,56.605,102881.296,31.374,120.661
江苏,连云港市,131.978,170.409,31.123,67.936,1.674,32.614,2.352,0.513,273.444,50.491,102711.793,34.519,119.133
江苏,镇江市,152.269,202.342,20.781,93.956,1.518,36.462,1.805,-2.206,273.948,64.622,102846.72,32.016,119.49
江西,上饶市,58.211,81.61,16.546,23.916,0.923,52.684,-3.116,-3.295,273.547,58.17,100451.033,28.778,117.47
江西,九江市,63.139,83.578,14.783,32.537,0.857,50.672,-2.215,-3.321,273.966,62.049,100461.444,29.313,115.444
江西,南昌市,60.331,87.146,15.735,34.589,0.915,51.38,-2.653,-4.727,276.012,55.273,102430.272,28.671,116.016
江西,吉安市,68.736,95.813,17.573,25.015,1.084,51.441,-1.902,-5.246,274.954,54.431,99946.054,26.954,114.831
江西,宜春市,61.969,88.34,15.519,29.459,0.968,49.502,-2.416,-3.822,274.63,57.145,100377.07,28.29,114.974
江西,抚州市,60.162,82.577,16.998,25.966,0.898,51.018,-1.866,-5.008,274.104,58.814,99927.682,27.514,116.42
江西,新余市,71.255,103.037,18.391,31.853,1.154,45.803,-1.902,-4.075,275.301,55.511,101359.595,27.847,114.836
江西,景德镇市,59.185,86.348,14.895,22.21,0.882,53.988,-2.52,-3.193,273.971,53.474,101369.077,29.287,117.24
江西,萍乡市,72.14,102.503,17.903,26.679,1.294,47.391,-3.471,-3.148,274.468,56.248,98922.395,27.505,113.908
江西,赣州市,55.709,75.475,16.282,17.404,1.078,70.596,-1.465,-7.136,274.843,57.742,98053.292,25.692,115.279
江西,鹰潭市,57.991,79.092,20.52,25.299,0.885,51.639,-3.829,-3.246,273.972,61.349,100982.427,28.222,117.094
河北,保定市,54.888,94.277,20.655,39.054,1.076,36.938,0.86,-3.212,269.585,31.828,98741.739,39.018,115.159
河北,唐山市,58.36,120.234,23.291,60.533,1.467,23.607,-1.035,-0.637,269.282,52.349,102170.553,39.731,118.354
河北,廊坊市,53.413,104.16,18.272,50.868,1.118,33.547,0.234,-1.868,270.658,30.595,102767.474,39.267,116.632
河北,张家口市,15.692,31.991,6.143,10.256,0.501,50.393,4.766,-4.356,259.448,60.087,87981.248,40.877,115.042
河北,承德市,15.549,35.867,6.06,14.317,0.543,44.822,1.983,-3.377,261.355,57.028,91449.922,41.339,117.578
河北,沧州市,70.882,118.297,33.059,65.859,1.442,27.196,-0.058,0.052,271.089,28.958,102768.417,38.258,116.744
河北,石家庄市,49.962,101.322,34.841,45.697,0.997,32.401,2.461,-2.528,271.698,26.575,99314.394,38.135,114.407
河北,秦皇岛市,56.949,115.835,27.158,56.447,1.665,25.722,-0.998,-0.8,266.581,56.519,99736.34,40.12,119.193
河北,衡水市,72.096,128.775,32.304,60.439,1.53,27.772,0.929,-0.322,271.985,24.291,102621.389,37.755,115.813
河北,邢台市,59.062,116.629,40.046,50.398,1.483,31.067,1.831,-1.699,273.178,22.773,101044.437,37.195,114.815
河北,邯郸市,56.334,117.154,42.764,51.273,1.792,30.948,1.328,-0.809,273.197,23.478,100546.754,36.538,114.596
河南,三门峡市,35.973,73.046,25.072,34.97,0.88,42.042,4.019,-2.495,269.401,45.629,92614.892,34.362,111.101
河南,信阳市,62.717,104.662,17.56,44.905,1.071,50.858,0.879,0.29,272.592,55.823,101681.061,32.091,114.907
河南,南阳市,42.239,70.988,10.455,34.879,0.869,47.952,0.768,0.016,273.162,46.974,99434.079,33.034,112.323
河南,周口市,53.241,111.656,16.524,49.124,0.941,40.497,3.718,1.58,272.701,53.449,102398.875,33.738,114.884
河南,商丘市,69.305,132.38,19.352,53.895,1.007,35.906,2.704,2.456,273.048,46.098,102448.299,34.277,115.718
河南,安阳市,42.381,99.403,30.867,51.191,1.491,31.709,2.528,-1.552,273.519,24.324,100134.12,35.888,114.318
河南,平顶山市,41.801,76.223,14.47,41.926,0.811,43.975,3.942,-0.81,273.307,44.016,100082.156,33.8,113.025
河南,开封市,55.967,113.254,22.749,56.713,0.994,29.786,2.75,0.813,273.39,35.21,102055.733,34.594,114.514
河南,新乡市,44.259,102.826,26.772,55.089,1.3,29.543,2.162,-0.082,273.423,27.993,101036.017,35.256,114.111
河南,洛阳市,31.767,65.88,21.169,31.015,0.773,45.097,4.623,-1.658,271.374,39.665,95118.49,34.274,112.019
河南,济源市,52.319,105.448,48.35,36.23,1.432,46.844,2.748,-2.882,272.365,33.361,97025.855,35.105,112.445
河南,漯河市,49.095,104.822,15.669,54.263,0.984,40.878,4.578,0.617,273.162,51.881,102242.492,33.652,113.945
河南,濮阳市,53.852,120.365,29.549,55.451,1.451,33.382,0.899,0.788,273.262,27.225,102307.766,35.809,115.283
河南,焦作市,44.123,104.562,39.172,48.884,1.452,41.161,2.869,-1.369,274.431,27.223,100842.345,35.121,113.163
河南,许昌市,47.89,97.813,19.041,53.871,0.886,35.072,4.58,-0.467,273.51,43.252,101482.15,34.075,113.707
河南,郑州市,41.428,97.367,26.627,54.306,0.976,34.834,4.802,-0.876,273.386,35.546,100049.09,34.634,113.438
河南,驻马店市,52.138,96.922,13.334,51.127,1.001,48.582,2.638,0.547,272.778,55.45,101958.825,32.925,114.174
河南,鹤壁市,41.45,99.136,27.757,54.994,1.472,28.219,1.548,-1.872,274.219,23.316,101388.941,35.716,114.319
浙江,丽水市,57.437,70.838,13.697,23.093,0.839,68.689,-1.594,-4.325,270.033,76.641,95316.921,28.194,119.51
浙江,台州市,83.448,100.575,16.558,33.814,1.139,65.564,1.297,-7.524,273.879,75.9,99814.261,28.742,121.109
浙江,嘉兴市,147.491,180.237,24.165,80.137,1.618,38.654,1.587,-5.415,275.195,61.216,102868.203,30.635,120.754
浙江,宁波市,128.169,146.834,21.288,59.086,1.405,44.066,1.783,-7.234,275.841,70.303,101450.207,29.706,121.49
浙江,杭州市,83.595,108.608,15.13,35.011,1.117,58.261,-0.151,-4.419,271.823,70.341,99796.236,29.891,119.464
浙江,温州市,49.541,64.113,13.773,23.16,0.814,77.178,1.073,-7.371,273.449,67.947,98514.306,27.897,120.411
浙江,湖州市,127.411,153.346,20.765,60.23,1.442,53.703,2.707,-3.113,272.542,72.62,101567.479,30.757,119.871
浙江,绍兴市,113.284,138.029,16.948,61.431,1.358,44.23,1.272,-4.884,272.989,76.024,100636.524,29.709,120.64
浙江,舟山市,87.11,94.42,12.978,26.548,1.085,53.35,0.558,-9.18,278.46,68.595,102454.26,30.038,122.23
浙江,衢州市,63.318,80.874,14.413,25.832,0.937,55.119,-3.786,-3.107,271.984,63.916,98945.955,28.912,118.675
浙江,金华市,80.561,98.824,13.766,39.869,1.087,58.406,-0.475,-4.196,271.394,77.69,99212.246,29.109,119.967
海南,万宁市,42.113,53.783,13.598,6.089,0.64,63.256,-0.411,-7.757,287.172,75.336,100680.423,18.842,110.294
海南,三亚市,21.193,32.603,6.431,8.663,0.757,55.994,-1.564,-3.23,288.14,68.446,99337.877,18.413,109.407
海南,东方市,32.647,46.72,13.942,4.002,0.584,63.785,-4.284,-6.078,286.612,66.606,100070.827,18.971,108.838
海南,临高县,49.937,59.744,13.987,6.686,0.624,68.694,-2.994,-5.624,286.219,68.436,101397.029,19.821,109.733
海南,乐东黎族自治县,26.603,39.258,11.153,4.502,0.63,61.302,-3.202,-5.223,286.771,68.936,98427.226,18.659,109.072
海南,五指山市,33.98,46.288,12.746,5.056,0.664,57.85,-2.952,-6.508,283.078,84.528,95134.854,18.81,109.518
海南,儋州市,47.097,58.57,13.874,5.941,0.612,65.077,-3.551,-4.574,285.927,69.93,101040.496,19.568,109.399
海南,定安县,47.028,57.073,12.877,8.388,0.663,65.537,-1.303,-5.633,286.878,73.382,101032.772,19.47,110.28
海南,屯昌县,45.906,56.632,14.032,8.798,0.67,62.428,-0.332,-4.796,285.768,76.114,100230.332,19.342,110.076
海南,文昌市,47.251,57.215,12.966,5.756,0.609,71.792,-2.394,-7.223,287.638,72.004,101819.541,19.707,110.773
海南,昌江黎族自治县,38.688,52.054,14.158,4.352,0.591,64.773,-5.707,-5.227,285.111,73.941,99053.804,19.233,109.016
海南,海口市,47.823,57.471,12.979,7.692,0.649,71.932,-2.693,-6.208,287.138,71.384,101646.09,19.842,110.393
海南,澄迈县,48.084,58.026,14.08,9.094,0.659,65.084,-1.851,-5.327,286.21,70.631,101198.809,19.676,109.989
海南,琼中黎族苗族自治县,41.683,54.114,13.563,6.592,0.665,59.068,-0.115,-4.981,283.889,82.461,97945.838,19.087,109.847
海南,琼海市,43.748,53.862,13.117,6.632,0.642,67.352,-0.873,-5.557,287.713,72.128,101578.91,19.22,110.43
海南,白沙黎族自治县,40.298,53.526,13.98,5.448,0.64,61.238,-3.005,-3.944,283.386,81.389,97668.11,19.2,109.388
海南,陵水黎族自治县,29.676,42.201,11.734,7.154,0.693,55.737,-1.79,-8.269,287.056,71.674,99935.784,18.581,109.913
湖北,仙桃市,58.761,103.567,13.324,50.625,1.087,37.323,-2.096,-1.932,275.086,53.648,102737.076,30.284,113.417
湖北,十堰市,23.417,38.943,7.977,16.642,0.592,57.868,0.645,-0.763,272.685,40.211,94253.282,32.462,110.476
湖北,咸宁市,57.184,82.626,11.833,37.233,1.026,46.341,-2.153,-2.247,274.485,58.943,100696.717,29.621,114.178
湖北,天门市,57.99,112.461,17.041,55.43,1.287,40.795,-1.744,-0.902,274.876,51.302,102694.159,30.633,113.053
湖北,孝感市,59.023,103.036,16.035,49.045,1.236,41.452,-0.862,-1.01,274.004,52.864,102059.769,31.116,113.869
湖北,宜昌市,52.29,69.278,9.341,25.755,0.785,56.198,-0.426,1.225,272.972,52.97,95123.802,30.746,111.129
湖北,恩施土家族苗族自治州,61.107,74.277,10.724,12.051,0.958,48.117,-1.17,1.154,271.497,61.546,90260.256,30.195,109.552
湖北,武汉市,70.54,108.922,16.87,58.534,1.215,34.554,-1.668,-2.033,274.771,53.699,102627.075,30.606,114.349
湖北,潜江市,57.52,116.23,17.851,58.526,1.373,42.31,-2.144,-0.949,275.143,48.777,102694.647,30.33,112.77
湖北,神农架林区,11.619,16.208,2.415,4.517,0.295,81.912,1.162,-0.098,268.125,37.832,83285.78,31.592,110.49
湖北,荆州市,54.096,94.069,14.715,44.294,1.134,52.143,-1.636,-1.364,275.726,49.463,102430.143,30.01,112.512
湖北,荆门市,51.509,91.531,16.583,45.685,1.042,48.067,-0.761,0.35,274.99,46.453,101591.54,31.059,112.616
湖北,襄阳市,39.606,64.18,11.89,27.961,0.708,54.352,0.545,0.544,274.024,46.969,98648.915,31.919,111.96
湖北,鄂州市,76.133,112.803,18.637,54.596,1.347,40.004,-1.827,-1.686,274.51,61.777,102674.247,30.337,114.794
湖北,随州市,47.323,82.184,13.629,34.733,1.032,48.21,-0.026,0.55,273.827,47.275,100842.508,31.809,113.43
湖北,黄冈市,71.546,97.679,16.301,36.498,1.019,50.87,-2.012,-1.56,272.972,55.352,100811.077,30.702,115.358
湖北,黄石市,72.27,99.5,17.733,43.49,1.168,43.971,-1.781,-1.54,274.511,63.775,101603.752,29.925,115.034
湖南,娄底市,44.076,78.828,13.755,24.295,1.014,63.058,-2.357,-2.945,274.609,52.656,98353.263,27.715,111.632
湖南,岳阳市,56.223,85.552,12.161,31.577,0.934,55.799,-2.475,-2.912,275.594,53.943,101434.434,29.081,113.275
湖南,常德市,48.001,72.945,13.123,24.138,0.941,61.558,-1.062,-1.273,275.282,51.424,100613.961,29.271,111.524
湖南,张家界市,49.743,68.498,10.125,14.309,0.795,54.891,-1.983,-0.251,273.358,56.521,96407.596,29.379,110.526
湖南,怀化市,56.914,87.767,11.365,19.952,0.869,48.471,-3.59,-1.515,275.496,48.172,97338.407,27.535,110.071
湖南,株洲市,68.861,97.173,16.824,27.604,1.161,48.535,-3.445,-3.36,275.13,53.04,99040.194,27.109,113.513
湖南,永州市,60.845,81.191,16.937,23.257,0.716,63.327,-3.414,-5.431,274.955,54.367,97518.971,25.748,111.723
湖南,湘潭市,50.855,84.281,16.183,46.481,1.063,51.102,-1.321,-3.955,275.904,53.933,101529.713,27.744,112.619
湖南,湘西土家族苗族自治州,57.234,85.202,9.517,15.49,0.941,41.859,-3.265,-0.299,273.967,59.34,96300.737,28.708,109.718
湖南,益阳市,43.952,76.601,13.806,21.744,0.989,64.462,-1.539,-2.713,275.094,56.369,100058.932,28.525,111.919
湖南,衡阳市,69.916,95.2,15.575,38.412,1.107,48.644,-1.55,-4.558,276.135,55.125,100964.692,26.781,112.565
湖南,邵阳市,62.427,88.423,15.816,24.091,0.803,59.523,-3.58,-2.577,273.983,50.483,95953.265,26.893,110.881
湖南,郴州市,67.034,90.898,15.133,27.913,1.159,51.279,-1.519,-5.599,274.482,55.397,96587.004,25.769,113.109
湖南,长沙市,54.856,83.662,13.874,32.962,1.035,54.55,-1.929,-3.08,275.528,53.245,100897.183,28.235,113.159
甘肃,临夏回族自治州,46.132,115.982,22.131,29.407,1.454,55.85,-1.306,-1.561,262.537,59.769,77524.81,35.617,103.291
甘肃,兰州市,38.792,96.018,18.26,24.009,1.08,56.003,-2.758,-0.686,262.359,54.248,79292.196,36.359,103.633
甘肃,嘉峪关市,26.593,67.832,22.227,34.988,0.87,64.453,-0.443,-1.078,259.295,66.788,82217.44,39.798,98.145
甘肃,天水市,60.29,131.737,15.357,26.907,1.122,53.57,-0.523,-1.159,266.036,50.164,83021.451,34.645,105.739
甘肃,定西市,57.562,131.309,19.346,22.381,1.265,53.533,-1.545,-1.303,262.204,62.084,77277.46,35.124,104.432
甘肃,平凉市,45.414,94.888,13.126,26.865,1.025,54.192,1.11,-3.697,265.454,47.849,85010.209,35.304,106.644
甘肃,庆阳市,20.463,38.919,7.106,12.293,0.518,59.492,3.554,-4.838,264.429,52.963,86348.725,36.149,107.596
甘肃,张掖市,14.889,29.62,3.407,6.353,0.311,61.425,2.994,-2.293,257.969,60.984,74700.215,38.94,99.855
甘肃,武威市,15.243,30.262,5.29,5.759,0.412,59.463,2.763,-3.181,260.739,59.806,81869.619,38.163,103.073
甘肃,甘南藏族自治州,9.703,22.066,2.342,3.834,0.324,70.35,3.186,-1.652,263.422,49.274,67132.352,34.331,102.768
甘肃,白银市,27.229,69.736,14.458,17.118,0.719,58.336,0.691,-4.074,262.31,54.014,81872.551,36.59,104.646
甘肃,酒泉市,3.249,5.168,1.458,1.876,0.181,59.82,-1.484,-0.831,259.633,49.887,79476.079,40.236,96.062
甘肃,金昌市,17.036,38.188,7.057,7.469,0.399,63.156,3.39,-3.799,260.94,57.183,81016.678,38.44,102.048
甘肃,陇南市,39.625,82.848,11.738,18.488,0.677,55.796,-1.077,0.143,267.108,50.625,82474.118,33.599,105.224
福建,三明市,24.563,37.118,12.876,12.87,0.742,61.224,-1.161,-4.442,273.959,66.035,95851.41,26.29,117.395
福建,南平市,32.476,45.667,15.385,13.887,0.733,63.412,-1.248,-4.024,273.776,59.199,96707.804,27.324,118.143
福建,厦门市,15.965,32.783,11.113,19.87,0.657,47.09,-4.282,-8.653,281.383,60.902,101079.933,24.642,118.11
福建,宁德市,28.552,39.932,14.047,13.251,0.644,72.179,-0.936,-5.719,274.451,59.353,95930.02,26.968,119.474
福建,泉州市,17.007,29.125,10.439,14.244,0.619,57.888,-2.222,-6.536,278.121,66.196,97183.667,25.201,118.249
福建,漳州市,20.247,36.012,11.77,16.546,0.691,48.496,-2.876,-5.53,280.496,67.112,98793.283,24.372,117.444
福建,福州市,19.975,31.874,9.324,13.585,0.631,69.35,-1.649,-6.155,277.183,63.498,98089.353,26.083,119.206
福建,莆田市,16.971,28.772,9.519,13.578,0.601,65.419,-2.138,-8.065,278.674,62.789,98814.508,25.445,118.864
福建,龙岩市,23.566,35.592,12.783,12.13,0.732,63.473,-1.539,-5.48,276.207,64.517,95730.832,25.256,116.739
西藏,山南市,14.895,17.661,0.689,1.753,0.181,85.34,7.976,-2.337,275.387,42.611,66040.868,28.295,92.274
西藏,拉萨市,6.258,9.729,0.019,2.539,0.179,84.61,12.503,-3.289,270.261,35.796,56348.675,30.043,91.093
西藏,日喀则市,4.535,5.436,0.127,0.322,0.119,83.24,13.836,-3.052,267.895,27.934,55277.89,29.483,86.493
西藏,昌都市,1.682,2.109,0.074,0.544,0.127,81.155,12.055,-0.648,269.47,37.687,58602.911,30.753,97.044
西藏,林芝市,7.949,9.74,0.568,1.474,0.138,78.473,3.26,0.499,272.578,62.345,66195.152,29.184,95.25
西藏,玉树藏族自治州,0.671,0.946,0.034,0.338,0.134,77.96,9.705,-4.062,262.905,50.359,56718.502,34.196,94.317
西藏,那曲市,0.26,0.469,0.019,0.137,0.124,83.646,15.244,-3.574,265.047,38.293,55073.58,32.709,89.262
西藏,阿里地区,0.621,0.988,0.064,0.384,0.126,77.727,15.735,0.699,261.48,43.064,54513.444,33.013,82.553
贵州,六盘水市,50.756,68.185,14.765,17.25,0.958,54.698,-0.016,3.79,274.403,63.828,83287.653,26.106,104.896
贵州,安顺市,60.423,81.303,16.966,20.089,0.828,49.91,-2.194,2.377,274.898,56.63,88645.341,25.986,105.978
贵州,毕节市,56.752,74.547,15.284,19.861,0.976,51.329,0.193,2.891,273.658,62.358,83642.978,27.063,105.211
贵州,贵阳市,71.748,92.915,21.229,31.172,0.956,43.044,-1.606,3.154,274.424,55.065,88697.616,26.845,106.71
贵州,遵义市,52.49,70.591,14.145,17.06,0.747,46.647,-3.642,2.294,274.395,54.155,91023.739,28.167,107.102
贵州,铜仁市,50.29,87.43,14.173,17.309,1.083,40.321,-3.214,0.428,274.432,56.053,93592.4,27.937,108.534
贵州,黔东南苗族侗族自治州,58.718,81.205,16.194,14.401,0.865,48.156,-3.013,-1.5,274.882,54.15,93447.42,26.495,108.574
贵州,黔南布依族苗族自治州,65.916,84.098,18.801,15.642,0.84,49.303,-2.579,0.364,275.136,54.169,91002.355,26.0,107.265
贵州,黔西南布依族苗族自治州,42.084,66.958,14.338,10.65,0.993,51.954,-1.568,2.359,276.227,55.241,89035.577,25.256,105.467
辽宁,丹东市,44.946,60.758,23.826,29.34,1.264,36.362,-1.35,-0.441,263.398,61.081,99712.303,40.554,124.376
辽宁,大连市,36.833,61.11,19.495,32.953,0.929,42.697,-0.002,-0.035,268.365,58.765,102045.572,39.591,122.22
辽宁,抚顺市,39.872,56.357,19.647,34.449,0.959,38.33,0.005,2.797,261.817,62.121,97817.012,41.841,124.65
辽宁,朝阳市,42.605,74.708,40.374,24.834,1.161,34.568,1.165,-3.895,263.153,51.621,97321.311,41.545,120.053
辽宁,本溪市,40.714,57.908,19.942,31.827,1.127,36.973,0.159,2.049,262.067,61.006,97127.649,41.232,124.544
辽宁,沈阳市,68.496,99.904,52.338,48.572,1.499,30.415,0.116,0.582,263.468,50.246,102300.072,42.081,123.159
辽宁,盘锦市,57.512,92.129,45.251,45.332,1.499,35.133,-0.019,-0.822,266.231,47.089,102966.557,41.13,122.01
辽宁,营口市,45.354,76.276,22.702,37.507,1.138,40.58,0.086,1.317,266.778,52.962,100558.218,40.395,122.478
辽宁,葫芦岛市,56.811,95.201,47.837,44.766,1.636,30.205,1.17,-1.727,265.97,45.788,100235.997,40.66,120.215
辽宁,辽阳市,51.078,76.987,32.026,41.983,1.277,36.366,0.342,1.579,265.293,50.614,100807.683,41.153,123.261
辽宁,铁岭市,51.113,72.113,31.089,41.11,1.062,35.053,0.061,1.388,261.784,57.35,100618.363,42.653,124.158
辽宁,锦州市,58.035,89.315,53.362,39.724,1.362,34.562,0.946,-2.123,264.808,47.817,102098.81,41.502,121.659
辽宁,阜新市,49.05,70.156,36.613,27.757,1.02,33.245,1.646,-2.073,262.524,50.774,100518.07,42.289,121.968
辽宁,鞍山市,46.128,73.19,25.703,35.94,1.244,38.506,-0.111,0.641,265.505,52.649,100877.632,40.731,123.007
重庆,重庆城区,61.456,89.202,15.946,36.04,0.901,37.551,-3.464,0.608,277.558,41.122,95793.578,29.824,107.125
重庆,重庆郊县,47.961,63.932,12.98,13.877,0.784,55.224,-2.721,0.523,273.809,46.979,91855.624,30.334,108.755
陕西,咸阳市,60.814,109.84,14.266,39.499,1.182,41.744,2.007,-3.59,269.053,53.343,92361.667,34.779,108.367
陕西,商洛市,19.255,37.452,6.795,18.921,0.521,57.13,1.507,-2.722,269.825,39.38,90030.806,33.64,109.889
陕西,安康市,22.983,34.884,6.627,15.1,0.485,62.544,0.062,-1.141,271.067,41.894,90616.092,32.735,108.932
陕西,宝鸡市,42.056,75.025,9.521,25.175,0.771,53.118,0.475,-2.224,267.881,45.912,86948.968,34.386,107.193
陕西,延安市,19.175,38.973,15.041,20.184,0.759,51.404,3.305,-4.17,265.636,52.32,88138.98,36.432,109.316
陕西,榆林市,25.174,64.089,20.652,28.486,0.971,45.418,4.111,-4.309,263.737,54.496,88518.868,38.041,109.581
陕西,汉中市,33.625,52.666,8.067,19.078,0.664,55.971,-0.645,-0.868,271.354,36.002,89620.702,33.088,107.098
陕西,渭南市,49.26,90.064,25.318,41.158,1.053,41.096,2.703,-1.049,271.04,46.541,94796.511,34.919,109.855
陕西,西安市,48.945,86.678,12.341,43.725,1.013,45.344,2.069,-0.53,269.78,46.213,91368.688,34.12,108.77
陕西,铜川市,35.104,64.595,14.456,28.387,0.849,49.777,2.923,-3.548,268.338,48.728,89864.627,35.198,109.058
青海,保亭黎族苗族自治县,26.284,37.852,9.264,8.58,0.748,53.792,-1.468,-5.346,286.454,73.388,97686.572,18.566,109.618
青海,吐鲁番市,13.67,23.081,3.143,4.676,0.443,59.033,-1.164,-0.424,262.745,60.669,91472.749,42.386,89.851
青海,果洛藏族自治州,0.401,0.498,0.047,0.405,0.124,74.848,7.851,-2.673,261.033,55.989,59350.482,34.127,99.404
青海,海东市,36.437,58.391,15.283,17.053,0.837,57.349,-1.37,0.28,260.986,55.598,72509.771,36.347,102.34
青海,海北藏族自治州,3.107,4.612,1.181,1.453,0.16,68.708,4.698,-3.004,257.454,49.322,64684.114,37.775,100.288
青海,海南藏族自治州,1.26,1.66,0.424,0.622,0.125,70.713,7.052,-2.663,262.791,34.764,65945.607,35.89,100.272
青海,海西蒙古族藏族自治州,0.806,1.11,0.281,0.315,0.127,69.386,5.727,-1.883,261.041,38.213,64067.985,36.677,94.519
青海,西宁市,30.857,61.431,9.225,11.569,0.809,60.905,2.05,-0.742,260.765,49.872,69108.292,36.842,101.423
青海,黄南藏族自治州,3.748,5.308,1.158,1.376,0.16,72.197,4.939,-2.651,262.825,38.972,65254.963,35.022,101.631
香港,香港特别行政区,39.67,54.595,12.565,27.965,0.815,74.95,-2.695,-9.555,282.035,61.17,101661.8,22.45,114.22
黑龙江,七台河市,54.945,81.436,15.55,30.999,0.87,41.827,2.069,1.21,253.746,70.884,99573.807,45.87,130.943
黑龙江,伊春市,27.801,37.09,6.727,11.402,0.511,42.523,1.579,0.926,251.882,72.992,97864.489,47.772,129.184
黑龙江,佳木斯市,40.157,51.987,8.776,19.644,0.625,39.686,2.124,2.168,250.661,74.351,101794.118,47.207,132.11
黑龙江,双鸭山市,42.342,52.399,9.51,18.625,0.585,39.054,2.098,2.122,252.083,73.85,101333.07,46.722,132.643
黑龙江,哈尔滨市,43.624,52.563,18.151,26.311,0.749,49.826,-0.431,2.81,255.067,73.681,99844.594,45.634,127.964
黑龙江,大兴安岭地区,1.918,2.242,2.252,2.778,0.247,48.43,2.954,-2.895,249.13,72.606,95835.652,52.286,124.212
黑龙江,大庆市,53.06,65.763,16.601,29.474,0.884,44.961,0.358,0.105,253.996,73.246,101185.908,46.327,124.687
黑龙江,牡丹江市,34.682,47.236,9.828,17.27,0.709,41.706,1.705,1.361,255.224,68.303,96462.752,44.592,129.883
黑龙江,绥化市,46.633,60.781,20.672,28.749,0.934,49.333,-1.935,1.473,251.536,77.393,100365.381,46.89,126.634
黑龙江,鸡西市,48.217,64.367,12.496,21.996,0.764,35.963,2.006,0.964,252.98,74.582,101052.308,45.626,132.289
黑龙江,鹤岗市,28.841,42.357,8.384,17.238,0.605,41.427,2.153,0.259,251.735,70.749,100632.173,47.661,130.778
黑龙江,黑河市,26.371,32.29,6.79,7.959,0.494,39.863,0.491,-0.051,249.702,76.318,98259.93,49.268,127.004
黑龙江,齐齐哈尔市,53.542,67.909,17.863,19.417,0.811,37.396,-0.818,-1.734,249.421,74.817,100353.817,47.715,124.57
