province,city,PM2.5,PM10,SO2,NO2,CO,O3,U,V,TEMP,RH,PSFC,lat,lon
上海,上海市,25.926,45.697,8.191,24.359,0.561,45.853,4.113,-9.317,275.75,65.192,103500.574,31.173,121.42
云南,临沧市,27.169,38.298,9.517,6.654,0.482,46.77,-1.729,5.045,284.551,76.559,84011.083,23.935,99.686
云南,丽江市,15.187,23.392,6.364,7.578,0.534,65.92,2.177,5.638,276.927,62.263,74564.357,26.96,100.515
云南,保山市,21.836,35.372,8.165,9.796,0.515,43.341,-0.061,3.528,282.532,73.827,81916.241,24.953,98.962
云南,大理白族自治州,17.385,29.384,7.781,5.735,0.487,60.269,1.443,5.406,279.457,76.419,78125.046,25.726,100.053
云南,德宏傣族景颇族自治州,22.199,31.315,10.099,8.212,0.391,46.462,-1.658,2.877,285.541,67.982,86112.98,24.535,98.052
云南,怒江傈僳族自治州,12.913,18.014,3.678,2.622,0.319,65.989,1.763,6.274,275.193,69.751,72621.147,26.916,98.885
云南,文山壮族苗族自治州,31.381,49.163,17.346,9.95,0.672,38.111,-3.608,-1.805,278.043,95.509,87099.119,23.696,104.735
云南,昆明市,22.823,44.677,11.444,21.315,0.845,37.727,-1.781,5.441,278.475,92.676,79412.267,25.384,102.863
云南,昭通市,23.446,37.616,16.905,16.099,0.909,28.378,-1.095,-3.32,270.892,87.051,84773.385,27.667,103.985
云南,普洱市,24.973,44.139,11.126,7.63,0.467,44.804,-2.555,4.353,285.562,86.146,86166.54,23.159,100.718
云南,曲靖市,23.414,44.675,15.662,17.246,0.955,31.223,-2.713,1.781,275.205,91.882,80318.524,25.737,103.929
云南,楚雄彝族自治州,25.2,38.607,11.173,9.014,0.66,51.191,0.205,6.331,281.475,85.168,81110.281,25.328,101.567
云南,玉溪市,25.044,43.758,12.809,7.578,0.534,52.163,-3.895,5.663,282.594,92.068,83710.972,24.136,102.217
云南,红河哈尼族彝族自治州,31.068,48.925,15.287,6.647,0.551,51.811,-4.865,3.504,281.961,94.339,85504.164,23.451,103.034
云南,西双版纳傣族自治州,27.138,48.377,10.932,13.801,0.528,33.966,-4.206,2.435,287.985,82.273,89182.552,21.939,100.912
云南,迪庆藏族自治州,8.212,9.188,2.456,2.226,0.274,76.745,4.825,6.905,270.813,60.33,66951.774,27.957,99.459
内蒙古,乌兰察布市,5.428,8.775,3.287,2.98,0.318,50.915,5.899,-3.427,252.12,53.577,87357.148,41.691,112.44
内蒙古,乌海市,26.592,54.552,32.311,27.351,0.771,32.445,-1.335,-0.115,255.622,32.454,89551.381,39.396,106.856
内蒙古,兴安盟,1.924,2.451,1.717,1.354,0.207,59.06,9.175,-7.437,253.546,44.326,95894.009,46.244,121.341
内蒙古,包头市,4.939,8.903,3.471,4.218,0.327,48.503,3.652,-2.685,252.383,45.949,87481.137,41.549,110.276
内蒙古,呼伦贝尔市,1.6,1.467,2.252,1.599,0.208,55.13,6.414,-5.759,248.882,61.178,94520.892,49.636,121.171
内蒙古,呼和浩特市,20.827,40.906,13.325,20.283,0.747,39.032,2.671,-2.912,253.599,48.103,87813.869,40.578,111.513
内蒙古,巴彦淖尔市,4.058,6.181,2.748,2.815,0.265,52.339,1.738,-1.508,253.763,37.853,89174.317,41.446,107.582
内蒙古,赤峰市,2.427,4.651,2.237,1.852,0.232,59.173,9.077,-6.567,255.141,47.141,93221.709,43.226,118.892
内蒙古,通辽市,4.651,9.486,3.071,2.677,0.247,57.004,8.221,-6.881,257.739,38.056,99514.228,43.814,121.591
内蒙古,鄂尔多斯市,6.537,12.437,5.816,7.15,0.335,49.954,0.773,-2.934,254.842,43.61,88753.336,39.407,108.63
内蒙古,锡林郭勒盟,0.88,1.663,1.287,0.688,0.208,55.528,7.449,-2.962,251.902,61.886,90437.619,44.179,115.482
内蒙古,阿拉善盟,4.149,7.319,4.265,3.371,0.245,48.24,-4.672,0.171,256.51,43.876,89339.545,40.473,102.467
北京,北京市,7.075,20.92,3.157,9.65,0.315,50.392,4.301,-6.082,263.06,29.011,100060.279,40.158,116.395
台湾,台湾省,9.475,15.826,4.393,8.676,0.235,59.738,-4.614,-7.331,287.301,76.221,93484.04,23.757,120.975
吉林,吉林市,15.671,27.979,6.966,9.976,0.473,47.535,7.51,-1.148,254.386,54.451,98203.54,43.573,126.859
吉林,四平市,13.694,26.55,4.735,7.771,0.388,49.513,6.97,-3.911,257.498,35.403,100950.803,43.472,124.386
吉林,延边朝鲜族自治州,9.753,15.193,5.634,6.116,0.314,53.25,11.791,-1.771,252.636,59.015,94506.751,43.141,129.147
吉林,松原市,10.43,15.18,3.91,5.453,0.324,49.06,7.056,-4.81,256.757,36.384,101231.161,44.785,124.496
吉林,白城市,6.218,7.719,2.892,2.957,0.234,53.682,6.465,-6.329,257.565,31.972,101461.297,45.35,123.031
吉林,白山市,23.715,34.333,11.424,14.539,0.644,41.386,6.259,-0.314,251.182,69.375,92896.508,42.063,127.256
吉林,辽源市,21.652,37.744,6.342,12.204,0.5,46.518,7.199,-2.44,256.046,46.848,98831.213,42.836,125.32
吉林,通化市,28.804,45.143,11.76,17.951,0.758,38.8,5.041,-2.436,254.484,58.302,96861.864,41.939,125.927
吉林,长春市,15.656,28.129,5.733,9.21,0.461,47.164,7.385,-3.401,256.062,41.353,100662.965,44.268,125.611
四川,乐山市,33.454,39.815,9.061,17.747,0.789,31.072,0.36,-5.343,270.448,92.578,90738.363,29.218,103.569
四川,内江市,26.501,32.582,7.333,17.601,0.801,25.699,-1.13,-6.185,274.98,96.939,98188.405,29.62,104.95
四川,凉山彝族自治州,21.777,33.371,12.073,11.156,0.762,55.7,0.111,4.076,272.903,68.223,74169.616,27.883,102.065
四川,南充市,34.664,44.645,9.335,15.443,0.78,42.163,-6.083,-4.901,273.64,81.302,98376.685,31.19,106.199
四川,宜宾市,24.388,29.934,10.661,20.789,0.842,21.077,3.669,-4.738,274.786,94.432,96445.998,28.573,104.621
四川,巴中市,40.563,54.596,12.451,18.772,0.819,39.768,-8.821,-5.224,270.03,66.345,93888.021,32.033,107.031
四川,广元市,41.19,58.097,9.864,18.643,0.885,39.921,-4.604,-5.838,269.125,82.138,93003.175,32.261,105.788
四川,广安市,27.904,37.808,8.804,15.197,0.712,35.148,-3.442,-0.723,276.464,76.249,98270.043,30.43,106.628
四川,德阳市,35.383,45.425,5.303,17.068,0.75,40.476,-5.002,-7.304,271.123,84.693,94611.775,31.13,104.436
四川,成都市,30.982,42.046,6.565,18.018,0.812,37.616,-4.258,-5.622,271.57,88.458,94749.225,30.64,103.929
四川,攀枝花市,27.381,44.246,18.94,29.421,1.347,41.214,-0.435,2.795,280.957,62.507,81623.978,26.791,101.734
四川,泸州市,20.89,28.437,12.394,18.402,0.725,22.669,-0.83,1.821,275.184,87.759,94666.091,28.424,105.675
四川,甘孜藏族自治州,4.351,4.927,1.306,0.719,0.152,86.647,8.751,9.2,265.096,47.949,60527.647,30.936,100.009
四川,眉山市,31.392,38.124,7.004,18.225,0.821,32.843,-1.17,-5.486,271.961,94.603,95222.717,29.912,103.766
四川,绵阳市,39.928,52.128,9.23,16.205,0.736,43.252,-3.692,-5.615,267.693,81.128,89085.135,31.86,104.704
四川,自贡市,25.242,29.65,7.539,18.986,0.805,23.801,1.033,-6.585,275.126,94.988,98168.356,29.307,104.659
四川,资阳市,28.132,35.464,7.009,15.679,0.794,31.557,-2.53,-6.691,274.162,97.989,98503.757,30.102,105.149
四川,达州市,34.747,44.83,14.32,19.009,0.681,40.591,-7.239,-1.417,273.208,64.027,95503.983,31.335,107.636
四川,遂宁市,28.471,36.325,7.981,14.772,0.777,38.403,-4.067,-6.98,273.501,95.559,98810.517,30.642,105.457
四川,阿坝藏族羌族自治州,20.383,26.21,7.791,4.539,0.378,70.862,4.284,5.993,265.15,53.811,64938.916,32.406,102.61
四川,雅安市,30.925,38.072,13.187,9.814,0.661,52.702,-1.969,-0.888,265.831,87.135,80575.541,29.932,102.689
天津,天津市,12.015,43.613,4.763,17.751,0.452,39.244,3.92,-5.275,264.878,26.255,104132.907,39.315,117.308
宁夏,中卫市,15.639,31.264,12.442,12.826,0.437,40.092,-2.769,-0.984,257.07,68.702,84821.58,37.018,105.509
宁夏,吴忠市,8.851,16.075,7.845,6.67,0.35,46.45,-2.337,-1.629,257.294,50.984,86581.661,37.454,106.577
宁夏,固原市,19.25,41.542,13.667,12.513,0.452,43.736,-2.908,-0.714,257.917,82.519,81899.978,35.905,106.183
宁夏,石嘴山市,24.007,44.794,25.933,22.46,0.787,40.299,-1.346,-0.69,255.506,31.412,88523.623,39.013,106.499
宁夏,银川市,12.72,24.051,12.79,12.957,0.522,45.812,-2.168,-2.292,257.013,35.098,88823.809,38.287,106.342
安徽,亳州市,29.028,60.457,9.533,22.912,0.503,39.888,-0.568,-8.253,268.239,20.039,103974.851,33.44,116.162
安徽,六安市,35.778,54.887,9.745,19.564,0.496,40.572,-2.099,-7.115,269.447,50.619,101074.577,31.617,116.209
安徽,合肥市,33.832,51.873,8.037,20.557,0.514,41.477,-1.078,-8.574,271.148,40.831,103594.996,31.766,117.359
安徽,安庆市,34.821,47.727,10.924,16.045,0.537,41.16,-4.956,-10.122,271.739,56.952,101296.33,30.557,116.473
安徽,宣城市,30.598,45.916,10.736,19.624,0.602,45.025,-0.896,-7.618,271.518,60.424,101203.385,30.676,118.846
安徽,宿州市,27.388,64.1,9.762,23.962,0.527,38.763,1.287,-7.969,267.684,21.309,103855.12,33.844,117.23
安徽,池州市,35.632,49.276,11.538,19.462,0.577,41.515,-4.48,-8.68,272.096,62.745,101448.482,30.296,117.379
安徽,淮北市,28.524,64.821,11.092,26.908,0.534,35.762,0.8,-8.329,267.732,19.595,103946.362,33.722,116.747
安徽,淮南市,34.268,58.627,9.411,24.242,0.518,39.857,-1.227,-8.663,270.282,34.666,103891.665,32.463,116.746
安徽,滁州市,28.745,50.976,8.417,19.672,0.486,44.545,0.554,-8.76,269.862,35.192,103480.078,32.55,118.076
安徽,芜湖市,34.647,50.459,10.03,23.823,0.644,41.287,-1.62,-8.378,272.292,48.239,103664.69,31.167,118.162
安徽,蚌埠市,30.646,59.739,9.478,23.468,0.531,41.078,0.348,-8.333,268.892,25.7,103888.785,33.121,117.263
安徽,铜陵市,37.568,52.001,10.016,20.784,0.574,41.648,-2.72,-8.922,272.789,51.602,103503.284,30.883,117.531
安徽,阜阳市,35.36,64.341,9.866,21.835,0.523,40.052,-1.715,-8.173,269.052,23.7,103940.384,32.937,115.723
安徽,马鞍山市,29.98,47.604,9.142,21.818,0.579,43.436,-0.424,-8.675,271.534,43.962,103686.345,31.622,118.386
安徽,黄山市,30.098,43.444,11.336,16.85,0.551,44.303,-3.369,-8.078,271.708,66.55,98931.794,29.869,118.09
山东,东营市,11.498,34.002,10.259,18.388,0.427,46.322,4.91,-5.152,266.869,42.006,104093.627,37.57,118.572
山东,临沂市,16.373,58.253,10.84,21.785,0.514,41.57,2.57,-6.903,265.119,29.053,102169.022,35.289,118.27
山东,威海市,9.757,26.111,7.817,10.403,0.388,61.731,3.549,-7.318,268.641,72.124,102933.581,37.148,122.028
山东,德州市,22.342,62.231,10.408,25.075,0.568,35.086,2.582,-5.499,264.58,19.939,104214.292,37.233,116.679
山东,日照市,14.602,54.563,12.18,20.739,0.51,40.625,3.587,-7.444,265.117,37.27,102202.663,35.566,119.108
山东,枣庄市,22.025,67.965,9.958,23.455,0.492,38.917,2.08,-6.979,265.809,21.254,103068.076,34.925,117.383
山东,泰安市,17.141,56.043,10.065,25.189,0.481,38.861,1.674,-6.987,263.987,22.135,102202.367,35.993,117.04
山东,济南市,15.746,54.541,10.807,24.684,0.505,36.162,2.736,-5.984,263.343,23.401,102178.949,36.639,117.254
山东,济宁市,22.285,66.502,11.14,26.99,0.49,35.711,1.313,-7.124,265.582,19.116,103651.594,35.375,116.697
山东,淄博市,16.748,55.687,14.14,25.838,0.562,34.475,4.575,-5.703,263.07,29.05,101409.646,36.623,118.062
山东,滨州市,12.778,41.076,8.421,19.624,0.497,40.713,5.337,-5.228,265.259,29.628,104151.298,37.516,117.852
山东,潍坊市,16.269,56.0,14.866,25.64,0.57,36.155,6.729,-6.048,265.295,40.363,102854.92,36.53,119.092
山东,烟台市,9.94,25.48,7.012,10.406,0.43,60.693,3.763,-6.624,268.093,73.463,102541.424,37.25,120.789
山东,聊城市,32.992,79.522,12.902,32.278,0.712,32.231,0.759,-5.227,265.137,16.345,104037.943,36.458,115.863
山东,菏泽市,28.737,73.001,11.743,28.953,0.571,36.349,0.162,-6.482,266.234,15.567,103896.154,35.134,115.69
山东,青岛市,14.65,47.614,9.762,17.974,0.567,45.507,5.638,-5.747,267.328,65.612,103290.137,36.46,120.172
山西,临汾市,13.673,38.893,14.134,16.389,0.538,43.981,1.359,-5.413,261.352,32.418,91814.556,36.227,111.398
山西,吕梁市,15.388,42.881,16.387,20.974,0.522,38.939,1.226,-4.609,257.138,33.846,89274.315,37.663,111.27
山西,大同市,16.94,33.742,16.402,13.043,0.627,41.978,4.403,-5.773,255.204,48.352,88640.099,39.911,113.713
山西,太原市,17.058,50.552,17.169,22.167,0.587,39.397,1.883,-4.796,257.727,30.077,89054.178,37.967,112.321
山西,忻州市,17.102,38.607,17.115,17.494,0.513,42.943,2.363,-5.218,255.28,39.337,87448.447,38.877,112.391
山西,晋中市,18.933,46.28,14.799,20.029,0.578,43.038,2.091,-5.12,258.696,27.161,90011.392,37.328,112.997
山西,晋城市,30.086,66.156,17.102,22.188,0.634,35.905,1.203,-3.448,262.667,35.661,92120.516,35.625,112.752
山西,朔州市,23.104,50.623,24.17,20.686,0.682,35.783,3.835,-3.962,254.684,49.673,88015.757,39.619,112.655
山西,运城市,17.244,62.245,15.288,20.097,0.617,42.114,0.249,-4.384,265.314,40.474,96383.144,35.205,111.071
山西,长治市,19.46,45.018,15.79,19.166,0.578,42.236,1.191,-4.824,260.383,27.046,90308.518,36.48,112.915
山西,阳泉市,19.534,42.132,15.086,18.516,0.504,45.083,5.779,-6.216,259.574,27.503,92046.362,38.031,113.512
广东,东莞市,19.75,31.43,7.206,22.657,0.778,29.572,-4.789,-8.161,286.776,66.734,102105.742,22.931,113.81
广东,中山市,22.197,39.001,7.727,31.901,0.821,28.486,-4.34,-9.157,287.683,68.212,102066.929,22.5,113.383
广东,云浮市,20.593,35.188,10.647,20.007,0.909,26.947,-5.304,-7.361,284.822,68.802,100098.068,22.776,111.818
广东,佛山市,19.561,34.891,7.191,28.904,0.835,24.521,-4.155,-10.045,285.825,65.324,102218.118,23.035,112.979
广东,广州市,18.631,29.562,7.484,20.276,0.757,29.146,-4.059,-9.732,285.231,68.717,101274.062,23.339,113.525
广东,惠州市,17.419,27.944,9.41,13.357,0.666,32.693,-4.005,-9.515,285.017,72.307,100217.687,23.244,114.485
广东,揭阳市,18.563,31.234,11.936,17.04,0.72,42.626,-5.802,-7.57,287.895,66.696,100793.7,23.323,116.123
广东,梅州市,15.322,26.657,11.293,13.281,0.636,32.247,-1.928,-6.584,285.47,71.675,98792.814,24.169,116.07
广东,汕头市,14.08,26.796,9.885,16.162,0.547,53.4,-7.664,-9.255,288.377,67.356,101945.359,23.339,116.614
广东,汕尾市,18.928,28.36,11.548,11.635,0.627,43.264,-5.608,-7.952,287.919,67.26,100471.54,23.024,115.527
广东,江门市,24.401,40.516,10.412,30.125,0.805,30.364,-4.821,-10.552,286.891,67.394,101478.408,22.289,112.676
广东,河源市,15.694,27.867,12.857,14.007,0.634,26.495,-1.463,-9.972,282.479,78.039,99046.249,24.021,114.969
广东,深圳市,21.444,35.377,7.853,23.036,0.749,30.796,-5.108,-10.026,286.647,69.759,101548.158,22.667,114.143
广东,清远市,18.127,31.271,15.051,20.966,0.795,19.968,-3.469,-10.168,280.657,76.541,98655.35,24.295,112.871
广东,湛江市,30.027,47.252,11.439,15.393,0.886,56.856,-7.334,-6.922,290.705,64.886,101752.004,21.091,110.163
广东,潮州市,13.451,24.084,8.755,13.271,0.543,50.828,-7.272,-8.4,286.907,67.096,100237.706,23.755,116.754
广东,珠海市,24.525,41.242,13.402,30.207,0.732,34.402,-5.11,-10.333,288.543,69.403,102080.062,22.095,113.317
广东,肇庆市,17.305,30.862,11.574,20.494,0.887,19.78,-5.292,-8.989,283.513,69.2,100251.005,23.505,112.199
广东,茂名市,29.561,46.287,11.144,16.237,0.892,45.679,-7.939,-8.537,287.282,65.798,99981.942,22.013,110.952
广东,阳江市,29.126,44.16,14.525,20.659,0.796,42.023,-5.641,-10.339,286.465,66.06,100594.263,22.042,111.786
广东,韶关市,15.587,25.781,12.249,19.046,0.764,22.466,-2.385,-8.477,279.401,81.087,97911.967,24.785,113.819
广西,北海市,32.964,45.855,12.997,17.605,1.192,27.561,-5.359,-8.914,287.497,64.441,101920.693,21.674,109.37
广西,南宁市,20.121,35.206,9.637,18.797,1.057,18.277,-3.879,-9.086,281.235,76.136,100291.93,23.051,108.469
广西,崇左市,21.597,40.728,11.768,15.54,1.049,22.789,-4.024,-8.363,280.981,84.018,98914.424,22.483,107.291
广西,来宾市,18.595,31.863,10.124,17.146,1.032,16.737,-3.811,-9.254,280.303,74.883,99119.68,23.859,109.417
广西,柳州市,12.007,25.259,14.363,16.449,0.949,18.33,-3.143,-9.205,277.655,75.922,98680.565,24.956,109.372
广西,桂林市,16.967,28.247,11.933,18.164,0.819,18.279,-6.321,-8.561,276.338,79.346,97003.317,25.353,110.513
广西,梧州市,16.974,31.44,10.876,17.026,1.033,17.14,-5.055,-8.635,282.816,69.225,99901.914,23.484,110.996
广西,河池市,13.044,26.781,13.905,12.105,0.887,22.973,-3.626,-7.231,276.85,81.089,96200.694,24.628,107.843
广西,玉林市,24.58,39.893,9.083,16.74,1.086,25.748,-6.451,-9.235,285.086,68.194,100168.472,22.452,110.164
广西,百色市,20.74,37.611,15.819,11.928,0.842,25.821,-3.2,-4.412,278.012,88.674,93952.097,23.981,106.292
广西,贵港市,21.033,33.009,8.213,15.972,1.035,19.18,-5.89,-8.006,283.033,67.826,100788.886,23.322,110.021
广西,贺州市,15.709,29.549,15.229,18.376,0.898,15.006,-5.131,-10.62,279.406,76.059,98113.001,24.364,111.394
广西,钦州市,26.376,39.425,9.464,18.068,1.168,20.638,-4.551,-9.833,284.369,69.564,101298.11,22.173,109.01
广西,防城港市,25.559,42.513,10.642,18.662,1.172,20.038,-3.122,-9.856,282.157,82.246,99663.864,21.88,108.002
新疆,乌鲁木齐市,40.073,62.851,3.191,16.584,0.765,47.075,-1.712,3.478,258.762,60.86,85062.597,43.746,87.818
新疆,五家渠市,95.117,128.713,7.547,41.283,1.4,20.77,2.973,-1.12,256.907,79.367,98459.347,44.363,87.517
新疆,伊犁哈萨克自治州,15.975,18.925,2.695,6.366,0.525,56.717,0.264,0.962,263.002,63.751,80559.727,43.438,82.146
新疆,克孜勒苏柯尔克孜自治州,8.178,27.866,1.357,1.829,0.221,57.19,3.575,-1.996,261.101,46.449,70419.919,39.661,75.949
新疆,克拉玛依市,11.49,19.314,2.712,12.642,0.351,37.759,-4.462,-4.056,260.684,66.428,99481.382,45.457,85.207
新疆,北屯市,2.4,2.328,2.502,3.194,0.628,46.754,-6.48,3.906,262.698,38.298,97601.178,47.27,87.868
新疆,博尔塔拉蒙古自治州,21.21,35.149,7.06,8.281,0.468,49.851,0.846,0.078,257.149,77.683,87193.361,44.714,82.114
新疆,双河市,31.854,58.916,12.628,14.344,0.602,38.038,1.484,-1.476,260.064,78.256,100051.648,44.87,82.474
新疆,可克达拉市,88.884,101.85,13.366,33.85,2.09,31.19,-6.302,0.86,270.626,67.972,95712.79,43.918,80.786
新疆,和田地区,5.0,11.468,1.068,0.956,0.191,57.447,1.048,-1.332,261.441,53.634,74220.914,37.059,80.934
新疆,哈密市,4.572,13.024,1.237,1.314,0.265,48.9,-6.086,2.218,260.446,41.335,89700.123,43.042,93.517
新疆,喀什地区,11.012,28.297,2.322,2.583,0.251,50.151,0.506,-0.709,262.88,54.915,76527.425,38.125,77.178
新疆,图木舒克市,15.397,30.593,5.182,3.223,0.258,35.147,-3.728,-2.057,267.345,67.05,90385.89,39.892,79.182
新疆,塔城地区,9.084,15.708,2.535,6.196,0.273,46.67,-3.684,0.479,258.964,65.646,90847.221,45.642,84.789
新疆,巴音郭楞蒙古自治州,4.673,15.816,1.244,0.831,0.183,52.318,-0.413,0.065,260.133,58.904,79696.192,39.463,87.481
新疆,新星市,40.935,152.87,4.57,16.58,1.21,40.135,-2.175,0.735,265.82,31.42,94359.33,42.75,93.68
新疆,昆玉市,30.02,84.97,6.34,7.627,0.537,44.483,-2.557,0.1,270.243,53.7,87807.027,37.457,79.093
新疆,昌吉回族自治州,23.471,35.96,2.837,10.396,0.487,47.339,-4.319,2.305,260.371,56.3,91170.657,44.342,88.608
新疆,石河子市,64.525,82.38,6.655,32.23,0.9,26.37,2.165,-0.39,258.6,82.885,96383.305,44.245,86.035
新疆,胡杨河市,14.896,20.604,2.742,12.188,0.352,35.064,-1.934,-2.038,257.244,80.708,99993.214,44.852,84.772
新疆,铁门关市,69.347,365.977,6.0,15.3,0.713,62.967,-1.39,0.053,266.323,47.32,93111.96,41.773,85.66
新疆,阿克苏地区,17.635,62.84,4.1,4.736,0.289,44.681,-2.114,-0.685,263.965,63.382,86172.276,40.965,81.578
新疆,阿勒泰地区,1.513,1.698,1.072,1.14,0.326,57.3,-8.356,3.777,259.733,40.872,89875.42,46.902,88.421
新疆,阿拉尔市,30.053,122.946,4.755,8.452,0.392,35.028,-3.906,-1.492,266.978,66.479,91340.348,40.629,80.998
江苏,南京市,26.788,47.469,9.108,22.711,0.569,43.054,0.47,-8.593,271.248,43.425,103720.422,31.899,118.876
江苏,南通市,21.142,37.322,10.457,13.519,0.49,50.427,5.437,-8.502,273.407,61.274,103614.423,32.201,120.979
江苏,宿迁市,24.027,59.222,9.621,19.555,0.504,42.005,2.183,-8.108,268.278,28.036,103996.194,33.765,118.495
江苏,常州市,25.747,45.966,9.659,21.357,0.637,45.326,1.572,-9.418,272.379,50.575,103677.095,31.613,119.666
江苏,徐州市,25.25,68.435,10.029,24.072,0.531,37.509,2.001,-7.526,267.058,21.507,103846.878,34.363,117.513
江苏,扬州市,22.388,49.014,9.412,17.552,0.494,44.912,2.377,-8.893,270.374,41.361,103876.032,32.709,119.486
江苏,无锡市,25.967,48.412,10.268,23.315,0.69,43.622,2.306,-9.439,272.851,54.055,103521.687,31.546,120.066
江苏,泰州市,22.331,47.283,10.96,16.962,0.54,45.63,3.758,-8.916,270.857,45.997,103758.881,32.605,120.048
江苏,淮安市,22.994,54.669,9.224,18.46,0.472,43.458,2.74,-8.321,269.122,34.133,103911.5,33.362,118.985
江苏,盐城市,19.464,43.871,10.745,15.086,0.447,48.878,5.361,-7.884,271.057,53.735,103800.394,33.529,120.156
江苏,苏州市,25.503,47.351,9.182,22.479,0.634,46.348,3.084,-9.939,274.393,60.859,103587.729,31.374,120.661
江苏,连云港市,17.412,52.936,10.212,18.424,0.491,44.387,3.925,-7.638,267.957,36.842,103804.377,34.519,119.133
江苏,镇江市,24.664,46.203,9.254,20.911,0.579,44.852,1.512,-9.188,271.326,45.259,103700.43,32.016,119.49
江西,上饶市,25.087,37.415,9.367,14.418,0.57,37.76,-6.088,-7.253,275.946,65.595,100966.129,28.778,117.47
江西,九江市,31.018,42.837,9.524,13.277,0.573,39.222,-6.449,-8.566,273.958,73.166,101102.213,29.313,115.444
江西,南昌市,28.536,42.901,6.454,14.587,0.578,36.888,-6.217,-9.579,277.323,70.791,102971.654,28.671,116.016
江西,吉安市,20.726,34.383,11.313,16.955,0.614,31.2,-3.313,-8.206,277.171,84.81,100322.719,26.954,114.831
江西,宜春市,26.57,39.442,8.006,15.026,0.603,36.881,-5.588,-8.142,275.694,77.385,100892.609,28.29,114.974
江西,抚州市,20.584,31.723,10.193,13.172,0.42,35.168,-3.79,-7.802,277.59,77.886,100303.339,27.514,116.42
江西,新余市,24.666,39.813,8.593,17.943,0.681,34.591,-4.75,-8.576,276.625,81.267,101831.531,27.847,114.836
江西,景德镇市,25.528,38.375,10.178,12.697,0.54,40.09,-5.061,-7.953,275.263,59.588,101948.495,29.287,117.24
江西,萍乡市,22.893,35.146,9.168,15.205,0.806,32.258,-6.004,-6.332,275.899,83.011,99377.384,27.505,113.908
江西,赣州市,14.236,26.215,12.432,15.917,0.597,26.752,-0.737,-8.288,278.609,86.09,98326.757,25.692,115.279
江西,鹰潭市,22.384,33.637,9.359,14.045,0.475,35.961,-6.761,-6.867,277.368,69.307,101422.987,28.222,117.094
河北,保定市,16.353,32.006,10.071,15.949,0.427,45.574,2.72,-4.17,263.71,22.82,100119.267,39.018,115.159
河北,唐山市,21.509,42.404,10.006,21.37,0.538,36.118,3.396,-4.424,264.338,31.475,103448.72,39.731,118.354
河北,廊坊市,17.043,47.901,6.337,18.711,0.444,40.576,2.941,-5.151,265.206,22.88,104243.446,39.267,116.632
河北,张家口市,6.036,9.088,3.109,4.377,0.293,54.12,6.078,-7.05,253.992,51.709,89024.591,40.877,115.042
河北,承德市,5.118,7.838,2.43,4.258,0.268,55.234,5.466,-7.167,256.289,44.454,92387.69,41.339,117.578
河北,沧州市,22.264,51.679,9.99,20.701,0.536,38.886,3.066,-4.541,264.778,22.52,104293.049,38.258,116.744
河北,石家庄市,25.844,50.503,12.11,23.884,0.629,38.704,2.819,-3.74,265.104,19.882,100802.48,38.135,114.407
河北,秦皇岛市,20.761,35.062,8.775,16.849,0.565,41.364,2.713,-4.401,262.507,37.034,100819.342,40.12,119.193
河北,衡水市,35.676,69.341,11.514,28.33,0.688,34.367,1.651,-3.186,264.848,18.188,104231.425,37.755,115.813
河北,邢台市,34.583,68.642,10.485,28.087,0.699,35.027,1.246,-4.732,265.41,18.587,102617.661,37.195,114.815
河北,邯郸市,34.491,69.031,14.402,30.527,0.807,31.106,0.316,-4.435,265.448,19.09,102110.725,36.538,114.596
河南,三门峡市,24.463,72.868,14.555,21.598,0.652,33.564,0.433,-3.658,263.928,46.993,93715.894,34.362,111.101
河南,信阳市,40.734,64.818,10.718,20.287,0.537,38.244,-3.914,-7.967,269.558,34.775,102829.813,32.091,114.907
河南,南阳市,41.205,67.236,10.663,21.864,0.705,34.444,-3.463,-3.696,268.226,39.427,100704.895,33.034,112.323
河南,周口市,32.727,69.655,10.969,23.295,0.574,38.972,-2.052,-7.231,267.991,17.289,103816.135,33.738,114.884
河南,商丘市,27.05,66.163,10.375,25.505,0.526,38.294,-0.368,-7.336,267.073,16.275,103888.266,34.277,115.718
河南,安阳市,35.082,61.489,16.105,31.295,0.926,30.308,-0.434,-4.843,265.585,18.749,101677.428,35.888,114.318
河南,平顶山市,39.822,69.223,13.791,29.022,0.718,27.373,-1.93,-3.892,267.431,27.513,101469.739,33.8,113.025
河南,开封市,31.453,64.968,12.312,26.56,0.713,37.473,-1.751,-5.908,267.16,16.51,103594.903,34.594,114.514
河南,新乡市,35.403,63.605,14.501,31.279,0.881,31.336,-1.962,-4.267,266.551,17.704,102589.086,35.256,114.111
河南,洛阳市,31.693,70.315,13.431,25.69,0.674,29.756,0.339,-2.407,265.267,47.839,96327.464,34.274,112.019
河南,济源市,32.071,71.942,12.596,27.908,0.638,28.263,0.232,-0.23,266.02,38.153,98364.37,35.105,112.445
河南,漯河市,37.568,71.934,13.695,25.441,0.628,35.013,-2.888,-5.953,268.254,17.277,103684.372,33.652,113.945
河南,濮阳市,35.525,73.458,13.493,29.969,0.783,33.173,0.214,-5.572,265.898,15.622,103917.178,35.809,115.283
河南,焦作市,40.887,77.384,12.453,35.819,0.784,20.733,-1.417,-0.419,267.504,21.456,102376.211,35.121,113.163
河南,许昌市,34.629,67.219,14.448,29.668,0.719,30.539,-2.664,-4.839,267.609,18.24,102961.338,34.075,113.707
河南,郑州市,34.134,67.07,12.936,34.46,0.801,23.955,-2.079,-2.812,266.726,21.188,101525.987,34.634,113.438
河南,驻马店市,40.372,71.464,10.273,21.647,0.563,37.591,-3.228,-7.159,268.742,21.692,103272.14,32.925,114.174
河南,鹤壁市,37.936,62.697,16.652,34.422,1.021,27.648,-0.907,-5.247,266.19,17.316,102986.759,35.716,114.319
浙江,丽水市,24.841,37.403,8.61,16.966,0.509,41.213,-3.307,-6.501,273.812,82.099,95814.61,28.194,119.51
浙江,台州市,25.539,39.152,8.962,17.566,0.517,47.081,0.352,-9.345,277.342,72.397,100318.442,28.742,121.109
浙江,嘉兴市,29.01,50.309,8.769,25.028,0.655,42.84,1.843,-9.093,275.423,61.639,103527.547,30.635,120.754
浙江,宁波市,26.519,41.625,9.05,22.257,0.582,48.24,1.925,-9.437,277.608,70.716,102013.129,29.706,121.49
浙江,杭州市,28.694,44.441,9.511,18.891,0.599,42.903,-1.011,-7.818,273.463,66.442,100417.774,29.891,119.464
浙江,温州市,22.657,33.95,8.197,14.996,0.451,45.28,-0.534,-8.784,277.494,72.057,98978.092,27.897,120.411
浙江,湖州市,26.994,44.026,9.353,19.588,0.619,45.643,1.69,-8.469,273.464,61.387,102267.57,30.757,119.871
浙江,绍兴市,30.839,49.971,8.159,25.465,0.672,42.249,0.711,-8.378,275.438,71.423,101228.252,29.709,120.64
浙江,舟山市,17.53,26.282,8.34,11.455,0.388,56.408,2.432,-11.242,279.698,71.965,103002.292,30.038,122.23
浙江,衢州市,26.96,39.824,9.488,18.778,0.576,38.409,-5.649,-6.676,274.716,69.592,99475.385,28.912,118.675
浙江,金华市,29.209,46.476,8.359,22.889,0.609,39.537,-1.828,-7.946,274.645,73.749,99763.303,29.109,119.967
海南,万宁市,22.139,44.662,11.713,5.939,0.499,75.749,-6.247,-8.546,292.799,83.716,100453.293,18.842,110.294
海南,三亚市,18.483,42.261,8.921,6.146,0.504,80.071,-8.616,-6.26,293.17,72.747,99080.994,18.413,109.407
海南,东方市,27.301,48.039,17.152,7.3,0.536,71.121,-7.978,-5.112,293.307,72.25,99775.547,18.971,108.838
海南,临高县,18.991,42.174,10.589,7.991,0.589,67.604,-8.573,-5.303,292.366,79.791,101156.976,19.821,109.733
海南,乐东黎族自治县,23.206,44.852,13.77,6.197,0.513,75.807,-8.157,-5.718,292.543,73.858,98194.532,18.659,109.072
海南,五指山市,25.088,48.59,14.14,6.386,0.534,74.06,-7.874,-6.378,289.494,87.018,94988.132,18.81,109.518
海南,儋州市,23.161,46.306,15.226,7.964,0.581,66.89,-8.489,-4.416,292.347,79.911,100773.056,19.568,109.399
海南,定安县,13.907,36.323,6.368,7.162,0.565,69.683,-6.708,-5.905,292.362,80.395,100820.475,19.47,110.28
海南,屯昌县,15.672,38.934,8.862,7.246,0.572,70.204,-6.084,-5.174,291.766,82.816,100017.254,19.342,110.076
海南,文昌市,15.039,37.622,7.398,7.211,0.529,69.927,-8.336,-8.07,293.03,79.192,101609.863,19.707,110.773
海南,昌江黎族自治县,28.659,51.109,17.736,7.661,0.56,70.086,-9.424,-5.379,291.594,81.544,98796.256,19.233,109.016
海南,海口市,14.197,37.053,6.152,7.898,0.588,68.909,-8.226,-6.683,292.549,79.829,101437.466,19.842,110.393
海南,澄迈县,15.494,38.716,7.561,8.351,0.6,67.114,-7.506,-5.269,292.181,81.104,100973.091,19.676,109.989
海南,琼中黎族苗族自治县,20.987,45.249,13.038,6.781,0.558,71.347,-5.806,-5.134,290.352,88.919,97763.508,19.087,109.847
海南,琼海市,15.438,37.78,9.248,6.26,0.522,74.133,-5.847,-6.477,293.125,79.7,101348.332,19.22,110.43
海南,白沙黎族自治县,23.898,48.052,16.234,7.206,0.57,71.415,-7.144,-4.018,290.214,88.386,97463.549,19.2,109.388
海南,陵水黎族自治县,21.414,45.06,11.623,6.016,0.504,77.619,-6.71,-8.509,292.674,80.016,99711.976,18.581,109.913
湖北,仙桃市,37.046,51.932,6.998,16.836,0.667,32.589,-5.029,-10.424,272.159,55.474,103669.139,30.284,113.417
湖北,十堰市,42.767,61.558,13.05,16.482,0.677,35.748,-3.059,0.015,266.553,72.248,95318.637,32.462,110.476
湖北,咸宁市,33.339,43.908,6.535,17.879,0.578,32.124,-4.574,-7.289,273.588,76.632,101434.101,29.621,114.178
湖北,天门市,40.955,60.035,8.581,18.103,0.701,34.474,-4.881,-9.436,271.776,50.535,103711.84,30.633,113.053
湖北,孝感市,37.067,56.956,7.532,16.997,0.6,35.93,-5.058,-9.938,270.991,44.125,103073.283,31.116,113.869
湖北,宜昌市,48.511,61.848,10.629,22.641,0.697,31.667,-3.599,-4.855,267.582,67.863,96055.877,30.746,111.129
湖北,恩施土家族苗族自治州,32.219,44.825,13.092,13.198,0.532,40.887,-5.533,-0.394,268.183,79.105,90922.055,30.195,109.552
湖北,武汉市,34.672,48.568,6.286,18.622,0.593,32.721,-4.57,-10.027,273.008,52.387,103517.884,30.606,114.349
湖北,潜江市,42.409,62.471,8.168,18.656,0.757,33.048,-4.766,-9.718,271.772,56.527,103691.429,30.33,112.77
湖北,神农架林区,34.953,44.963,12.582,9.805,0.496,44.049,-2.702,-1.905,262.206,83.62,83928.385,31.592,110.49
湖北,荆州市,45.474,62.93,7.637,20.308,0.783,30.239,-3.982,-10.405,271.937,64.04,103392.875,30.01,112.512
湖北,荆门市,45.556,64.575,9.979,22.264,0.73,32.269,-2.886,-8.896,270.636,48.125,102685.863,31.059,112.616
湖北,襄阳市,43.143,65.233,10.268,22.473,0.741,30.569,-2.088,-5.198,267.875,49.045,99841.143,31.919,111.96
湖北,鄂州市,30.816,45.5,5.886,18.066,0.54,33.883,-2.98,-7.374,274.78,53.986,103472.893,30.337,114.794
湖北,随州市,41.158,64.082,9.814,20.149,0.626,36.208,-4.72,-7.797,269.437,35.898,101965.706,31.809,113.43
湖北,黄冈市,32.518,46.254,8.728,15.105,0.511,39.155,-5.449,-7.796,272.318,51.557,101591.838,30.702,115.358
湖北,黄石市,32.291,45.901,6.985,16.79,0.561,36.09,-4.93,-5.077,274.465,65.971,102347.456,29.925,115.034
湖南,娄底市,26.221,35.517,6.263,21.052,0.929,20.274,-3.076,-9.913,271.672,84.666,98958.505,27.715,111.632
湖南,岳阳市,34.123,44.53,6.241,17.595,0.701,29.397,-4.961,-9.201,274.216,75.91,102149.242,29.081,113.275
湖南,常德市,45.519,60.794,8.642,21.528,0.858,26.997,-3.746,-10.158,270.698,74.675,101500.875,29.271,111.524
湖南,张家界市,35.509,49.651,8.916,18.153,0.651,33.922,-7.242,-6.121,269.318,73.996,97171.952,29.379,110.526
湖南,怀化市,24.515,36.885,8.29,16.482,0.81,25.119,-5.387,-7.039,271.421,82.137,97990.576,27.535,110.071
湖南,株洲市,21.292,31.511,9.412,17.002,0.708,25.95,-4.279,-6.413,276.859,82.505,99486.841,27.109,113.513
湖南,永州市,23.005,33.323,8.079,24.201,0.778,13.738,-3.231,-9.019,275.545,88.878,97910.717,25.748,111.723
湖南,湘潭市,29.157,31.879,4.858,28.549,0.777,11.643,-1.537,-9.323,275.348,89.68,102105.406,27.744,112.619
湖南,湘西土家族苗族自治州,27.181,38.431,6.147,15.159,0.657,31.913,-7.192,-3.699,269.944,81.225,97031.165,28.708,109.718
湖南,益阳市,38.124,48.144,5.901,19.347,0.935,24.988,-3.05,-10.301,271.596,84.01,100800.65,28.525,111.919
湖南,衡阳市,19.387,25.288,5.88,24.345,0.711,14.614,-1.626,-8.986,276.8,87.923,101419.128,26.781,112.565
湖南,邵阳市,23.774,34.457,8.689,20.636,0.811,20.163,-5.084,-7.25,271.915,87.522,96467.282,26.893,110.881
湖南,郴州市,15.074,25.113,8.517,21.833,0.727,17.482,-1.445,-7.607,276.837,88.262,96933.069,25.769,113.109
湖南,长沙市,28.06,36.871,5.345,19.952,0.737,24.159,-3.297,-8.142,275.246,80.394,101490.97,28.235,113.159
甘肃,临夏回族自治州,44.027,83.891,22.895,20.547,0.756,39.588,-0.976,-1.164,257.915,81.486,78021.817,35.617,103.291
甘肃,兰州市,28.049,58.604,18.61,20.487,0.57,36.485,-1.355,-0.017,257.921,82.116,79815.199,36.359,103.633
甘肃,嘉峪关市,41.55,189.332,10.698,35.622,0.778,43.613,-5.203,1.587,254.523,70.813,82563.938,39.798,98.145
甘肃,天水市,32.491,59.858,17.501,15.364,0.55,43.13,-4.086,-0.234,261.23,76.942,83689.263,34.645,105.739
甘肃,定西市,45.381,83.091,23.122,16.936,0.689,39.76,-2.705,0.351,258.33,83.316,77769.175,35.124,104.432
甘肃,平凉市,21.114,47.535,12.531,13.968,0.477,44.342,-2.696,-2.08,260.692,79.9,85798.808,35.304,106.644
甘肃,庆阳市,9.301,22.169,8.562,6.391,0.335,49.82,-1.993,-2.79,259.798,62.53,87260.661,36.149,107.596
甘肃,张掖市,14.526,43.098,5.11,4.815,0.256,55.505,0.458,-0.435,256.798,60.172,74991.243,38.94,99.855
甘肃,武威市,11.979,22.874,10.405,8.38,0.328,43.379,-2.436,0.257,256.286,59.935,82438.884,38.163,103.073
甘肃,甘南藏族自治州,46.366,63.642,18.5,10.461,0.592,51.179,-1.834,-0.965,256.581,77.676,67306.517,34.331,102.768
甘肃,白银市,24.153,50.036,16.377,16.272,0.517,37.166,-2.427,0.357,258.578,81.622,82444.513,36.59,104.646
甘肃,酒泉市,3.605,10.37,1.712,2.094,0.204,54.879,-4.67,1.034,256.59,53.332,79783.145,40.236,96.062
甘肃,金昌市,13.081,31.15,13.199,7.67,0.336,43.662,-2.282,1.876,255.672,64.452,81498.464,38.44,102.048
甘肃,陇南市,39.526,62.6,17.469,17.701,0.674,44.409,-2.95,-2.54,261.524,81.982,83129.584,33.599,105.224
福建,三明市,11.693,20.56,9.731,9.967,0.398,38.885,-2.703,-4.545,279.408,80.831,96168.147,26.29,117.395
福建,南平市,14.279,23.788,10.406,12.158,0.437,38.578,-3.557,-4.887,278.203,72.092,97090.303,27.324,118.143
福建,厦门市,13.158,24.53,8.263,15.0,0.407,54.767,-6.993,-12.26,285.633,67.875,101275.047,24.642,118.11
福建,宁德市,15.527,24.78,9.631,11.809,0.39,46.454,-2.874,-6.738,278.098,75.877,96352.705,26.968,119.474
福建,泉州市,12.158,21.018,7.335,10.494,0.373,56.0,-5.337,-8.622,282.567,76.032,97465.187,25.201,118.249
福建,漳州市,11.987,21.819,7.884,12.617,0.41,53.761,-6.137,-7.64,285.156,71.088,99015.589,24.372,117.444
福建,福州市,12.636,22.449,7.216,12.317,0.4,51.018,-4.424,-8.555,281.322,75.361,98420.909,26.083,119.206
福建,莆田市,12.799,21.689,7.282,11.332,0.384,55.579,-5.599,-11.156,282.751,74.874,99086.481,25.445,118.864
福建,龙岩市,12.791,21.622,10.123,10.438,0.427,43.52,-2.636,-5.33,282.376,77.69,95990.897,25.256,116.739
西藏,山南市,8.93,10.643,0.869,1.42,0.158,88.46,4.779,4.642,266.359,65.006,65561.983,28.295,92.274
西藏,拉萨市,3.391,5.968,0.396,1.527,0.175,88.084,10.079,5.194,258.424,40.944,55593.685,30.043,91.093
西藏,日喀则市,3.196,3.841,0.349,0.597,0.151,86.532,6.06,-0.705,254.772,49.274,54351.04,29.483,86.493
西藏,昌都市,2.993,4.176,0.396,0.472,0.131,90.637,8.029,11.67,261.907,52.278,58314.716,30.753,97.044
西藏,林芝市,5.295,6.005,0.678,1.354,0.137,86.219,1.585,6.546,266.504,67.536,65888.368,29.184,95.25
西藏,玉树藏族自治州,1.091,1.3,0.169,0.205,0.129,72.41,0.454,-1.329,251.074,70.184,56405.158,34.196,94.317
西藏,那曲市,1.191,1.383,0.122,0.145,0.143,78.875,3.31,-1.504,253.089,58.411,54433.038,32.709,89.262
西藏,阿里地区,0.55,0.623,0.088,0.586,0.137,81.106,1.776,-4.974,250.897,49.109,54021.214,33.013,82.553
贵州,六盘水市,14.873,28.802,15.646,16.754,0.988,24.616,-3.857,-2.027,273.642,91.779,83719.904,26.106,104.896
贵州,安顺市,13.773,25.982,12.16,13.264,0.75,26.481,-4.514,-3.842,274.428,85.485,89067.553,25.986,105.978
贵州,毕节市,17.584,27.037,11.992,15.686,0.869,25.524,-2.632,-2.453,270.69,92.638,84171.149,27.063,105.211
贵州,贵阳市,13.771,20.891,9.64,14.854,0.695,25.872,-4.669,-2.729,271.085,91.239,89227.994,26.845,106.71
贵州,遵义市,22.47,29.585,16.573,12.738,0.629,31.379,-6.066,0.761,270.689,88.459,91657.773,28.167,107.102
贵州,铜仁市,21.279,33.224,14.455,13.521,0.809,29.144,-6.556,-2.936,269.91,87.738,94250.291,27.937,108.534
贵州,黔东南苗族侗族自治州,14.887,26.57,19.72,15.533,0.808,23.345,-4.69,-6.768,271.026,90.006,93960.075,26.495,108.574
贵州,黔南布依族苗族自治州,15.024,23.054,16.022,12.709,0.702,27.258,-4.5,-5.15,272.364,88.638,91432.955,26.0,107.265
贵州,黔西南布依族苗族自治州,16.734,32.451,17.972,12.741,0.847,25.334,-4.085,-2.542,275.847,91.075,89424.854,25.256,105.467
辽宁,丹东市,17.623,41.072,11.979,16.516,0.611,42.289,3.707,-6.363,258.113,46.127,100222.566,40.554,124.376
辽宁,大连市,12.549,34.204,7.853,11.772,0.389,53.238,2.546,-7.647,263.356,48.209,102874.67,39.591,122.22
辽宁,抚顺市,27.882,56.727,11.779,21.724,0.661,37.487,5.569,-3.373,255.839,49.192,98293.969,41.841,124.65
辽宁,朝阳市,12.694,29.189,9.243,10.198,0.473,50.457,4.923,-7.795,259.654,33.842,98190.743,41.545,120.053
辽宁,本溪市,22.556,51.306,13.147,21.428,0.712,37.811,4.9,-5.61,255.696,51.355,97574.288,41.232,124.544
辽宁,沈阳市,17.006,49.741,8.397,14.186,0.473,41.852,5.194,-5.061,260.042,32.241,103027.531,42.081,123.159
辽宁,盘锦市,18.829,58.427,12.076,18.285,0.563,41.481,3.587,-6.091,261.815,31.616,103882.762,41.13,122.01
辽宁,营口市,17.797,62.131,12.256,19.647,0.608,42.943,3.307,-7.1,259.963,41.231,101362.252,40.395,122.478
辽宁,葫芦岛市,22.129,41.595,13.223,16.607,0.673,44.37,3.097,-6.608,262.035,28.148,101227.853,40.66,120.215
辽宁,辽阳市,21.439,69.675,13.837,21.652,0.784,35.807,4.494,-5.399,259.061,38.727,101540.764,41.153,123.261
辽宁,铁岭市,24.233,50.027,8.586,15.66,0.499,43.352,5.953,-3.628,257.94,38.82,101169.507,42.653,124.158
辽宁,锦州市,15.512,42.556,10.177,12.222,0.47,47.303,4.275,-6.831,261.487,30.764,102983.901,41.502,121.659
辽宁,阜新市,8.062,21.173,4.265,4.302,0.29,53.485,6.321,-7.356,259.829,34.127,101269.365,42.289,121.968
辽宁,鞍山市,18.45,60.451,12.405,18.383,0.713,40.555,4.243,-6.436,259.541,39.442,101613.396,40.731,123.007
重庆,重庆城区,29.243,38.626,13.708,16.659,0.608,32.757,-5.416,2.173,275.29,68.536,96486.238,29.824,107.125
重庆,重庆郊县,30.567,41.796,16.483,12.664,0.549,38.609,-6.604,-0.168,270.175,72.931,92536.819,30.334,108.755
陕西,咸阳市,20.201,44.707,10.631,19.51,0.566,40.584,-1.879,-1.834,265.072,61.159,93425.146,34.779,108.367
陕西,商洛市,34.012,63.661,14.658,19.083,0.627,38.215,-2.084,-3.735,264.795,49.142,90986.535,33.64,109.889
陕西,安康市,41.576,56.177,16.059,17.777,0.685,37.782,-5.546,-1.48,266.054,67.038,91496.953,32.735,108.932
陕西,宝鸡市,22.792,43.571,10.241,14.21,0.522,46.984,-3.099,-2.426,262.183,78.404,87789.747,34.386,107.193
陕西,延安市,11.547,23.375,13.139,13.79,0.443,47.098,-0.764,-5.03,259.08,50.23,89216.862,36.432,109.316
陕西,榆林市,12.924,26.867,15.367,22.096,0.485,40.312,0.267,-4.274,257.229,49.192,89678.01,38.041,109.581
陕西,汉中市,40.759,55.943,12.637,18.471,0.798,38.939,-5.429,-1.349,266.484,67.648,90419.688,33.088,107.098
陕西,渭南市,21.084,49.533,11.763,19.929,0.509,42.161,-1.2,-3.708,266.072,42.188,95985.278,34.919,109.855
陕西,西安市,32.787,63.083,10.252,24.14,0.725,36.812,-2.045,-2.559,264.614,58.889,92385.886,34.12,108.77
陕西,铜川市,15.089,31.4,12.016,14.866,0.421,46.246,-0.453,-6.734,262.236,48.018,90908.343,35.198,109.058
青海,保亭黎族苗族自治县,20.894,44.652,10.862,6.3,0.514,77.96,-7.492,-6.988,291.446,80.462,97512.802,18.566,109.618
青海,吐鲁番市,13.371,44.075,2.791,2.982,0.45,44.606,-1.056,-0.656,261.757,50.662,91742.211,42.386,89.851
青海,果洛藏族自治州,4.452,4.907,1.218,1.081,0.139,73.613,4.679,1.023,255.865,66.934,59200.84,34.127,99.404
青海,海东市,32.529,50.278,21.398,21.48,0.67,33.743,-0.598,0.014,256.052,81.056,72908.555,36.347,102.34
青海,海北藏族自治州,9.306,12.5,4.119,3.911,0.22,65.074,0.408,-0.511,254.705,69.63,64937.723,37.775,100.288
青海,海南藏族自治州,18.858,22.003,8.219,6.212,0.258,50.382,0.993,-1.127,255.437,78.196,66156.536,35.89,100.272
青海,海西蒙古族藏族自治州,1.081,1.303,0.496,0.507,0.143,63.341,1.38,-0.877,254.4,62.052,64132.062,36.677,94.519
青海,西宁市,26.536,50.348,14.296,20.7,0.766,42.697,0.104,0.279,255.002,81.026,69459.197,36.842,101.423
青海,黄南藏族自治州,38.181,45.03,14.208,9.799,0.47,42.964,-0.373,-1.376,255.064,78.72,65399.61,35.022,101.631
香港,香港特别行政区,21.4,35.575,9.33,22.2,0.675,34.535,-5.29,-10.61,287.945,70.545,101685.66,22.45,114.22
黑龙江,七台河市,12.052,21.841,2.435,5.266,0.326,55.714,11.886,-2.992,252.292,66.013,98626.197,45.87,130.943
黑龙江,伊春市,2.174,2.451,1.425,1.84,0.233,60.254,7.937,-4.744,249.05,67.273,97161.329,47.772,129.184
黑龙江,佳木斯市,5.147,8.453,1.726,2.987,0.275,57.694,8.813,-1.504,252.26,61.799,100524.061,47.207,132.11
黑龙江,双鸭山市,5.475,8.211,2.621,4.465,0.261,57.476,9.775,-1.826,251.868,65.832,100034.842,46.722,132.643
黑龙江,哈尔滨市,17.665,22.728,7.025,9.103,0.466,49.341,8.333,-1.696,253.534,57.03,99540.558,45.634,127.964
黑龙江,大兴安岭地区,0.467,0.358,0.751,0.868,0.216,62.799,6.332,-7.179,247.175,60.745,95885.06,52.286,124.212
黑龙江,大庆市,9.977,13.41,5.352,6.729,0.294,49.769,6.638,-6.03,255.3,40.747,101355.08,46.327,124.687
黑龙江,牡丹江市,12.653,18.457,3.964,5.842,0.307,51.383,11.412,-2.099,252.261,60.57,95762.912,44.592,129.883
黑龙江,绥化市,12.493,14.897,3.721,5.64,0.346,53.3,6.529,-5.03,253.059,53.574,100173.602,46.89,126.634
黑龙江,鸡西市,7.483,11.008,2.666,5.089,0.274,56.608,10.439,-3.642,253.336,63.553,99872.693,45.626,132.289
黑龙江,鹤岗市,2.273,3.392,1.562,2.221,0.253,61.194,8.943,-5.189,250.788,60.064,99574.75,47.661,130.778
黑龙江,黑河市,1.81,3.38,1.177,1.649,0.245,61.175,5.336,-6.56,249.116,65.48,97891.368,49.268,127.004
黑龙江,齐齐哈尔市,6.36,7.915,3.592,3.038,0.258,54.413,5.72,-7.092,253.821,45.368,100376.164,47.715,124.57
