province,city,PM2.5,PM10,SO2,NO2,CO,O3,U,V,TEMP,RH,PSFC,lat,lon
上海,上海市,27.332,42.058,6.364,37.858,0.473,39.238,-2.46,4.219,290.93,90.651,101846.384,31.173,121.42
云南,临沧市,17.036,23.469,5.393,4.843,0.452,53.143,3.797,2.428,285.815,72.651,84017.45,23.935,99.686
云南,丽江市,8.687,12.59,3.03,4.561,0.508,71.312,7.379,1.26,279.58,44.386,74463.641,26.96,100.515
云南,保山市,18.906,32.16,5.744,7.074,0.453,48.291,3.124,1.408,283.343,77.866,81943.184,24.953,98.962
云南,大理白族自治州,13.072,21.579,4.523,5.071,0.468,64.804,6.358,2.101,281.339,66.532,78082.595,25.726,100.053
云南,德宏傣族景颇族自治州,21.955,32.132,7.882,6.014,0.378,51.816,0.752,0.817,285.899,77.779,86188.0,24.535,98.052
云南,怒江傈僳族自治州,9.59,14.193,1.677,2.127,0.244,70.232,3.075,1.167,275.691,69.839,72687.79,26.916,98.885
云南,文山壮族苗族自治州,27.026,35.045,8.82,6.062,0.443,57.903,5.301,5.402,289.078,73.382,86580.618,23.696,104.735
云南,昆明市,15.839,25.113,9.199,12.845,0.549,58.338,8.682,4.722,283.118,70.379,79193.127,25.384,102.863
云南,昭通市,46.166,59.679,8.617,12.568,0.63,55.468,3.477,1.475,284.089,61.417,83808.557,27.667,103.985
云南,普洱市,16.504,23.688,5.261,7.334,0.335,49.794,3.22,2.209,287.78,73.963,86107.297,23.159,100.718
云南,曲靖市,14.383,25.121,8.642,9.222,0.428,63.538,10.946,5.07,284.599,59.054,79882.858,25.737,103.929
云南,楚雄彝族自治州,17.968,22.559,6.182,6.487,0.547,60.65,6.425,4.266,284.112,66.811,80969.699,25.328,101.567
云南,玉溪市,15.676,20.638,5.936,6.142,0.368,60.993,5.349,3.564,286.025,73.737,83556.447,24.136,102.217
云南,红河哈尼族彝族自治州,17.39,23.351,7.18,4.771,0.329,61.251,4.188,3.59,287.687,75.651,85260.53,23.451,103.034
云南,西双版纳傣族自治州,19.785,35.763,5.674,12.4,0.372,36.884,1.785,1.971,290.588,77.531,89120.263,21.939,100.912
云南,迪庆藏族自治州,6.89,7.896,1.376,1.51,0.242,77.143,6.249,1.237,272.274,55.859,67022.214,27.957,99.459
内蒙古,乌兰察布市,37.198,82.467,20.682,21.703,0.555,48.201,8.746,3.324,271.609,55.993,85559.625,41.691,112.44
内蒙古,乌海市,85.374,439.655,21.078,21.875,0.612,55.298,6.381,-5.212,271.731,43.764,87780.189,39.396,106.856
内蒙古,兴安盟,28.497,47.554,15.162,10.285,0.475,41.38,7.392,6.574,276.177,56.632,93725.104,46.244,121.341
内蒙古,包头市,27.07,66.929,13.794,21.49,0.468,48.812,8.384,2.331,270.27,49.262,85621.329,41.549,110.276
内蒙古,呼伦贝尔市,13.319,19.411,9.697,6.092,0.261,35.995,3.423,2.973,266.486,77.501,92115.258,49.636,121.171
内蒙古,呼和浩特市,61.64,175.431,24.991,34.995,0.826,37.728,5.465,2.058,271.507,58.414,86080.961,40.578,111.513
内蒙古,巴彦淖尔市,17.958,41.064,4.139,6.09,0.256,63.589,10.619,0.615,269.094,42.803,87214.585,41.446,107.582
内蒙古,赤峰市,44.57,67.095,20.143,20.353,0.644,44.718,8.585,6.651,276.211,60.026,91333.104,43.226,118.892
内蒙古,通辽市,46.4,71.09,22.152,17.353,0.676,42.074,6.187,10.623,279.21,63.879,97377.516,43.814,121.591
内蒙古,鄂尔多斯市,39.691,144.6,11.543,13.742,0.398,52.166,6.262,-1.272,271.837,50.608,86988.31,39.407,108.63
内蒙古,锡林郭勒盟,21.592,32.232,16.237,8.308,0.301,48.219,9.385,5.442,272.942,60.046,88295.906,44.179,115.482
内蒙古,阿拉善盟,14.074,22.255,1.119,0.815,0.164,73.162,6.923,-3.206,266.955,42.517,87842.325,40.473,102.467
北京,北京市,148.352,203.316,9.176,66.029,2.003,8.843,0.456,1.353,277.52,76.449,97803.507,40.158,116.395
台湾,台湾省,14.175,17.501,7.266,22.233,0.21,65.871,-1.348,-0.62,292.415,61.479,93350.296,23.757,120.975
吉林,吉林市,27.738,40.22,12.697,11.309,0.519,63.232,2.972,11.097,275.16,62.349,97266.67,43.573,126.859
吉林,四平市,31.282,55.585,13.312,15.111,0.613,58.499,4.412,13.393,278.126,79.368,99288.977,43.472,124.386
吉林,延边朝鲜族自治州,25.667,33.369,12.322,13.226,0.531,45.939,3.875,6.57,274.194,48.497,94471.955,43.141,129.147
吉林,松原市,39.432,73.084,18.2,15.196,0.636,45.155,6.224,13.516,278.547,77.002,99342.326,44.785,124.496
吉林,白城市,49.407,92.264,18.071,16.908,0.86,40.458,5.705,11.433,279.334,55.504,99149.06,45.35,123.031
吉林,白山市,33.183,51.503,19.883,19.463,1.162,38.597,1.998,8.586,273.607,50.982,92615.662,42.063,127.256
吉林,辽源市,29.195,45.382,13.003,13.382,0.685,55.069,3.759,12.271,276.671,68.758,97620.037,42.836,125.32
吉林,通化市,38.127,61.757,24.214,24.488,1.337,30.828,1.08,10.037,274.651,58.584,96049.103,41.939,125.927
吉林,长春市,33.155,56.921,13.187,15.835,0.596,58.467,5.367,13.007,277.16,76.487,99160.008,44.268,125.611
四川,乐山市,58.848,77.586,7.044,23.223,0.754,30.62,-0.165,-1.45,282.269,81.91,89344.401,29.218,103.569
四川,内江市,77.631,108.638,6.782,23.61,0.88,28.39,-0.39,-4.357,285.227,82.551,96478.951,29.62,104.95
四川,凉山彝族自治州,12.713,16.613,4.818,6.859,0.465,66.241,6.743,3.802,279.683,40.18,73862.699,27.883,102.065
四川,南充市,49.159,67.672,9.581,17.113,0.889,26.538,-2.057,-3.808,285.773,78.433,96522.154,31.19,106.199
四川,宜宾市,79.647,100.556,9.886,26.243,0.876,33.378,0.169,-2.931,285.947,78.123,94801.451,28.573,104.621
四川,巴中市,49.414,67.044,13.038,13.431,0.851,31.878,-3.288,-2.524,283.304,80.013,92252.834,32.033,107.031
四川,广元市,37.104,57.425,10.193,16.699,0.83,24.338,-1.925,-3.882,281.813,75.103,91399.419,32.261,105.788
四川,广安市,48.584,71.112,10.362,23.339,0.913,21.494,-1.91,-2.69,287.111,77.05,96481.625,30.43,106.628
四川,德阳市,42.243,64.313,5.903,24.54,0.719,20.067,-2.227,-3.054,282.436,77.547,92970.542,31.13,104.436
四川,成都市,51.167,76.741,7.211,30.302,0.802,18.974,-1.601,-2.447,282.696,79.79,93110.562,30.64,103.929
四川,攀枝花市,17.177,28.707,15.05,26.326,1.269,48.38,4.67,4.53,285.157,42.566,81331.313,26.791,101.734
四川,泸州市,63.704,85.842,10.506,24.478,0.827,34.975,1.041,-2.033,286.51,72.195,93132.943,28.424,105.675
四川,甘孜藏族自治州,2.719,3.342,0.403,1.566,0.141,78.154,5.272,2.311,266.039,48.957,60753.847,30.936,100.009
四川,眉山市,60.694,86.356,7.388,27.652,0.845,22.552,-0.916,-1.968,283.11,85.87,93562.72,29.912,103.766
四川,绵阳市,32.034,46.188,6.616,13.762,0.534,37.167,-1.561,-3.142,279.978,70.369,87732.49,31.86,104.704
四川,自贡市,82.504,109.361,7.414,24.977,0.877,29.588,-0.586,-3.959,285.999,79.301,96449.864,29.307,104.659
四川,资阳市,68.459,97.366,6.334,20.641,0.836,26.59,-0.986,-4.198,284.762,83.954,96741.611,30.102,105.149
四川,达州市,47.571,68.83,13.523,17.751,0.879,33.113,-3.03,-0.648,285.078,80.438,93823.692,31.335,107.636
四川,遂宁市,54.037,80.884,6.443,19.283,0.803,24.603,-1.344,-4.385,285.183,79.889,96986.753,30.642,105.457
四川,阿坝藏族羌族自治州,5.319,7.883,1.047,3.654,0.195,70.364,4.568,1.148,268.106,46.682,65055.289,32.406,102.61
四川,雅安市,37.32,51.204,6.592,14.56,0.495,55.845,-0.081,-0.962,278.517,66.945,79710.017,29.932,102.689
天津,天津市,130.095,170.799,12.891,62.865,2.316,1.717,0.398,0.733,280.818,81.459,101609.504,39.315,117.308
宁夏,中卫市,92.995,142.326,5.63,9.845,0.408,54.019,3.847,-3.557,270.921,53.563,83617.248,37.018,105.509
宁夏,吴忠市,82.064,231.289,8.993,9.647,0.338,49.836,4.623,-2.023,271.98,54.65,85154.869,37.454,106.577
宁夏,固原市,84.961,218.424,7.143,14.844,0.593,50.216,2.242,-3.375,270.181,66.512,80867.221,35.905,106.183
宁夏,石嘴山市,72.059,372.659,13.998,18.164,0.526,53.924,6.534,-5.547,272.386,40.763,86790.71,39.013,106.499
宁夏,银川市,90.694,485.791,11.299,20.039,0.513,48.942,3.059,-2.156,273.701,42.134,87129.856,38.287,106.342
安徽,亳州市,107.815,149.749,9.213,34.309,1.186,18.834,-0.897,0.545,285.512,88.46,101464.4,33.44,116.162
安徽,六安市,120.236,180.554,8.428,33.48,1.3,44.584,-0.715,1.629,285.803,82.147,98956.824,31.617,116.209
安徽,合肥市,123.955,164.282,7.222,46.716,1.357,27.486,-1.575,0.74,286.072,84.348,101366.582,31.766,117.359
安徽,安庆市,91.49,119.821,9.051,28.955,1.236,38.631,-0.707,0.151,286.634,81.751,99405.61,30.557,116.473
安徽,宣城市,58.702,82.427,8.332,33.06,1.0,30.494,-1.171,3.74,288.582,81.877,99370.792,30.676,118.846
安徽,宿州市,77.842,108.191,9.426,33.621,0.923,23.691,-1.107,1.323,285.877,88.462,101418.151,33.844,117.23
安徽,池州市,59.318,75.944,9.424,25.223,0.938,31.238,-0.938,3.194,287.955,77.91,99579.517,30.296,117.379
安徽,淮北市,90.544,124.9,9.686,32.964,1.025,20.19,-1.157,0.92,285.622,89.365,101464.985,33.722,116.747
安徽,淮南市,132.171,191.53,8.968,46.208,1.262,27.59,-1.4,1.424,286.447,84.505,101520.881,32.463,116.746
安徽,滁州市,99.928,135.494,8.734,52.108,1.022,17.703,-1.241,2.199,285.935,87.418,101267.904,32.55,118.076
安徽,芜湖市,84.325,109.438,8.503,43.838,1.414,27.896,-1.197,1.297,287.968,76.067,101537.274,31.167,118.162
安徽,蚌埠市,104.78,147.062,11.258,41.197,0.991,23.94,-1.046,1.477,286.662,82.295,101499.462,33.121,117.263
安徽,铜陵市,94.981,131.194,8.834,47.009,1.575,27.817,-0.574,0.595,287.396,77.492,101387.103,30.883,117.531
安徽,阜阳市,128.774,183.816,8.533,35.77,1.414,22.04,-0.832,0.28,285.741,86.729,101441.148,32.937,115.723
安徽,马鞍山市,79.494,109.968,7.896,49.26,1.323,18.224,-2.304,1.262,287.198,81.724,101550.218,31.622,118.386
安徽,黄山市,50.8,71.2,10.287,23.29,0.834,32.763,-1.303,2.97,287.731,81.958,97404.295,29.869,118.09
山东,东营市,81.339,119.897,12.651,37.715,1.053,13.454,-0.03,2.109,284.188,94.897,101723.635,37.57,118.572
山东,临沂市,46.906,90.459,7.451,34.895,0.69,31.766,-0.418,2.642,284.808,94.947,99948.774,35.289,118.27
山东,威海市,30.385,59.076,6.414,11.192,0.479,73.822,-4.08,6.41,285.572,90.445,101258.954,37.148,122.028
山东,德州市,167.309,244.841,13.792,67.978,2.065,4.387,0.368,1.978,282.664,91.093,101583.818,37.233,116.679
山东,日照市,42.597,84.793,8.97,27.553,0.496,56.332,0.024,3.763,285.307,94.8,100070.985,35.566,119.108
山东,枣庄市,51.619,88.961,7.937,35.832,0.724,20.928,-1.345,1.672,284.576,95.448,100675.399,34.925,117.383
山东,泰安市,67.982,112.745,9.708,47.831,1.169,10.794,-0.534,2.394,283.425,95.993,99815.681,35.993,117.04
山东,济南市,117.045,169.208,13.992,61.405,1.682,9.571,0.134,2.56,283.012,95.008,99787.901,36.639,117.254
山东,济宁市,68.6,107.145,8.755,40.972,1.125,9.651,-0.496,2.151,283.847,95.134,101114.099,35.375,116.697
山东,淄博市,83.526,113.797,13.051,46.972,1.282,18.517,0.67,2.873,283.482,94.042,99174.938,36.623,118.062
山东,滨州市,109.272,149.796,14.501,52.73,1.63,7.116,0.108,1.8,283.223,95.455,101665.928,37.516,117.852
山东,潍坊市,54.51,88.557,9.783,32.884,0.822,41.596,0.244,4.24,285.444,90.632,100631.616,36.53,119.092
山东,烟台市,39.302,71.606,8.067,21.629,0.737,57.177,-2.262,6.062,285.11,91.109,100672.778,37.25,120.789
山东,聊城市,176.626,266.061,10.261,60.76,2.065,4.442,-0.063,1.916,282.955,89.03,101365.029,36.458,115.863
山东,菏泽市,149.302,180.975,8.177,44.533,1.624,6.617,0.36,0.935,283.423,90.999,101261.699,35.134,115.69
山东,青岛市,37.75,75.363,7.66,26.017,0.694,57.649,-1.907,5.305,285.853,91.52,101230.288,36.46,120.172
山西,临汾市,111.498,171.845,16.918,41.511,1.737,30.772,1.827,-0.786,277.325,76.066,90013.118,36.227,111.398
山西,吕梁市,107.318,204.077,33.5,51.265,1.423,31.423,3.299,0.142,274.804,73.024,87589.623,37.663,111.27
山西,大同市,75.238,161.584,27.489,36.376,1.038,36.968,5.9,1.481,274.325,60.348,86984.696,39.911,113.713
山西,太原市,132.232,232.868,43.924,68.984,1.838,23.381,4.075,0.495,275.602,69.531,87404.041,37.967,112.321
山西,忻州市,90.299,169.603,31.778,43.82,1.162,38.033,4.321,0.315,273.671,66.511,85901.597,38.877,112.391
山西,晋中市,128.871,212.815,32.127,65.079,1.734,22.696,3.711,1.323,276.754,74.716,88352.455,37.328,112.997
山西,晋城市,75.764,112.407,10.075,35.164,1.593,26.638,1.84,-0.475,278.404,83.779,90366.541,35.625,112.752
山西,朔州市,79.857,184.045,31.115,36.245,0.983,42.672,6.542,2.044,273.565,61.758,86353.46,39.619,112.655
山西,运城市,121.242,175.694,7.95,37.643,1.814,27.408,-0.558,-1.496,280.716,70.41,94246.905,35.205,111.071
山西,长治市,92.328,142.568,17.858,42.763,1.549,27.03,3.282,0.822,277.424,79.47,88659.166,36.48,112.915
山西,阳泉市,133.241,223.482,39.124,68.48,1.829,24.043,5.407,-0.527,277.379,65.037,90216.948,38.031,113.512
广东,东莞市,45.378,68.551,9.209,41.441,0.693,47.933,-4.57,1.542,294.466,79.769,101445.57,22.931,113.81
广东,中山市,33.531,54.262,7.633,31.139,0.567,56.681,-4.922,1.76,295.027,84.822,101430.421,22.5,113.383
广东,云浮市,38.402,46.574,5.347,21.196,0.605,47.284,-3.83,4.756,293.93,85.697,99363.573,22.776,111.818
广东,佛山市,44.791,76.431,9.846,52.775,0.845,38.532,-3.515,2.754,294.943,80.299,101459.803,23.035,112.979
广东,广州市,48.935,70.296,9.231,45.073,0.732,42.34,-3.942,2.871,294.368,77.386,100576.981,23.339,113.525
广东,惠州市,38.775,52.576,8.708,21.259,0.566,56.763,-4.261,1.687,293.577,76.209,99632.788,23.244,114.485
广东,揭阳市,50.695,79.86,13.657,29.11,0.894,63.421,-3.753,-1.023,292.98,82.05,100292.087,23.323,116.123
广东,梅州市,45.354,70.632,10.821,26.164,0.865,50.905,-2.923,2.395,292.838,69.731,98238.158,24.169,116.07
广东,汕头市,36.514,58.619,12.219,23.194,0.644,78.085,-4.392,-1.87,293.636,83.581,101420.618,23.339,116.614
广东,汕尾市,42.103,62.19,9.428,18.975,0.683,65.12,-5.093,-0.969,293.28,81.645,99997.047,23.024,115.527
广东,江门市,33.764,44.172,5.398,21.52,0.472,60.062,-4.683,1.971,294.57,88.639,100850.398,22.289,112.676
广东,河源市,48.185,64.983,9.639,21.226,0.779,49.418,-2.207,2.482,292.909,71.591,98405.523,24.021,114.969
广东,深圳市,32.094,55.136,8.213,30.843,0.566,59.739,-5.973,1.164,294.52,84.397,100963.251,22.667,114.143
广东,清远市,51.013,66.993,10.11,34.779,0.806,31.948,-1.802,4.349,292.6,80.552,97854.848,24.295,112.871
广东,湛江市,18.076,31.365,3.98,6.504,0.361,75.328,-6.229,3.344,296.577,86.895,101168.408,21.091,110.163
广东,潮州市,41.894,67.998,11.021,24.69,0.761,64.166,-4.146,-0.686,293.067,72.418,99739.819,23.755,116.754
广东,珠海市,19.852,27.778,4.003,9.925,0.3,80.61,-5.625,1.093,295.188,88.0,101504.898,22.095,113.317
广东,肇庆市,42.248,59.02,8.19,38.945,0.731,35.468,-3.422,4.23,293.956,80.08,99480.814,23.505,112.199
广东,茂名市,26.307,37.696,5.302,11.096,0.473,61.966,-5.738,3.922,294.932,85.948,99412.434,22.013,110.952
广东,阳江市,33.4,38.632,4.162,11.979,0.422,62.497,-4.527,2.091,294.449,90.1,99982.543,22.042,111.786
广东,韶关市,47.026,60.144,9.988,20.633,0.976,38.025,-0.715,4.215,292.463,74.774,97079.661,24.785,113.819
广西,北海市,21.059,34.089,4.434,8.083,0.525,69.086,-4.704,4.771,296.952,85.355,101179.385,21.674,109.37
广西,南宁市,27.22,44.683,8.046,15.745,0.702,38.823,-0.913,4.477,294.634,89.235,99286.109,23.051,108.469
广西,崇左市,24.634,39.423,8.345,9.06,0.55,45.689,0.457,3.191,294.444,87.227,97989.513,22.483,107.291
广西,来宾市,33.413,48.604,8.637,14.979,0.681,37.97,-1.2,5.834,293.719,88.068,98128.685,23.859,109.417
广西,柳州市,41.583,55.772,11.464,16.023,0.767,34.044,0.166,5.82,292.633,89.718,97469.155,24.956,109.372
广西,桂林市,54.839,66.724,11.583,21.191,0.988,30.656,-0.04,5.402,291.179,90.788,95892.491,25.353,110.513
广西,梧州市,30.103,42.808,7.447,17.655,0.75,43.273,-2.856,4.907,294.29,81.643,99034.802,23.484,110.996
广西,河池市,37.698,51.68,10.563,9.468,0.594,40.191,0.939,5.674,292.242,85.906,95100.832,24.628,107.843
广西,玉林市,25.581,39.629,7.999,14.624,0.696,51.482,-3.62,5.913,295.182,84.724,99430.802,22.452,110.164
广西,百色市,37.93,53.931,10.123,8.439,0.554,47.832,1.843,4.956,292.223,77.405,93023.04,23.981,106.292
广西,贵港市,31.628,48.222,9.819,18.272,0.844,37.042,-1.778,3.618,294.845,83.484,99836.806,23.322,110.021
广西,贺州市,39.499,53.978,10.11,19.403,0.738,37.924,-2.308,5.933,292.659,83.098,97222.19,24.364,111.394
广西,钦州市,22.8,36.739,5.765,11.24,0.679,53.809,-2.719,5.191,296.021,87.946,100450.567,22.173,109.01
广西,防城港市,21.386,33.374,6.613,9.949,0.586,49.612,-1.098,3.188,294.925,92.21,98851.145,21.88,108.002
新疆,乌鲁木齐市,16.509,86.423,1.682,12.159,0.322,58.783,3.174,-3.566,258.228,62.731,84666.521,43.746,87.818
新疆,五家渠市,37.653,187.933,3.67,21.197,0.44,43.473,0.853,-0.48,264.317,66.063,98140.897,44.363,87.517
新疆,伊犁哈萨克自治州,5.659,11.423,2.44,3.411,0.275,69.258,3.405,-1.416,257.916,71.366,80723.999,43.438,82.146
新疆,克孜勒苏柯尔克孜自治州,6.006,34.114,0.33,1.001,0.178,80.228,6.534,-7.895,266.308,30.27,70459.898,39.661,75.949
新疆,克拉玛依市,10.729,46.268,3.078,6.18,0.461,51.172,-2.159,-1.935,262.148,70.215,99109.719,45.457,85.207
新疆,北屯市,3.092,4.022,3.95,4.954,0.768,24.252,-1.55,-0.288,254.808,74.17,97116.706,47.27,87.868
新疆,博尔塔拉蒙古自治州,4.18,15.334,2.398,2.109,0.227,65.545,2.516,0.626,259.721,67.409,86885.065,44.714,82.114
新疆,双河市,3.494,18.796,2.66,2.12,0.238,61.794,-2.736,-3.576,265.842,62.654,99576.29,44.87,82.474
新疆,可克达拉市,10.64,14.47,7.036,10.114,0.558,58.53,0.166,0.486,266.494,59.668,96288.968,43.918,80.786
新疆,和田地区,66.699,71.984,0.879,1.42,0.177,66.031,4.122,-0.657,267.943,35.896,74134.134,37.059,80.934
新疆,哈密市,3.268,6.899,1.012,0.924,0.177,73.404,3.694,-1.98,260.472,49.676,88858.293,43.042,93.517
新疆,喀什地区,74.516,162.057,1.381,3.005,0.248,65.62,3.501,-0.691,269.506,27.683,76328.16,38.125,77.178
新疆,图木舒克市,332.112,337.883,1.833,1.465,0.152,44.273,-2.002,0.497,272.65,26.343,89731.01,39.892,79.182
新疆,塔城地区,6.46,20.653,2.341,3.013,0.265,60.328,1.158,-1.723,258.027,72.448,90534.436,45.642,84.789
新疆,巴音郭楞蒙古自治州,47.149,50.76,0.575,0.436,0.144,65.6,4.621,-1.087,263.127,57.148,79375.955,39.463,87.481
新疆,新星市,22.38,66.93,3.7,8.255,0.47,56.9,1.19,-0.975,265.185,34.27,93618.595,42.75,93.68
新疆,昆玉市,13.117,34.55,3.743,5.817,0.313,69.687,4.473,0.743,280.907,16.003,87421.823,37.457,79.093
新疆,昌吉回族自治州,13.451,62.978,1.951,5.908,0.245,61.179,2.471,-0.841,259.683,66.094,90828.123,44.342,88.608
新疆,石河子市,64.89,238.545,5.9,21.295,0.455,43.105,-0.39,0.135,263.465,71.41,96080.4,44.245,86.035
新疆,胡杨河市,21.48,79.704,3.146,7.104,0.534,49.832,-2.576,-1.13,263.662,74.902,99613.222,44.852,84.772
新疆,铁门关市,34.613,140.44,2.08,2.413,0.27,72.343,-1.307,0.977,268.147,56.563,92470.217,41.773,85.66
新疆,阿克苏地区,90.104,145.681,1.241,1.467,0.172,65.384,0.385,-1.785,268.316,33.756,85630.38,40.965,81.578
新疆,阿勒泰地区,1.289,1.788,1.764,1.505,0.286,61.807,-1.088,-0.976,253.3,70.572,89268.073,46.902,88.421
新疆,阿拉尔市,116.109,235.844,1.743,2.706,0.205,57.721,-3.23,1.907,270.725,27.746,90701.335,40.629,80.998
江苏,南京市,73.876,107.318,8.583,54.316,1.094,14.055,-1.874,2.015,287.154,87.618,101613.703,31.899,118.876
江苏,南通市,39.548,57.575,11.65,41.82,0.544,33.206,-1.626,4.11,289.616,91.391,101818.179,32.201,120.979
江苏,宿迁市,58.936,101.0,7.392,34.634,0.885,24.813,-1.686,2.879,286.936,87.846,101689.184,33.765,118.495
江苏,常州市,63.571,100.549,8.706,61.902,1.116,14.867,-1.742,3.241,288.838,88.055,101682.507,31.613,119.666
江苏,徐州市,60.885,91.126,7.794,34.678,0.849,21.139,-1.191,1.718,285.576,92.1,101413.744,34.363,117.513
江苏,扬州市,64.703,101.706,7.68,50.291,0.828,14.607,-1.285,3.128,287.364,94.93,101778.071,32.709,119.486
江苏,无锡市,57.624,91.2,9.244,63.002,0.968,14.577,-1.616,4.049,289.265,90.571,101604.224,31.546,120.066
江苏,泰州市,57.948,90.292,8.643,50.024,0.796,19.26,-1.331,3.514,288.087,94.969,101753.642,32.605,120.048
江苏,淮安市,64.89,107.798,7.361,40.383,0.866,21.515,-1.276,3.057,286.872,91.007,101703.122,33.362,118.985
江苏,盐城市,53.007,81.61,9.185,29.873,0.609,39.98,-0.942,3.57,287.663,94.585,101789.069,33.529,120.156
江苏,苏州市,47.231,74.176,9.428,58.308,0.741,20.278,-1.569,4.559,290.008,91.481,101784.768,31.374,120.661
江苏,连云港市,43.64,86.881,8.484,26.634,0.643,36.968,-1.211,2.955,286.396,94.037,101585.21,34.519,119.133
江苏,镇江市,68.152,103.888,8.106,59.799,1.026,14.405,-1.85,2.61,288.068,91.009,101659.938,32.016,119.49
江西,上饶市,51.84,68.271,13.665,27.018,0.782,26.931,-1.897,1.761,290.171,74.064,99447.555,28.778,117.47
江西,九江市,90.68,83.213,10.016,24.649,1.05,27.362,-1.311,1.786,288.439,84.358,99329.44,29.313,115.444
江西,南昌市,77.605,95.556,10.307,31.676,1.273,20.669,-1.047,0.675,290.352,77.388,101229.883,28.671,116.016
江西,吉安市,42.635,62.296,12.422,15.35,0.835,38.425,-0.214,4.441,293.005,69.472,98933.107,26.954,114.831
江西,宜春市,74.374,98.617,13.091,30.72,1.261,24.211,-1.056,0.487,289.889,80.014,99278.265,28.29,114.974
江西,抚州市,44.481,55.165,12.691,14.638,0.736,39.993,-0.994,3.828,292.281,67.892,98997.045,27.514,116.42
江西,新余市,69.553,101.511,18.293,36.092,1.394,22.868,-1.242,0.389,291.457,76.903,100189.004,27.847,114.836
江西,景德镇市,46.976,65.529,11.912,24.68,0.737,23.054,-2.546,0.974,288.687,78.063,100280.103,29.287,117.24
江西,萍乡市,65.31,87.521,15.398,24.652,1.241,27.125,-0.283,2.995,291.847,77.803,97901.603,27.505,113.908
江西,赣州市,37.598,56.031,11.382,16.315,0.92,43.189,-0.238,4.802,292.637,68.006,97393.307,25.692,115.279
江西,鹰潭市,54.475,63.625,15.797,26.687,0.794,26.306,-1.154,3.281,292.015,68.321,99937.743,28.222,117.094
河北,保定市,134.788,214.511,11.724,50.815,1.398,25.516,1.763,0.122,278.761,65.831,97775.202,39.018,115.159
河北,唐山市,114.012,176.18,22.799,57.722,2.607,2.67,0.299,0.647,279.96,93.569,101104.421,39.731,118.354
河北,廊坊市,145.212,208.221,9.855,65.793,2.248,7.095,0.437,0.532,280.492,72.415,101649.699,39.267,116.632
河北,张家口市,87.357,137.804,16.896,41.959,1.076,31.464,4.015,1.982,273.736,64.887,87389.367,40.877,115.042
河北,承德市,79.406,130.608,15.232,43.75,1.431,22.709,3.595,3.526,273.069,88.896,90777.667,41.339,117.578
河北,沧州市,155.202,224.329,13.139,63.304,2.062,5.402,0.61,1.667,281.789,83.352,101678.998,38.258,116.744
河北,石家庄市,152.476,273.744,17.756,57.696,1.713,22.696,1.298,-0.122,279.254,66.385,98338.972,38.135,114.407
河北,秦皇岛市,86.193,137.882,21.134,56.845,2.383,4.423,2.301,2.055,278.817,97.087,98774.94,40.12,119.193
河北,衡水市,187.498,279.072,10.767,61.698,2.031,9.176,0.694,1.073,281.807,77.618,101538.11,37.755,115.813
河北,邢台市,171.848,283.982,12.661,61.647,1.977,12.159,0.417,1.29,281.492,73.221,100002.85,37.195,114.815
河北,邯郸市,170.009,270.869,13.897,59.154,2.169,10.302,1.035,1.911,282.362,74.802,99520.598,36.538,114.596
河南,三门峡市,116.184,156.71,11.318,34.588,1.445,26.805,1.218,-0.645,279.89,76.745,91811.662,34.362,111.101
河南,信阳市,113.336,156.29,10.293,31.606,1.454,29.299,-0.824,0.198,285.934,81.784,100452.724,32.091,114.907
河南,南阳市,105.067,130.545,11.332,43.238,1.813,13.258,-0.738,-0.861,282.759,84.661,98356.923,33.034,112.323
河南,周口市,124.943,132.304,8.414,39.779,1.913,6.192,-0.158,-0.202,283.97,91.063,101226.613,33.738,114.884
河南,商丘市,106.251,116.758,7.442,36.044,1.339,10.561,-0.402,0.863,284.124,92.332,101298.143,34.277,115.718
河南,安阳市,171.492,234.505,12.566,56.598,2.538,10.558,0.919,1.69,282.434,77.65,99126.757,35.888,114.318
河南,平顶山市,133.836,157.233,11.166,52.334,2.154,4.936,-0.213,-0.223,281.949,86.436,99018.569,33.8,113.025
河南,开封市,152.455,176.93,8.864,47.867,2.09,5.923,0.532,-0.526,282.727,85.849,100960.803,34.594,114.514
河南,新乡市,154.134,202.487,10.302,53.896,2.611,7.346,1.284,1.253,282.436,81.691,99996.546,35.256,114.111
河南,洛阳市,125.702,153.365,10.933,40.269,1.744,17.927,0.609,-0.64,280.82,81.018,94244.684,34.274,112.019
河南,济源市,106.804,140.468,10.81,40.069,1.806,14.269,0.375,-0.575,281.124,79.218,96115.675,35.105,112.445
河南,漯河市,132.538,149.324,8.533,49.952,2.282,2.748,0.285,-1.182,282.649,88.997,101086.308,33.652,113.945
河南,濮阳市,200.247,256.267,10.242,55.246,2.217,5.884,0.763,1.252,283.224,84.902,101232.269,35.809,115.283
河南,焦作市,127.332,166.008,9.908,48.711,2.346,6.944,1.36,0.672,282.731,77.81,99798.78,35.121,113.163
河南,许昌市,147.17,165.335,11.122,51.811,2.246,3.42,0.185,-0.806,282.315,85.857,100390.96,34.075,113.707
河南,郑州市,158.262,184.824,11.431,53.664,2.399,3.366,0.989,0.316,282.053,83.482,99034.548,34.634,113.438
河南,驻马店市,116.446,139.077,8.691,43.135,1.987,6.37,-0.332,-1.403,283.965,88.901,100761.479,32.925,114.174
河南,鹤壁市,167.257,233.081,12.582,59.214,2.719,7.421,1.194,2.338,282.738,78.298,100330.844,35.716,114.319
浙江,丽水市,27.694,41.8,6.077,16.332,0.462,48.953,-0.397,4.143,289.385,82.574,94827.607,28.194,119.51
浙江,台州市,27.89,51.417,5.991,25.678,0.503,42.66,-0.607,2.938,290.623,92.37,99129.031,28.742,121.109
浙江,嘉兴市,51.322,87.076,7.746,61.176,0.809,16.477,-1.285,3.418,290.514,90.961,101802.939,30.635,120.754
浙江,宁波市,28.48,48.471,5.898,31.134,0.506,43.086,-1.393,3.339,291.21,91.182,100612.013,29.706,121.49
浙江,杭州市,65.593,103.941,9.029,44.186,0.986,19.28,-0.355,2.444,288.369,90.739,98870.665,29.891,119.464
浙江,温州市,28.57,55.016,6.165,27.197,0.578,39.791,-0.21,1.97,290.165,91.688,97947.655,27.897,120.411
浙江,湖州市,65.048,107.412,9.371,58.935,1.013,12.886,-1.185,3.936,289.095,90.787,100481.756,30.757,119.871
浙江,绍兴市,50.985,86.337,6.079,46.219,0.829,21.064,-0.999,3.546,290.343,88.426,99734.52,29.709,120.64
浙江,舟山市,8.978,13.485,2.632,5.042,0.202,80.91,-2.73,4.093,291.958,91.025,101641.968,30.038,122.23
浙江,衢州市,49.385,70.725,10.823,35.648,0.736,29.902,-0.719,2.154,289.917,77.375,98088.249,28.912,118.675
浙江,金华市,48.054,78.73,6.673,39.508,0.772,24.35,-1.039,3.688,289.752,87.445,98385.301,29.109,119.967
海南,万宁市,9.581,18.334,1.291,1.557,0.2,80.421,-5.378,-0.216,296.592,92.153,100128.231,18.842,110.294
海南,三亚市,10.911,21.437,2.051,4.504,0.39,45.934,-6.213,-0.419,296.531,86.853,98863.879,18.413,109.407
海南,东方市,12.309,18.41,2.499,3.365,0.215,66.46,-1.468,0.227,297.334,78.892,99476.959,18.971,108.838
海南,临高县,13.729,26.523,3.04,5.549,0.313,56.347,-4.966,1.936,297.26,83.604,100684.17,19.821,109.733
海南,乐东黎族自治县,10.355,16.928,1.267,2.672,0.248,55.725,-4.281,0.942,296.593,81.569,97966.552,18.659,109.072
海南,五指山市,10.234,16.772,1.102,2.18,0.216,61.036,-5.13,1.998,294.444,88.884,94786.618,18.81,109.518
海南,儋州市,12.929,22.656,2.074,3.659,0.26,64.944,-3.672,1.371,297.214,84.133,100327.35,19.568,109.399
海南,定安县,11.218,22.495,1.667,3.477,0.287,59.933,-5.052,1.392,296.692,87.805,100407.755,19.47,110.28
海南,屯昌县,11.074,21.348,1.574,3.076,0.262,63.15,-4.498,1.628,296.284,89.478,99618.416,19.342,110.076
海南,文昌市,10.635,20.255,1.342,1.525,0.226,68.804,-6.391,1.101,296.757,88.898,101203.019,19.707,110.773
海南,昌江黎族自治县,12.704,19.647,2.329,3.204,0.223,68.448,-1.987,-0.046,296.507,81.741,98472.818,19.233,109.016
海南,海口市,12.43,25.192,2.482,4.788,0.323,56.765,-5.632,1.509,296.998,85.492,100989.504,19.842,110.393
海南,澄迈县,12.929,26.061,2.847,5.469,0.334,53.82,-4.76,1.851,296.979,85.384,100523.096,19.676,109.989
海南,琼中黎族苗族自治县,11.073,19.479,1.444,2.335,0.229,66.691,-4.247,1.687,295.173,92.307,97431.845,19.087,109.847
海南,琼海市,9.728,18.963,1.133,1.73,0.215,73.053,-5.188,0.405,296.928,89.63,100964.59,19.22,110.43
海南,白沙黎族自治县,10.702,17.766,1.342,2.201,0.219,67.815,-3.379,1.542,295.804,85.496,97125.624,19.2,109.388
海南,陵水黎族自治县,10.121,18.727,1.014,2.054,0.256,63.316,-4.711,-0.999,296.356,91.401,99447.429,18.581,109.913
湖北,仙桃市,113.897,160.557,6.665,30.752,1.664,11.913,-1.936,-1.413,287.07,81.658,101411.735,30.284,113.417
湖北,十堰市,64.846,94.811,15.547,21.673,1.238,32.408,-0.516,-0.696,281.429,86.181,93378.38,32.462,110.476
湖北,咸宁市,97.112,116.12,9.21,30.65,1.461,17.687,-1.45,1.133,287.873,83.425,99504.444,29.621,114.178
湖北,天门市,102.087,162.752,7.726,28.012,1.692,15.882,-1.763,-1.076,286.859,78.968,101373.599,30.633,113.053
湖北,孝感市,79.181,117.685,8.318,29.641,1.593,11.004,-1.478,-0.204,286.3,81.708,100786.604,31.116,113.869
湖北,宜昌市,131.185,168.524,12.699,25.563,1.261,36.832,-1.236,0.912,283.676,87.15,94181.09,30.746,111.129
湖北,恩施土家族苗族自治州,75.14,104.501,14.267,16.146,1.005,32.196,-1.18,1.855,282.27,94.376,89527.916,30.195,109.552
湖北,武汉市,99.003,128.681,8.905,39.984,1.662,10.125,-2.275,0.109,287.256,82.417,101320.256,30.606,114.349
湖北,潜江市,119.928,202.366,5.373,28.896,1.853,18.827,-1.661,-1.103,286.84,78.603,101372.322,30.33,112.77
湖北,神农架林区,70.821,86.383,15.357,8.999,0.721,50.058,1.208,2.032,278.989,93.747,82889.057,31.592,110.49
湖北,荆州市,128.104,195.6,10.904,28.645,1.725,26.346,-1.417,-1.212,287.043,80.168,101123.61,30.01,112.512
湖北,荆门市,121.048,149.15,11.049,33.083,1.558,26.479,-0.862,-1.308,285.996,76.655,100348.536,31.059,112.616
湖北,襄阳市,99.851,115.173,12.628,31.612,1.484,27.813,-0.378,-0.458,283.652,82.764,97581.079,31.919,111.96
湖北,鄂州市,102.33,138.353,9.841,45.221,1.833,13.987,-2.566,0.619,287.461,82.761,101370.846,30.337,114.794
湖北,随州市,84.104,110.023,11.997,29.569,1.575,20.08,-1.074,-0.551,285.34,81.034,99651.671,31.809,113.43
湖北,黄冈市,94.697,122.416,11.165,30.178,1.316,33.675,-2.601,0.841,286.714,81.569,99634.744,30.702,115.358
湖北,黄石市,110.188,119.294,10.452,38.732,1.523,21.14,-2.699,0.915,287.942,82.396,100370.746,29.925,115.034
湖南,娄底市,124.844,171.539,7.884,23.16,1.765,44.583,-1.608,1.145,288.873,84.03,97239.839,27.715,111.632
湖南,岳阳市,113.657,161.486,11.663,29.895,1.533,21.439,-1.26,-0.062,288.521,82.2,100193.359,29.081,113.275
湖南,常德市,131.165,196.094,9.66,27.189,1.712,32.463,-1.191,-1.169,285.977,85.308,99391.427,29.271,111.524
湖南,张家界市,116.593,172.538,9.446,25.855,1.344,29.923,-2.286,-0.508,283.795,93.773,95383.399,29.379,110.526
湖南,怀化市,91.586,129.128,10.263,16.103,1.108,44.791,-0.787,1.484,288.47,86.885,96261.7,27.535,110.071
湖南,株洲市,78.554,96.904,12.953,24.674,1.186,30.695,0.75,3.183,292.157,76.762,98028.213,27.109,113.513
湖南,永州市,63.164,77.421,11.24,21.226,0.95,34.184,0.707,5.833,291.869,82.432,96629.132,25.748,111.723
湖南,湘潭市,165.139,203.167,8.142,40.909,1.79,26.295,-0.49,-1.199,290.025,78.918,100266.748,27.744,112.619
湖南,湘西土家族苗族自治州,107.323,158.696,6.961,23.087,1.211,28.873,-2.816,-0.963,284.851,91.805,95255.474,28.708,109.718
湖南,益阳市,137.986,206.977,7.676,25.264,1.846,37.854,-1.388,-0.643,287.199,84.708,98863.382,28.525,111.919
湖南,衡阳市,99.932,128.431,12.072,30.849,1.452,27.979,0.733,3.288,292.975,74.72,99761.834,26.781,112.565
湖南,邵阳市,81.837,98.092,10.96,15.917,1.018,47.062,0.713,4.306,290.154,82.948,94990.971,26.893,110.881
湖南,郴州市,47.416,67.29,13.53,21.63,1.166,36.719,0.518,5.971,291.986,78.727,95867.275,25.769,113.109
湖南,长沙市,132.279,164.973,11.326,35.87,1.545,23.605,-1.245,0.059,289.439,81.339,99694.88,28.235,113.159
甘肃,临夏回族自治州,73.015,260.771,7.255,13.291,0.91,56.086,-0.93,0.334,271.862,47.556,77264.333,35.617,103.291
甘肃,兰州市,65.839,249.89,9.881,15.967,0.531,52.234,-1.451,-1.338,270.784,51.646,78950.279,36.359,103.633
甘肃,嘉峪关市,84.382,413.46,8.228,15.695,0.423,58.042,1.308,-2.235,263.822,62.195,81729.003,39.798,98.145
甘肃,天水市,59.796,201.461,10.027,16.945,0.771,43.105,0.335,-1.977,273.523,65.681,82599.499,34.645,105.739
甘肃,定西市,52.918,198.828,5.153,9.096,0.476,59.724,0.008,-2.192,270.531,55.613,77062.649,35.124,104.432
甘肃,平凉市,86.854,232.02,7.494,19.834,0.699,44.326,1.181,-3.071,273.545,62.203,84495.186,35.304,106.644
甘肃,庆阳市,76.455,173.188,9.115,16.454,0.604,45.838,2.184,-3.162,273.278,64.39,85800.392,36.149,107.596
甘肃,张掖市,54.593,86.492,1.883,2.382,0.174,67.207,4.743,-0.478,263.074,59.959,74387.348,38.94,99.855
甘肃,武威市,55.032,54.169,2.272,2.515,0.224,64.124,2.733,-2.982,268.262,55.385,81439.685,38.163,103.073
甘肃,甘南藏族自治州,9.555,30.446,0.965,2.514,0.262,75.851,5.27,0.237,267.578,44.57,67242.6,34.331,102.768
甘肃,白银市,74.348,185.915,8.08,11.22,0.447,52.743,0.708,-4.241,270.113,56.952,81462.609,36.59,104.646
甘肃,酒泉市,32.613,43.47,0.9,0.932,0.156,69.559,6.396,-0.555,261.384,61.568,79118.733,40.236,96.062
甘肃,金昌市,85.179,82.975,2.848,3.591,0.207,62.401,2.678,-3.411,267.396,59.604,80592.45,38.44,102.048
甘肃,陇南市,38.353,96.315,7.936,12.995,0.549,43.025,-0.535,-3.004,275.151,62.572,82074.398,33.599,105.224
福建,三明市,34.338,47.051,11.359,20.143,0.973,40.837,-0.595,3.65,291.649,67.756,95419.246,26.29,117.395
福建,南平市,30.284,39.259,9.469,13.4,0.55,50.552,-1.393,2.581,290.819,73.942,96192.814,27.324,118.143
福建,厦门市,34.878,66.058,8.915,29.05,0.553,45.975,-2.078,-2.512,293.045,77.92,100658.212,24.642,118.11
福建,宁德市,21.025,31.061,4.778,9.355,0.351,59.166,-0.941,0.891,289.76,87.705,95596.437,26.968,119.474
福建,泉州市,31.396,51.491,6.846,19.821,0.581,50.525,-1.536,-0.357,291.4,77.217,96900.514,25.201,118.249
福建,漳州市,36.029,61.295,9.143,22.476,0.554,54.971,-2.022,-1.054,292.021,76.078,98494.755,24.372,117.444
福建,福州市,23.784,40.308,5.558,18.225,0.431,53.374,-1.62,-1.559,291.147,88.162,97676.295,26.083,119.206
福建,莆田市,26.09,42.478,6.441,16.314,0.458,58.14,-1.569,-2.421,292.018,82.559,98425.326,25.445,118.864
福建,龙岩市,32.712,51.344,10.13,20.741,0.689,44.232,-1.389,3.514,291.836,66.294,95424.538,25.256,116.739
西藏,山南市,9.993,12.274,0.708,1.448,0.157,86.261,5.83,1.004,273.099,47.879,65965.108,28.295,92.274
西藏,拉萨市,6.67,9.128,0.141,2.041,0.167,83.766,8.707,0.481,266.976,41.686,56165.848,30.043,91.093
西藏,日喀则市,5.003,6.478,0.415,0.497,0.151,84.432,11.8,-1.401,266.217,33.087,55047.097,29.483,86.493
西藏,昌都市,2.053,3.401,0.16,1.123,0.137,82.922,5.857,4.255,264.594,52.171,58684.693,30.753,97.044
西藏,林芝市,5.473,6.157,0.511,1.511,0.129,85.934,0.939,1.756,270.325,59.935,66206.285,29.184,95.25
西藏,玉树藏族自治州,1.2,1.585,0.073,0.455,0.147,81.256,6.244,-0.123,258.21,60.275,56777.454,34.196,94.317
西藏,那曲市,0.447,0.634,0.06,0.202,0.128,83.385,8.683,-2.103,260.56,53.232,54969.283,32.709,89.262
西藏,阿里地区,0.673,0.905,0.127,0.778,0.122,75.65,9.908,-4.157,259.781,44.737,54471.706,33.013,82.553
贵州,六盘水市,19.752,41.266,13.495,16.015,0.636,57.682,7.073,5.337,287.087,53.614,83013.047,26.106,104.896
贵州,安顺市,24.757,42.298,11.36,8.38,0.405,58.66,3.305,8.193,289.134,68.091,88099.63,25.986,105.978
贵州,毕节市,27.378,44.839,11.003,12.403,0.564,56.312,6.351,5.115,286.315,56.69,83275.44,27.063,105.211
贵州,贵阳市,27.987,49.108,11.857,18.953,0.456,49.45,4.335,10.275,288.735,70.184,88057.899,26.845,106.71
贵州,遵义市,50.922,70.828,16.246,13.891,0.639,42.099,-0.403,3.039,286.676,81.409,90216.599,28.167,107.102
贵州,铜仁市,73.496,117.746,12.037,9.908,0.912,44.761,-1.71,1.797,286.478,89.885,92667.898,27.937,108.534
贵州,黔东南苗族侗族自治州,44.525,61.09,16.213,5.404,0.535,54.503,2.039,7.277,290.481,81.932,92600.322,26.495,108.574
贵州,黔南布依族苗族自治州,30.309,43.466,11.131,5.92,0.395,55.076,2.637,7.7,289.736,78.419,90335.016,26.0,107.265
贵州,黔西南布依族苗族自治州,21.988,35.52,10.506,6.919,0.422,60.581,4.4,6.161,289.962,64.755,88533.103,25.256,105.467
辽宁,丹东市,37.216,61.104,23.705,31.35,1.164,31.021,-3.42,5.411,276.138,73.156,99080.336,40.554,124.376
辽宁,大连市,29.975,54.702,7.951,14.46,0.536,58.235,-2.444,7.502,282.761,93.306,101109.584,39.591,122.22
辽宁,抚顺市,31.708,48.27,16.577,20.027,0.981,47.111,0.13,11.215,276.287,70.716,97135.543,41.841,124.65
辽宁,朝阳市,72.659,110.41,17.963,39.457,1.665,25.595,4.622,7.427,277.682,85.449,96316.341,41.545,120.053
辽宁,本溪市,33.452,53.059,20.308,25.028,1.182,38.861,-1.763,9.548,274.739,73.002,96577.069,41.232,124.544
辽宁,沈阳市,24.664,48.74,15.113,21.976,0.694,51.454,1.14,12.057,280.255,79.455,101122.911,42.081,123.159
辽宁,盘锦市,24.596,41.607,11.554,20.055,0.6,56.171,1.076,10.454,282.623,87.001,101783.577,41.13,122.01
辽宁,营口市,24.619,41.6,9.221,12.506,0.505,59.159,-2.76,9.474,281.297,88.572,99664.379,40.395,122.478
辽宁,葫芦岛市,66.993,96.48,18.563,39.767,1.529,23.289,3.647,5.13,280.248,89.818,99190.378,40.66,120.215
辽宁,辽阳市,24.971,44.52,14.718,20.458,0.781,51.591,-3.126,11.035,279.167,79.464,99887.536,41.153,123.261
辽宁,铁岭市,29.082,51.053,15.667,21.025,0.729,53.268,2.232,12.719,278.061,75.955,99555.853,42.653,124.158
辽宁,锦州市,31.284,50.366,14.074,21.204,0.738,47.823,2.892,8.915,281.645,87.782,100892.056,41.502,121.659
辽宁,阜新市,37.161,58.524,16.28,18.677,0.788,45.999,4.133,10.441,280.173,84.656,99302.513,42.289,121.968
辽宁,鞍山市,24.974,44.771,12.202,18.63,0.682,51.676,-2.719,8.103,279.544,85.699,99988.882,40.731,123.007
重庆,重庆城区,54.037,77.415,14.353,24.358,0.856,27.041,-1.653,-0.346,286.645,78.064,94799.631,29.824,107.125
重庆,重庆郊县,64.886,91.768,20.029,14.241,0.883,35.581,-2.249,1.027,283.904,86.557,91029.207,30.334,108.755
陕西,咸阳市,124.839,282.581,11.044,38.528,1.251,28.134,-0.514,-4.25,279.203,60.798,91513.723,34.779,108.367
陕西,商洛市,93.013,149.972,14.013,27.373,1.18,32.22,0.675,-1.568,278.711,80.875,89336.595,33.64,109.889
陕西,安康市,65.587,95.48,17.935,20.503,1.066,34.908,-0.846,-1.073,279.948,84.475,89875.457,32.735,108.932
陕西,宝鸡市,83.185,220.428,7.761,23.285,0.757,35.401,0.455,-2.345,276.112,63.826,86348.413,34.386,107.193
陕西,延安市,70.555,180.922,14.936,30.242,1.076,39.593,1.83,-2.164,275.222,68.44,87542.501,36.432,109.316
陕西,榆林市,69.589,217.533,18.754,28.025,0.835,44.431,3.763,-0.98,273.883,60.867,87907.592,38.041,109.581
陕西,汉中市,51.787,86.478,11.84,16.243,0.884,27.725,-1.566,-1.895,279.427,77.571,88918.509,33.088,107.098
陕西,渭南市,125.944,229.634,10.486,38.406,1.596,25.976,-0.453,-2.411,281.201,64.632,93851.589,34.919,109.855
陕西,西安市,133.431,273.619,11.338,36.815,1.342,25.847,2.111,0.044,279.552,65.177,90552.912,34.12,108.77
陕西,铜川市,99.559,185.8,14.658,38.168,1.351,30.375,-0.683,-4.287,277.812,66.493,89157.03,35.198,109.058
青海,保亭黎族苗族自治县,11.406,20.608,1.602,4.018,0.342,48.774,-4.868,-0.616,295.028,93.348,97299.204,18.566,109.618
青海,吐鲁番市,18.244,51.875,1.272,1.799,0.197,69.758,1.331,-1.639,263.924,46.221,91028.876,42.386,89.851
青海,果洛藏族自治州,1.799,2.255,0.136,0.877,0.157,78.869,5.948,1.559,259.133,60.728,59508.13,34.127,99.404
青海,海东市,29.576,68.539,7.139,11.03,0.611,62.223,1.247,0.83,269.224,49.922,72413.144,36.347,102.34
青海,海北藏族自治州,16.117,16.535,0.497,0.787,0.146,76.391,9.642,0.281,261.862,48.871,64703.204,37.775,100.288
青海,海南藏族自治州,10.43,11.302,0.236,0.617,0.141,74.472,7.467,0.366,265.128,47.567,66041.492,35.89,100.272
青海,海西蒙古族藏族自治州,25.184,25.323,0.218,0.352,0.136,69.656,7.873,-1.051,261.185,51.798,64102.972,36.677,94.519
青海,西宁市,20.622,66.671,4.344,9.228,0.517,68.003,6.693,-0.564,267.006,46.028,69094.714,36.842,101.423
青海,黄南藏族自治州,5.381,7.196,0.398,0.977,0.156,76.399,5.761,0.599,264.904,45.834,65391.257,35.022,101.631
香港,香港特别行政区,21.495,31.205,4.99,15.055,0.32,78.335,-6.91,0.535,295.13,85.245,101144.455,22.45,114.22
黑龙江,七台河市,20.816,41.119,10.249,18.453,0.608,54.165,4.513,8.455,273.862,60.413,98298.824,45.87,130.943
黑龙江,伊春市,34.559,55.332,15.372,13.931,0.546,42.043,4.304,8.576,270.973,80.888,96337.732,47.772,129.184
黑龙江,佳木斯市,22.083,35.474,8.824,11.791,0.43,46.893,2.672,8.023,271.427,65.3,100285.116,47.207,132.11
黑龙江,双鸭山市,17.498,27.65,8.468,10.836,0.402,49.85,2.401,8.585,272.165,61.269,99946.012,46.722,132.643
黑龙江,哈尔滨市,32.34,50.143,14.244,12.981,0.517,53.726,5.395,10.866,274.897,72.246,98472.246,45.634,127.964
黑龙江,大兴安岭地区,13.255,16.2,7.153,6.115,0.263,28.188,-1.649,-1.066,256.074,83.305,93868.251,52.286,124.212
黑龙江,大庆市,42.911,86.896,15.512,16.839,0.818,49.403,5.46,11.786,277.763,63.304,99240.607,46.327,124.687
黑龙江,牡丹江市,22.686,34.952,9.496,15.295,0.545,44.164,5.289,9.308,274.087,55.647,95607.299,44.592,129.883
黑龙江,绥化市,43.336,75.362,17.353,16.075,0.729,43.48,4.334,11.324,275.141,77.16,98577.013,46.89,126.634
黑龙江,鸡西市,16.652,26.481,7.876,13.183,0.569,48.576,3.696,9.123,274.273,56.986,99790.118,45.626,132.289
黑龙江,鹤岗市,30.126,50.744,13.307,18.978,0.546,38.373,2.45,7.456,271.352,71.971,99032.915,47.661,130.778
黑龙江,黑河市,48.631,69.272,21.3,18.895,0.594,26.759,1.263,7.66,269.279,75.559,96297.384,49.268,127.004
黑龙江,齐齐哈尔市,46.465,90.663,21.652,18.769,0.769,34.593,3.097,9.22,275.392,59.297,98149.735,47.715,124.57
