province,city,PM2.5,PM10,SO2,NO2,CO,O3,U,V,TEMP,RH,PSFC,lat,lon
上海,上海市,31.449,51.907,10.03,35.622,0.735,32.83,5.261,-8.151,274.363,72.512,103706.939,31.173,121.42
云南,临沧市,38.596,58.183,15.285,11.318,0.823,36.451,-0.225,5.935,284.006,92.255,84118.159,23.935,99.686
云南,丽江市,19.831,31.381,11.452,7.152,0.707,61.955,5.545,6.248,276.972,81.871,74579.036,26.96,100.515
云南,保山市,24.638,41.812,8.763,11.419,0.601,36.763,3.637,3.847,282.672,87.828,82017.673,24.953,98.962
云南,大理白族自治州,17.611,33.246,10.11,4.047,0.559,55.405,4.996,6.797,280.334,86.835,78155.264,25.726,100.053
云南,德宏傣族景颇族自治州,22.513,36.127,7.247,16.167,0.481,34.677,1.415,1.752,284.914,82.999,86285.517,24.535,98.052
云南,怒江傈僳族自治州,13.589,17.681,3.608,1.452,0.295,62.785,6.136,4.936,274.472,88.908,72692.524,26.916,98.885
云南,文山壮族苗族自治州,16.968,33.371,15.024,8.641,0.659,32.282,-3.794,-2.815,273.454,94.918,87342.282,23.696,104.735
云南,昆明市,18.454,38.837,10.739,17.078,1.097,28.902,-4.574,6.956,274.706,94.903,79472.608,25.384,102.863
云南,昭通市,20.141,33.471,17.101,16.387,0.877,30.41,-1.744,-3.316,267.258,90.499,84968.603,27.667,103.985
云南,普洱市,25.977,45.78,13.746,9.584,0.628,37.839,-3.482,5.511,283.043,94.887,86317.492,23.159,100.718
云南,曲靖市,14.375,33.727,13.199,16.349,1.175,23.117,-4.665,1.893,270.12,93.183,80432.008,25.737,103.929
云南,楚雄彝族自治州,24.582,42.449,15.41,11.607,0.947,39.27,-1.063,9.114,279.879,92.831,81159.024,25.328,101.567
云南,玉溪市,18.69,36.751,12.597,8.006,0.692,39.488,-6.016,6.588,278.891,93.353,83829.523,24.136,102.217
云南,红河哈尼族彝族自治州,17.189,32.789,13.93,6.437,0.641,40.705,-6.061,3.201,277.792,94.187,85684.622,23.451,103.034
云南,西双版纳傣族自治州,26.33,43.821,10.686,15.728,0.694,22.23,-5.407,2.239,284.405,92.035,89393.897,21.939,100.912
云南,迪庆藏族自治州,10.303,12.159,2.798,1.169,0.245,82.33,8.142,5.594,269.789,85.588,66979.087,27.957,99.459
内蒙古,乌兰察布市,7.966,12.979,3.715,4.705,0.389,47.08,4.351,-2.716,254.504,53.832,87285.221,41.691,112.44
内蒙古,乌海市,34.108,67.121,39.326,35.815,1.04,28.84,-3.388,2.736,258.721,29.095,89215.444,39.396,106.856
内蒙古,兴安盟,3.428,3.894,2.504,2.146,0.215,50.423,6.586,-7.041,254.244,44.678,96293.015,46.244,121.341
内蒙古,包头市,8.039,12.333,4.858,7.87,0.39,46.215,2.455,-1.716,255.226,40.406,87323.236,41.549,110.276
内蒙古,呼伦贝尔市,2.387,1.977,2.697,2.381,0.222,51.787,4.952,-4.755,248.793,62.294,95011.819,49.636,121.171
内蒙古,呼和浩特市,38.264,69.612,20.121,34.05,1.068,28.911,1.965,-1.671,256.076,46.045,87708.725,40.578,111.513
内蒙古,巴彦淖尔市,8.158,11.17,6.315,6.056,0.34,53.554,0.186,-0.536,256.735,27.199,88885.959,41.446,107.582
内蒙古,赤峰市,2.98,4.995,2.796,2.389,0.24,52.415,6.556,-7.133,255.551,50.797,93420.055,43.226,118.892
内蒙古,通辽市,6.342,9.128,3.816,3.689,0.278,46.64,5.592,-6.741,257.904,40.623,99792.966,43.814,121.591
内蒙古,鄂尔多斯市,12.146,19.663,9.418,12.325,0.477,49.211,-0.423,-0.076,257.742,39.037,88525.527,39.407,108.63
内蒙古,锡林郭勒盟,0.985,1.457,1.381,0.924,0.202,49.087,4.619,-3.285,253.112,64.706,90546.655,44.179,115.482
内蒙古,阿拉善盟,10.702,17.207,12.307,8.979,0.341,40.423,-5.286,1.125,258.422,43.457,88880.305,40.473,102.467
北京,北京市,9.395,19.226,4.244,14.798,0.377,43.444,2.835,-5.584,264.52,30.027,100116.763,40.158,116.395
台湾,台湾省,14.146,19.836,6.628,11.06,0.28,54.891,-4.234,-7.16,285.077,73.489,93791.719,23.757,120.975
吉林,吉林市,24.574,38.338,9.13,14.493,0.583,42.297,5.621,-1.422,254.388,62.166,98567.791,43.573,126.859
吉林,四平市,19.204,28.747,5.784,10.35,0.473,41.253,4.483,-3.763,256.923,42.066,101282.399,43.472,124.386
吉林,延边朝鲜族自治州,12.79,19.65,6.23,7.238,0.341,51.082,10.586,-2.182,253.433,63.116,94881.112,43.141,129.147
吉林,松原市,19.981,22.755,5.513,7.942,0.363,41.756,5.202,-4.529,256.046,45.04,101619.681,44.785,124.496
吉林,白城市,12.111,13.282,4.612,5.218,0.26,45.405,3.685,-5.67,257.416,36.675,101851.966,45.35,123.031
吉林,白山市,31.006,44.192,13.027,16.795,0.786,37.236,4.897,-1.001,252.528,71.341,93194.534,42.063,127.256
吉林,辽源市,26.623,38.155,6.63,13.869,0.57,42.002,5.118,-2.986,256.179,53.247,99133.801,42.836,125.32
吉林,通化市,35.694,51.068,12.615,20.056,0.893,34.646,3.921,-2.998,255.422,62.142,97123.219,41.939,125.927
吉林,长春市,26.186,37.376,7.708,13.542,0.552,40.314,5.381,-2.951,255.342,51.017,101052.031,44.268,125.611
四川,乐山市,43.104,53.234,10.795,16.878,0.728,36.202,1.269,-4.367,268.323,90.419,90979.486,29.218,103.569
四川,内江市,29.195,37.213,5.871,17.387,0.76,24.029,-1.54,-3.47,272.981,98.725,98526.505,29.62,104.95
四川,凉山彝族自治州,24.3,36.649,17.17,12.393,0.908,49.26,0.171,2.577,269.634,86.344,74214.771,27.883,102.065
四川,南充市,44.764,55.57,10.168,16.129,0.758,39.991,-4.314,-2.405,272.179,91.232,98670.897,31.19,106.199
四川,宜宾市,25.507,33.206,10.883,21.152,0.787,25.469,3.516,-3.457,272.163,95.395,96795.779,28.573,104.621
四川,巴中市,45.031,56.748,13.186,14.573,0.671,46.799,-5.366,-2.139,269.25,75.444,94099.444,32.033,107.031
四川,广元市,40.785,55.242,12.241,13.266,0.695,50.077,-3.256,-2.731,268.716,75.851,93161.335,32.261,105.788
四川,广安市,31.124,39.11,7.282,16.35,0.647,32.69,-1.41,1.481,273.132,92.69,98651.81,30.43,106.628
四川,德阳市,42.317,53.497,7.577,17.025,0.663,44.229,-3.717,-4.428,270.018,83.476,94839.247,31.13,104.436
四川,成都市,43.829,56.205,7.974,20.568,0.764,38.657,-2.348,-3.899,270.143,86.463,95000.92,30.64,103.929
四川,攀枝花市,32.612,51.96,38.713,33.604,1.731,32.833,-1.849,2.74,278.141,87.943,81667.345,26.791,101.734
四川,泸州市,19.728,26.436,11.62,16.638,0.683,26.819,-0.251,1.426,271.795,94.342,95023.818,28.424,105.675
四川,甘孜藏族自治州,6.236,7.17,1.631,0.944,0.189,80.805,7.335,2.906,260.318,66.324,60692.671,30.936,100.009
四川,眉山市,44.511,55.345,7.819,21.027,0.799,33.138,0.814,-4.271,270.15,93.547,95489.982,29.912,103.766
四川,绵阳市,42.319,54.261,12.866,13.227,0.608,50.022,-2.625,-2.948,267.114,79.135,89251.644,31.86,104.704
四川,自贡市,29.348,35.586,6.718,19.791,0.786,23.528,1.635,-4.395,272.878,96.993,98510.201,29.307,104.659
四川,资阳市,33.297,41.969,5.683,16.544,0.743,28.853,-2.959,-3.627,272.727,98.217,98834.566,30.102,105.149
四川,达州市,49.465,60.334,14.297,21.379,0.704,39.535,-4.446,-0.092,271.024,75.5,95794.411,31.335,107.636
四川,遂宁市,33.778,42.927,7.387,15.66,0.746,34.387,-3.217,-3.617,272.578,96.551,99124.253,30.642,105.457
四川,阿坝藏族羌族自治州,20.964,24.7,5.686,5.082,0.718,66.326,4.335,0.97,261.694,65.302,65139.755,32.406,102.61
四川,雅安市,44.705,52.523,13.729,10.123,0.61,53.506,-0.908,-0.525,263.73,88.238,80718.879,29.932,102.689
天津,天津市,23.937,47.898,8.517,34.312,0.647,26.438,2.775,-5.467,266.598,26.042,104172.911,39.315,117.308
宁夏,中卫市,31.104,54.377,18.671,22.301,0.792,33.917,-2.568,3.037,261.289,64.677,84512.204,37.018,105.509
宁夏,吴忠市,16.643,29.328,11.803,12.347,0.49,39.829,-3.052,2.681,260.352,53.466,86298.953,37.454,106.577
宁夏,固原市,27.114,45.619,14.095,17.355,0.658,46.177,-1.337,3.701,259.858,79.091,81764.581,35.905,106.183
宁夏,石嘴山市,34.801,62.194,41.428,29.583,1.169,33.708,-1.669,0.603,258.175,30.586,88205.994,39.013,106.499
宁夏,银川市,22.73,41.989,20.827,22.356,0.836,35.057,-2.785,-0.515,259.958,37.148,88493.429,38.287,106.342
安徽,亳州市,30.209,57.048,10.322,29.893,0.465,37.039,-0.577,-5.422,268.772,20.159,104018.032,33.44,116.162
安徽,六安市,30.394,57.82,10.399,24.884,0.42,41.664,-1.063,-5.161,268.521,34.763,101189.251,31.617,116.209
安徽,合肥市,33.007,63.562,11.13,30.959,0.502,35.984,-0.024,-6.154,270.122,32.315,103740.315,31.766,117.359
安徽,安庆市,23.212,49.991,11.763,20.112,0.484,42.731,-3.313,-7.192,270.376,35.14,101510.638,30.557,116.473
安徽,宣城市,32.786,53.838,12.697,29.496,0.648,42.054,0.55,-5.265,270.042,45.797,101399.6,30.676,118.846
安徽,宿州市,31.511,67.439,13.591,36.135,0.589,28.418,0.711,-5.643,268.391,23.387,103912.524,33.844,117.23
安徽,池州市,29.434,54.009,12.764,24.202,0.534,42.139,-2.755,-6.866,270.505,43.395,101664.299,30.296,117.379
安徽,淮北市,30.592,62.326,14.964,36.793,0.528,25.558,0.312,-5.832,268.38,20.196,103993.788,33.722,116.747
安徽,淮南市,34.655,65.813,13.491,35.36,0.461,31.434,-0.808,-6.073,269.816,30.375,103993.155,32.463,116.746
安徽,滁州市,32.949,61.563,10.304,30.533,0.511,39.291,0.9,-6.235,269.675,35.497,103603.147,32.55,118.076
安徽,芜湖市,36.732,62.385,13.588,34.67,0.666,35.346,-0.199,-5.901,271.076,38.94,103843.019,31.167,118.162
安徽,蚌埠市,32.586,66.015,12.374,34.99,0.527,32.119,0.231,-5.767,268.973,25.987,103972.696,33.121,117.263
安徽,铜陵市,32.555,60.148,12.086,27.784,0.552,39.523,-1.033,-6.791,271.239,37.774,103694.052,30.883,117.531
安徽,阜阳市,35.066,64.851,9.925,26.12,0.488,39.83,-1.392,-5.225,269.331,21.133,103995.786,32.937,115.723
安徽,马鞍山市,34.922,61.775,12.932,33.779,0.626,35.369,0.829,-6.239,270.752,38.568,103847.815,31.622,118.386
安徽,黄山市,28.3,47.356,12.678,20.797,0.533,46.885,-2.067,-6.117,269.682,44.154,99160.191,29.869,118.09
山东,东营市,23.545,44.241,15.293,31.491,0.6,34.949,5.072,-4.59,267.748,37.301,104168.18,37.57,118.572
山东,临沂市,30.743,71.578,17.114,39.9,0.787,27.02,1.768,-5.757,267.047,26.87,102246.887,35.289,118.27
山东,威海市,13.395,26.955,9.87,15.09,0.535,54.775,4.275,-5.605,269.958,75.704,103078.561,37.148,122.028
山东,德州市,50.8,88.811,22.079,46.92,1.04,24.12,1.97,-3.47,266.118,19.6,104207.525,37.233,116.679
山东,日照市,25.293,58.459,16.272,35.768,0.703,30.166,2.607,-6.649,267.013,33.651,102305.485,35.566,119.108
山东,枣庄市,37.853,85.25,17.654,39.963,0.72,23.855,1.102,-5.182,267.327,21.658,103114.719,34.925,117.383
山东,泰安市,31.383,71.621,17.758,47.244,0.786,23.687,0.65,-5.138,266.296,20.181,102226.586,35.993,117.04
山东,济南市,36.501,79.985,21.891,47.031,0.883,22.69,1.82,-4.245,265.358,20.28,102208.277,36.639,117.254
山东,济宁市,36.263,75.791,18.079,44.776,0.719,24.348,0.706,-4.522,266.996,20.02,103662.475,35.375,116.697
山东,淄博市,34.836,77.649,23.083,44.707,0.905,22.986,4.064,-4.158,264.917,24.092,101474.953,36.623,118.062
山东,滨州市,33.773,60.366,16.961,38.886,0.811,29.314,4.772,-4.171,266.6,26.019,104195.343,37.516,117.852
山东,潍坊市,30.927,67.481,22.395,41.612,0.839,25.658,5.975,-5.0,266.444,33.685,102953.996,36.53,119.092
山东,烟台市,14.585,29.933,9.368,17.263,0.579,51.869,4.838,-5.739,269.517,64.514,102668.833,37.25,120.789
山东,聊城市,58.638,112.913,22.393,57.022,1.28,24.403,0.881,-2.126,266.174,22.213,104006.719,36.458,115.863
山东,菏泽市,46.364,88.52,15.946,47.671,0.74,31.203,0.485,-3.744,267.328,19.669,103873.921,35.134,115.69
山东,青岛市,25.962,54.209,15.148,32.137,0.782,35.054,6.383,-5.206,268.093,49.07,103422.366,36.46,120.172
山西,临汾市,28.353,51.439,30.065,29.502,0.854,31.29,0.816,-3.225,262.493,25.16,91761.753,36.227,111.398
山西,吕梁市,33.186,61.941,33.589,31.369,0.765,30.103,0.701,-3.182,259.113,28.525,89193.737,37.663,111.27
山西,大同市,26.2,50.281,20.753,20.386,0.958,35.181,3.736,-4.349,257.532,45.352,88613.705,39.911,113.713
山西,太原市,26.93,57.086,27.507,35.591,0.753,27.399,1.938,-2.551,259.705,24.458,89017.835,37.967,112.321
山西,忻州市,27.656,57.234,28.681,27.48,0.7,35.166,1.71,-2.99,257.858,34.045,87403.41,38.877,112.391
山西,晋中市,31.112,54.987,24.576,36.86,0.804,29.295,2.056,-3.132,260.761,21.399,90001.075,37.328,112.997
山西,晋城市,29.925,61.764,31.648,33.585,0.922,29.483,0.344,-2.53,263.696,19.023,92121.01,35.625,112.752
山西,朔州市,42.41,89.779,43.143,35.235,1.066,26.003,3.235,-2.593,257.151,46.698,87949.116,39.619,112.655
山西,运城市,26.068,54.716,26.028,30.915,0.85,32.09,0.325,-3.607,265.997,22.41,96336.177,35.205,111.071
山西,长治市,23.416,43.741,25.162,31.785,0.809,32.616,0.837,-2.851,262.113,19.691,90304.919,36.48,112.915
山西,阳泉市,26.07,46.404,23.206,32.625,0.609,33.842,5.41,-4.964,261.892,23.976,92022.246,38.031,113.512
广东,东莞市,17.36,27.651,6.986,20.132,0.591,22.259,-5.216,-8.563,281.563,59.913,102570.343,22.931,113.81
广东,中山市,16.82,30.547,7.178,26.184,0.621,19.104,-4.619,-10.169,282.749,65.617,102517.974,22.5,113.383
广东,云浮市,15.068,28.112,10.671,15.847,0.555,25.039,-5.09,-6.682,280.082,64.585,100511.552,22.776,111.818
广东,佛山市,14.549,28.825,6.235,23.749,0.602,20.53,-4.241,-9.72,280.604,58.711,102683.874,23.035,112.979
广东,广州市,16.552,27.124,7.777,18.306,0.564,24.638,-4.333,-9.545,280.338,59.515,101710.682,23.339,113.525
广东,惠州市,18.322,27.816,10.292,12.397,0.527,28.159,-4.58,-10.546,280.145,63.233,100627.721,23.244,114.485
广东,揭阳市,16.791,30.125,12.855,16.721,0.647,27.378,-3.964,-9.216,284.288,59.531,101194.429,23.323,116.123
广东,梅州市,16.287,27.192,11.918,12.348,0.56,27.972,-1.239,-7.861,280.652,63.432,99199.661,24.169,116.07
广东,汕头市,17.787,30.823,12.125,17.913,0.602,36.459,-6.252,-9.802,285.443,59.401,102360.173,23.339,116.614
广东,汕尾市,16.395,27.097,12.431,11.631,0.544,30.722,-4.5,-9.648,283.962,60.743,100863.753,23.024,115.527
广东,江门市,17.395,31.725,8.893,24.398,0.586,20.793,-4.718,-11.423,281.352,64.177,101912.676,22.289,112.676
广东,河源市,20.641,31.166,13.049,11.811,0.528,29.499,-2.288,-10.931,277.905,64.811,99449.738,24.021,114.969
广东,深圳市,18.361,30.037,7.944,21.301,0.588,21.036,-5.547,-11.321,281.541,63.864,101982.833,22.667,114.143
广东,清远市,22.007,33.839,13.775,15.786,0.524,28.058,-4.142,-10.361,277.046,63.699,99021.291,24.295,112.871
广东,湛江市,21.836,34.071,13.345,14.798,0.731,30.339,-5.925,-8.706,285.223,65.432,102187.264,21.091,110.163
广东,潮州市,17.397,29.524,11.556,15.308,0.596,33.261,-4.974,-8.384,283.737,59.33,100636.099,23.755,116.754
广东,珠海市,19.557,32.77,12.535,24.087,0.557,24.517,-5.19,-11.938,283.895,68.16,102509.492,22.095,113.317
广东,肇庆市,14.974,27.123,11.329,15.064,0.53,25.151,-5.407,-8.171,279.819,61.175,100647.55,23.505,112.199
广东,茂名市,19.498,31.224,11.869,13.305,0.624,28.805,-8.094,-9.627,282.055,64.255,100352.853,22.013,110.952
广东,阳江市,19.639,31.741,13.027,16.495,0.549,28.565,-5.562,-11.637,280.765,63.405,101001.805,22.042,111.786
广东,韶关市,25.063,38.403,13.629,16.195,0.58,29.924,-3.156,-8.839,275.687,63.663,98282.764,24.785,113.819
广西,北海市,22.518,33.247,14.573,15.231,0.835,24.864,-4.314,-10.128,282.317,59.968,102390.404,21.674,109.37
广西,南宁市,16.009,29.124,9.514,15.017,0.757,23.108,-3.267,-9.851,277.295,69.676,100741.837,23.051,108.469
广西,崇左市,13.197,29.188,11.822,11.698,0.764,26.367,-3.698,-9.477,277.28,78.589,99351.212,22.483,107.291
广西,来宾市,21.601,32.393,10.297,14.126,0.768,23.377,-3.325,-9.936,276.16,68.219,99528.893,23.859,109.417
广西,柳州市,22.732,34.79,13.408,12.945,0.76,27.369,-2.326,-9.929,273.357,71.564,99079.033,24.956,109.372
广西,桂林市,36.026,46.737,12.048,14.054,0.67,30.925,-6.082,-8.641,272.56,71.744,97344.654,25.353,110.513
广西,梧州市,19.19,32.925,14.966,14.394,0.658,22.788,-4.481,-8.177,279.23,62.749,100287.987,23.484,110.996
广西,河池市,13.21,29.096,13.951,10.411,0.648,29.409,-2.626,-7.795,272.824,79.939,96573.184,24.628,107.843
广西,玉林市,16.983,30.907,12.897,14.057,0.739,24.535,-5.474,-9.934,280.403,64.762,100574.561,22.452,110.164
广西,百色市,16.865,32.23,14.707,10.601,0.633,28.431,-2.242,-5.298,274.055,88.394,94309.129,23.981,106.292
广西,贵港市,18.759,30.076,10.446,13.416,0.71,25.898,-5.083,-8.37,279.392,60.181,101208.358,23.322,110.021
广西,贺州市,24.942,38.326,17.543,15.016,0.605,25.751,-4.992,-10.784,275.956,66.276,98461.246,24.364,111.394
广西,钦州市,19.549,30.127,10.49,15.59,0.828,22.821,-3.596,-10.828,279.998,62.557,101758.227,22.173,109.01
广西,防城港市,16.562,30.664,10.476,15.391,0.844,23.141,-2.424,-11.117,278.426,72.421,100098.604,21.88,108.002
新疆,乌鲁木齐市,31.205,46.496,2.876,16.06,0.622,51.84,-0.819,1.782,258.757,59.297,84723.425,43.746,87.818
新疆,五家渠市,89.367,126.52,7.73,42.593,1.43,18.897,3.383,-1.137,256.193,81.333,98078.283,44.363,87.517
新疆,伊犁哈萨克自治州,14.049,19.644,2.433,7.752,0.655,64.073,1.077,-0.361,266.366,26.463,80293.191,43.438,82.146
新疆,克孜勒苏柯尔克孜自治州,6.463,18.593,0.993,1.649,0.215,58.607,5.403,-1.914,264.835,39.165,70358.14,39.661,75.949
新疆,克拉玛依市,11.974,37.104,2.714,12.008,0.419,41.037,-3.199,-3.637,260.537,55.738,99061.193,45.457,85.207
新疆,北屯市,2.386,2.092,2.094,1.676,0.652,50.716,-5.606,2.96,262.034,35.16,97124.924,47.27,87.868
新疆,博尔塔拉蒙古自治州,15.229,30.143,5.638,7.135,0.405,55.582,0.64,-0.581,259.038,50.489,86876.309,44.714,82.114
新疆,双河市,21.426,47.466,9.622,10.58,0.434,43.774,1.076,-1.04,259.972,60.924,99621.124,44.87,82.474
新疆,可克达拉市,77.072,102.206,12.138,41.964,2.808,36.964,-8.306,1.544,273.212,27.952,95174.238,43.918,80.786
新疆,和田地区,5.697,14.049,1.158,1.456,0.206,54.515,2.143,-0.706,263.852,45.319,74206.829,37.059,80.934
新疆,哈密市,3.521,7.17,1.57,1.226,0.224,47.739,-3.396,1.566,261.044,52.474,89247.7,43.042,93.517
新疆,喀什地区,10.758,24.742,2.08,2.846,0.254,48.216,2.211,0.534,264.82,51.579,76430.665,38.125,77.178
新疆,图木舒克市,12.217,20.468,4.937,3.0,0.262,32.542,-1.085,-0.265,266.767,68.488,90074.068,39.892,79.182
新疆,塔城地区,7.851,21.133,2.234,5.441,0.278,50.178,-3.142,0.556,259.8,54.179,90462.984,45.642,84.789
新疆,巴音郭楞蒙古自治州,4.478,12.171,1.144,0.774,0.172,52.233,3.411,-0.492,261.221,47.971,79525.321,39.463,87.481
新疆,新星市,23.49,85.785,3.8,12.265,0.965,40.05,0.4,-0.735,265.61,45.955,93927.08,42.75,93.68
新疆,昆玉市,45.383,126.057,9.667,14.437,0.787,39.957,-3.48,1.49,269.877,51.687,87554.563,37.457,79.093
新疆,昌吉回族自治州,26.324,44.655,4.013,13.503,0.514,46.056,-2.581,1.375,260.063,60.202,90808.793,44.342,88.608
新疆,石河子市,60.425,94.565,7.305,35.835,1.0,24.695,2.185,-0.43,258.655,75.45,95990.17,44.245,86.035
新疆,胡杨河市,18.174,47.522,2.9,11.946,0.464,38.636,-1.802,-1.352,256.868,75.196,99582.73,44.852,84.772
新疆,铁门关市,60.697,245.167,3.56,7.057,0.57,53.583,0.76,0.357,264.363,52.637,92777.367,41.773,85.66
新疆,阿克苏地区,15.793,51.676,3.553,4.382,0.329,45.666,0.178,-0.751,264.371,56.255,85891.339,40.965,81.578
新疆,阿勒泰地区,1.667,1.876,1.04,0.897,0.323,57.667,-7.237,3.198,260.369,39.369,89461.332,46.902,88.421
新疆,阿拉尔市,25.663,98.364,3.665,8.445,0.493,34.343,-1.69,0.057,266.308,66.308,91022.687,40.629,80.998
江苏,南京市,32.061,60.139,12.016,35.722,0.634,33.175,1.292,-5.959,270.888,39.896,103876.868,31.899,118.876
江苏,南通市,28.649,45.848,11.404,18.043,0.584,48.112,5.225,-7.187,273.065,65.764,103788.396,32.201,120.979
江苏,宿迁市,33.818,68.897,12.631,34.64,0.622,31.602,1.192,-6.342,269.25,32.052,104090.27,33.765,118.495
江苏,常州市,31.597,57.072,12.014,34.043,0.722,35.902,2.638,-6.886,271.989,52.047,103849.714,31.613,119.666
江苏,徐州市,37.578,79.965,16.041,38.807,0.701,24.795,1.066,-5.474,268.146,23.846,103901.299,34.363,117.513
江苏,扬州市,28.708,56.018,10.022,27.665,0.573,39.72,2.291,-7.343,270.81,46.471,104007.656,32.709,119.486
江苏,无锡市,32.742,58.863,12.64,34.72,0.761,34.81,3.162,-7.175,272.443,56.219,103701.148,31.546,120.066
江苏,泰州市,29.822,55.398,11.683,25.146,0.627,40.09,3.666,-7.432,271.165,51.185,103901.838,32.605,120.048
江苏,淮安市,31.077,61.99,10.351,31.18,0.541,36.253,1.997,-6.6,269.966,37.518,104022.882,33.362,118.985
江苏,盐城市,26.9,50.272,11.268,22.99,0.526,44.023,4.519,-6.966,272.045,54.961,103940.73,33.529,120.156
江苏,苏州市,33.616,57.333,11.324,32.508,0.733,38.2,3.952,-8.256,273.82,63.016,103780.764,31.374,120.661
江苏,连云港市,30.748,58.935,13.455,32.967,0.669,32.698,2.839,-6.433,269.473,36.981,103913.343,34.519,119.133
江苏,镇江市,30.08,56.958,11.266,33.115,0.665,34.859,2.129,-6.788,271.298,49.142,103858.711,32.016,119.49
江西,上饶市,27.649,47.524,11.25,15.864,0.56,42.031,-3.682,-5.435,273.079,39.562,101301.816,28.778,117.47
江西,九江市,23.429,47.738,10.281,13.801,0.528,44.203,-4.077,-6.459,272.18,45.706,101395.444,29.313,115.444
江西,南昌市,24.107,53.809,8.478,15.784,0.512,41.666,-4.32,-7.997,274.902,47.02,103335.206,28.671,116.016
江西,吉安市,35.309,60.833,15.655,17.138,0.593,38.029,-3.246,-7.564,273.909,53.619,100748.738,26.954,114.831
江西,宜春市,29.832,56.487,10.531,15.996,0.563,41.607,-4.209,-6.401,273.316,47.635,101255.17,28.29,114.974
江西,抚州市,29.51,48.267,11.556,13.308,0.416,41.33,-2.72,-7.508,273.885,45.82,100714.242,27.514,116.42
江西,新余市,32.874,62.023,13.801,19.726,0.636,38.789,-4.118,-7.336,274.053,49.46,102235.037,27.847,114.836
江西,景德镇市,25.812,45.726,11.248,15.136,0.487,43.119,-2.89,-6.163,272.74,37.952,102262.755,29.287,117.24
江西,萍乡市,43.424,66.082,13.942,16.269,0.806,35.58,-5.353,-5.088,273.147,50.262,99757.604,27.505,113.908
江西,赣州市,30.562,47.553,14.289,13.094,0.583,38.179,-1.372,-9.063,274.899,60.473,98732.338,25.692,115.279
江西,鹰潭市,31.669,50.078,10.592,15.156,0.482,40.026,-4.222,-5.473,273.928,39.293,101815.678,28.222,117.094
河北,保定市,47.385,74.933,16.65,33.254,0.947,32.593,1.377,-2.331,265.145,22.85,100133.207,39.018,115.159
河北,唐山市,26.545,44.689,11.048,32.908,0.647,25.938,2.035,-4.773,265.749,32.904,103529.768,39.731,118.354
河北,廊坊市,34.678,58.82,11.111,37.419,0.752,27.111,2.435,-5.024,266.745,23.43,104267.642,39.267,116.632
河北,张家口市,8.271,11.629,3.789,6.166,0.353,48.57,5.295,-6.183,256.046,52.544,89037.954,40.877,115.042
河北,承德市,6.827,9.606,2.745,6.866,0.304,48.969,3.962,-6.932,257.54,47.608,92492.159,41.339,117.578
河北,沧州市,52.716,80.491,19.615,45.94,1.048,24.207,2.436,-3.847,266.463,21.549,104300.089,38.258,116.744
河北,石家庄市,36.716,66.747,19.794,40.132,0.853,25.623,1.973,-1.686,266.498,21.05,100753.432,38.135,114.407
河北,秦皇岛市,24.289,39.402,9.718,21.423,0.675,35.567,1.231,-4.774,263.509,38.615,100953.62,40.12,119.193
河北,衡水市,60.176,95.86,20.662,48.035,1.205,23.26,1.047,-0.882,266.054,22.517,104196.819,37.755,115.813
河北,邢台市,47.243,89.18,18.39,43.741,1.085,22.884,2.004,-2.31,266.713,22.404,102565.071,37.195,114.815
河北,邯郸市,56.257,104.051,22.44,48.679,1.421,20.294,1.018,-2.212,266.612,23.333,102057.914,36.538,114.596
河南,三门峡市,24.08,44.603,16.063,25.078,0.553,36.146,1.265,-2.726,264.853,21.041,93690.655,34.362,111.101
河南,信阳市,36.634,63.694,10.937,20.517,0.489,44.216,-2.892,-5.326,269.442,24.372,102907.766,32.091,114.907
河南,南阳市,48.113,77.935,11.623,33.053,0.773,25.446,-1.918,-0.941,269.269,20.094,100705.144,33.034,112.323
河南,周口市,42.854,79.422,11.327,33.232,0.64,38.557,-1.212,-4.109,268.939,18.016,103814.011,33.738,114.884
河南,商丘市,33.116,66.839,11.335,37.103,0.553,35.463,-0.123,-4.492,268.107,18.424,103886.146,34.277,115.718
河南,安阳市,50.922,83.506,20.724,47.783,1.208,22.655,1.137,-2.555,266.755,21.12,101630.802,35.888,114.318
河南,平顶山市,59.249,91.74,17.325,45.137,0.854,17.151,-0.916,-1.175,268.812,18.258,101424.889,33.8,113.025
河南,开封市,51.049,82.035,15.155,44.591,0.888,31.858,-0.436,-3.12,268.19,17.699,103556.306,34.594,114.514
河南,新乡市,50.165,81.785,17.106,47.248,1.034,27.216,-0.556,-2.185,267.55,18.882,102542.152,35.256,114.111
河南,洛阳市,31.893,60.23,16.676,34.945,0.652,27.497,0.658,-2.105,266.82,18.467,96293.418,34.274,112.019
河南,济源市,36.177,73.81,26.285,42.497,0.9,20.415,-1.282,-1.715,267.435,15.585,98322.0,35.105,112.445
河南,漯河市,58.926,88.926,14.338,39.285,0.712,29.44,-1.566,-2.802,269.122,16.454,103660.288,33.652,113.945
河南,濮阳市,62.003,110.627,20.586,55.778,1.243,25.542,1.015,-2.736,266.788,22.742,103875.117,35.809,115.283
河南,焦作市,55.314,98.931,23.682,52.644,1.131,15.104,-1.876,-1.032,268.306,16.543,102320.579,35.121,113.163
河南,许昌市,62.152,93.905,18.17,47.34,0.896,19.609,-1.135,-1.886,268.839,16.426,102919.238,34.075,113.707
河南,郑州市,58.848,97.586,19.687,54.575,1.057,14.542,-0.935,-0.962,268.088,18.489,101471.668,34.634,113.438
河南,驻马店市,47.318,80.628,10.844,28.246,0.58,38.584,-2.213,-4.002,269.352,17.428,103292.141,32.925,114.174
河南,鹤壁市,51.151,80.967,18.394,49.56,1.166,21.007,0.638,-3.054,267.497,20.437,102930.331,35.716,114.319
浙江,丽水市,25.812,43.17,11.023,18.897,0.529,46.694,-1.944,-5.598,270.378,56.412,96064.653,28.194,119.51
浙江,台州市,28.81,49.053,10.801,23.688,0.61,42.011,2.597,-8.529,274.051,64.415,100587.466,28.742,121.109
浙江,嘉兴市,34.829,59.142,10.509,35.563,0.762,33.106,3.161,-7.444,274.179,61.67,103750.136,30.635,120.754
浙江,宁波市,32.172,52.995,10.881,33.7,0.755,33.65,4.595,-8.172,275.248,73.631,102263.079,29.706,121.49
浙江,杭州市,27.25,46.187,11.278,22.296,0.607,42.797,0.501,-5.786,271.222,49.621,100656.777,29.891,119.464
浙江,温州市,26.753,45.104,10.811,19.341,0.517,45.655,1.444,-7.999,273.932,52.505,99256.696,27.897,120.411
浙江,湖州市,31.718,53.584,11.641,29.081,0.693,39.266,3.634,-5.906,271.791,54.334,102479.292,30.757,119.871
浙江,绍兴市,32.121,56.675,9.922,31.774,0.739,34.989,2.603,-6.369,272.723,64.437,101488.099,29.709,120.64
浙江,舟山市,17.828,30.732,9.788,16.465,0.518,51.492,4.51,-9.978,278.335,79.585,103230.472,30.038,122.23
浙江,衢州市,25.924,43.246,12.004,20.579,0.582,42.885,-4.192,-4.659,271.928,42.719,99762.495,28.912,118.675
浙江,金华市,27.252,49.247,10.755,26.042,0.625,40.98,-0.48,-6.095,271.463,57.476,100036.475,29.109,119.967
海南,万宁市,18.049,34.947,10.02,10.4,0.439,48.444,-4.492,-10.249,290.849,86.321,100741.801,18.842,110.294
海南,三亚市,11.456,25.413,9.219,7.776,0.543,61.124,-8.89,-9.38,291.377,73.781,99296.54,18.413,109.407
海南,东方市,20.606,30.895,13.185,8.657,0.41,50.692,-8.162,-7.889,289.877,77.071,100090.249,18.971,108.838
海南,临高县,21.273,36.433,11.341,11.657,0.606,39.89,-7.486,-7.814,289.277,81.121,101522.197,19.821,109.733
海南,乐东黎族自治县,17.088,28.596,11.702,8.159,0.442,54.453,-8.648,-8.762,289.728,77.878,98439.633,18.659,109.072
海南,五指山市,20.672,33.44,11.572,9.442,0.46,48.288,-7.632,-8.992,286.756,91.63,95235.674,18.81,109.518
海南,儋州市,22.523,36.108,12.099,10.769,0.507,43.481,-7.595,-6.509,289.239,81.738,101142.966,19.568,109.399
海南,定安县,18.568,35.797,9.962,13.697,0.69,35.442,-5.857,-7.782,289.945,82.762,101142.72,19.47,110.28
海南,屯昌县,19.284,35.56,11.248,13.296,0.638,37.83,-5.136,-6.928,289.266,85.14,100340.622,19.342,110.076
海南,文昌市,18.874,36.934,9.91,13.506,0.605,37.245,-7.876,-9.832,290.844,82.506,101931.435,19.707,110.773
海南,昌江黎族自治县,23.1,34.422,12.889,9.262,0.432,48.619,-9.553,-7.53,288.393,84.747,99127.52,19.233,109.016
海南,海口市,19.085,37.29,9.778,14.263,0.703,33.828,-7.566,-8.707,289.992,82.138,101775.846,19.842,110.393
海南,澄迈县,20.051,36.836,11.211,13.867,0.707,35.104,-6.4,-7.194,289.466,83.014,101319.177,19.676,109.989
海南,琼中黎族苗族自治县,20.686,35.807,11.576,11.751,0.518,42.155,-4.234,-6.545,287.785,91.919,98068.367,19.087,109.847
海南,琼海市,17.193,34.198,10.193,12.097,0.548,41.803,-4.752,-7.978,291.062,82.057,101654.325,19.22,110.43
海南,白沙黎族自治县,22.328,35.709,12.621,10.772,0.478,44.714,-6.134,-5.175,287.251,91.98,97788.164,19.2,109.388
海南,陵水黎族自治县,15.903,30.609,10.483,8.947,0.474,53.616,-5.163,-11.354,290.487,81.79,99973.884,18.581,109.913
湖北,仙桃市,32.393,56.363,7.499,15.81,0.626,43.555,-3.174,-7.719,271.595,26.795,103875.95,30.284,113.417
湖北,十堰市,39.802,59.418,15.485,17.5,0.606,34.879,-1.051,-0.225,267.6,52.241,95338.257,32.462,110.476
湖北,咸宁市,30.307,50.288,7.928,17.198,0.535,41.885,-2.364,-5.625,271.942,43.769,101691.983,29.621,114.178
湖北,天门市,33.236,58.4,8.263,16.438,0.656,44.908,-3.316,-6.537,271.772,23.539,103879.185,30.633,113.053
湖北,孝感市,33.127,58.332,8.787,15.915,0.57,45.431,-3.276,-7.087,270.632,24.551,103225.458,31.116,113.869
湖北,宜昌市,47.933,65.092,12.939,23.04,0.634,35.616,-2.321,-2.305,268.088,39.733,96184.552,30.746,111.129
湖北,恩施土家族苗族自治州,43.612,62.288,13.594,15.966,0.534,43.434,-2.954,0.369,266.472,69.591,91136.397,30.195,109.552
湖北,武汉市,29.117,51.594,7.279,18.769,0.539,42.044,-2.688,-7.812,271.818,30.95,103718.417,30.606,114.349
湖北,潜江市,33.02,60.507,6.708,16.879,0.697,43.566,-3.398,-6.643,271.876,24.223,103877.054,30.33,112.77
湖北,神农架林区,42.51,55.548,16.195,10.591,0.503,43.413,-1.078,-0.763,262.622,78.254,84010.388,31.592,110.49
湖北,荆州市,36.59,60.431,8.111,18.277,0.69,41.029,-2.908,-7.299,272.03,28.557,103596.692,30.01,112.512
湖北,荆门市,40.941,61.965,10.751,21.455,0.678,39.501,-2.019,-5.874,271.124,21.066,102810.562,31.059,112.616
湖北,襄阳市,48.763,73.404,11.986,27.514,0.745,27.838,-1.112,-2.377,269.068,28.792,99874.162,31.919,111.96
湖北,鄂州市,23.19,47.747,6.96,17.246,0.489,44.557,-1.383,-5.891,272.903,35.101,103699.509,30.337,114.794
湖北,随州市,35.931,59.701,9.79,20.351,0.589,44.209,-3.016,-5.153,269.803,19.803,102060.453,31.809,113.43
湖北,黄冈市,22.8,48.04,8.323,14.539,0.472,46.874,-3.176,-4.85,271.019,31.487,101805.468,30.702,115.358
湖北,黄石市,24.201,51.248,9.254,17.648,0.528,41.573,-2.288,-2.693,272.681,41.097,102595.947,29.925,115.034
湖南,娄底市,37.589,55.457,8.571,14.489,0.749,41.871,-2.833,-7.922,270.144,54.678,99282.657,27.715,111.632
湖南,岳阳市,36.183,56.497,7.671,15.761,0.631,41.321,-3.324,-7.176,272.735,44.212,102450.703,29.081,113.275
湖南,常德市,40.476,61.816,10.084,18.645,0.723,40.461,-3.141,-6.873,270.936,35.089,101737.114,29.271,111.524
湖南,张家界市,41.986,63.328,12.19,18.211,0.598,43.459,-5.461,-3.847,268.886,39.768,97420.245,29.379,110.526
湖南,怀化市,42.581,60.165,10.555,12.088,0.75,44.089,-3.935,-5.929,269.51,59.08,98314.452,27.535,110.071
湖南,株洲市,44.049,64.369,12.802,16.953,0.702,32.736,-4.3,-5.614,273.955,55.26,99865.329,27.109,113.513
湖南,永州市,46.957,61.303,10.381,18.709,0.596,30.295,-3.877,-8.831,272.197,74.824,98270.658,25.748,111.723
湖南,湘潭市,36.675,55.14,7.005,23.47,0.662,27.216,-1.565,-8.448,273.539,56.726,102478.086,27.744,112.619
湖南,湘西土家族苗族自治州,43.849,63.472,8.721,14.273,0.639,44.582,-5.188,-3.014,268.917,45.536,97317.707,28.708,109.718
湖南,益阳市,37.692,57.448,7.433,14.153,0.75,44.158,-2.526,-7.95,270.828,45.667,101089.798,28.525,111.919
湖南,衡阳市,45.413,59.94,8.691,20.241,0.625,29.668,-2.168,-8.242,274.215,60.752,101833.524,26.781,112.565
湖南,邵阳市,44.059,57.763,11.653,14.018,0.673,40.829,-4.26,-6.145,269.287,72.77,96790.615,26.893,110.881
湖南,郴州市,36.09,52.648,11.329,17.551,0.552,30.489,-1.74,-7.929,273.55,68.056,97290.58,25.769,113.109
湖南,长沙市,39.088,59.928,7.779,18.278,0.676,34.949,-2.293,-6.865,273.366,50.843,101841.683,28.235,113.159
甘肃,临夏回族自治州,73.493,101.353,15.608,23.975,1.126,40.595,-0.93,1.061,261.922,73.738,77856.444,35.617,103.291
甘肃,兰州市,55.364,87.327,27.651,43.702,1.197,27.324,0.11,1.574,261.387,76.732,79602.207,36.359,103.633
甘肃,嘉峪关市,32.058,89.347,11.452,24.815,0.685,45.963,-2.283,1.968,258.585,55.932,82183.557,39.798,98.145
甘肃,天水市,34.848,51.958,16.475,14.802,0.584,49.855,-2.136,2.81,261.929,71.742,83627.514,34.645,105.739
甘肃,定西市,56.754,85.082,20.079,19.578,0.887,44.441,-1.312,3.184,260.247,81.32,77675.896,35.124,104.432
甘肃,平凉市,26.083,44.13,10.837,16.215,0.588,48.446,-1.172,1.959,261.663,71.136,85692.921,35.304,106.644
甘肃,庆阳市,13.85,24.062,8.83,8.962,0.426,48.382,-1.865,1.471,261.173,54.107,87123.626,36.149,107.596
甘肃,张掖市,15.595,31.472,5.679,6.32,0.297,57.217,1.872,0.249,259.308,52.11,74748.564,38.94,99.855
甘肃,武威市,20.886,37.778,16.463,15.562,0.495,37.729,-1.82,0.67,259.242,56.055,82103.951,38.163,103.073
甘肃,甘南藏族自治州,22.995,28.229,6.555,5.187,0.341,59.688,3.292,-0.347,258.723,69.653,67445.792,34.331,102.768
甘肃,白银市,44.536,75.604,24.746,27.5,0.997,33.779,-1.198,4.757,262.009,75.132,82187.406,36.59,104.646
甘肃,酒泉市,5.254,9.611,3.134,2.525,0.205,48.551,-1.964,2.083,258.037,53.029,79470.736,40.236,96.062
甘肃,金昌市,19.026,43.801,14.959,14.443,0.533,37.96,-1.782,1.606,259.064,59.534,81167.828,38.44,102.048
甘肃,陇南市,41.446,59.621,18.967,13.655,0.607,51.93,-1.04,0.774,262.202,74.085,83142.982,33.599,105.224
福建,三明市,20.355,32.174,11.046,10.428,0.458,39.817,-1.998,-5.266,275.384,58.593,96508.499,26.29,117.395
福建,南平市,23.309,36.092,12.218,12.899,0.5,42.458,-2.07,-5.159,274.75,46.244,97411.276,27.324,118.143
福建,厦门市,26.055,40.735,8.155,18.122,0.525,44.815,-6.057,-11.737,282.383,54.773,101662.885,24.642,118.11
福建,宁德市,26.788,39.494,12.484,14.754,0.514,45.422,-1.426,-6.177,274.88,49.766,96632.897,26.968,119.474
福建,泉州市,25.124,37.989,8.96,13.88,0.516,46.655,-3.501,-8.591,279.103,61.939,97793.296,25.201,118.249
福建,漳州市,19.977,32.824,9.484,15.268,0.516,39.228,-4.782,-7.874,281.831,61.123,99372.256,24.372,117.444
福建,福州市,28.652,40.663,8.808,16.181,0.571,47.101,-3.105,-7.803,277.985,55.453,98755.019,26.083,119.206
福建,莆田市,28.762,40.055,9.062,15.442,0.545,50.365,-4.105,-10.499,279.423,57.717,99435.798,25.445,118.864
福建,龙岩市,16.574,27.974,10.717,9.849,0.464,38.693,-2.103,-6.516,277.507,65.268,96345.011,25.256,116.739
西藏,山南市,4.863,5.673,0.514,1.302,0.155,90.672,2.834,-3.757,265.112,51.729,65967.05,28.295,92.274
西藏,拉萨市,0.799,1.708,0.052,1.321,0.16,88.364,4.332,-3.352,256.056,53.192,56208.697,30.043,91.093
西藏,日喀则市,0.519,0.835,0.04,0.482,0.141,91.008,2.988,-3.36,256.707,46.146,54995.3,29.483,86.493
西藏,昌都市,2.397,2.612,0.309,0.511,0.138,81.484,6.194,1.334,257.312,60.211,58621.571,30.753,97.044
西藏,林芝市,3.997,4.335,0.543,1.151,0.142,83.583,2.468,-1.329,265.074,58.689,66166.758,29.184,95.25
西藏,玉树藏族自治州,0.43,0.554,0.088,0.217,0.136,77.935,7.549,-1.386,251.321,54.315,56737.641,34.196,94.317
西藏,那曲市,0.195,0.271,0.025,0.134,0.133,82.388,7.864,-3.956,253.947,44.827,54993.457,32.709,89.262
西藏,阿里地区,0.239,0.355,0.022,0.994,0.134,77.68,6.007,-3.134,255.693,34.609,54503.668,33.013,82.553
贵州,六盘水市,9.747,21.321,12.528,14.763,0.914,25.645,-3.586,-2.909,268.585,92.398,83909.352,26.106,104.896
贵州,安顺市,10.981,21.547,10.968,13.154,0.6,29.626,-3.749,-5.389,269.578,89.586,89350.588,25.986,105.978
贵州,毕节市,13.31,22.1,11.93,14.116,0.774,31.356,-2.996,-2.588,266.813,91.657,84362.13,27.063,105.211
贵州,贵阳市,13.749,20.612,11.197,12.63,0.569,33.766,-3.478,-3.773,267.018,91.487,89501.697,26.845,106.71
贵州,遵义市,29.015,36.449,16.248,10.846,0.563,40.55,-4.422,0.106,267.449,88.945,91948.55,28.167,107.102
贵州,铜仁市,42.643,56.309,15.74,10.933,0.746,43.761,-4.851,-3.085,267.067,76.505,94552.714,27.937,108.534
贵州,黔东南苗族侗族自治州,28.656,41.129,19.581,11.354,0.7,38.763,-3.458,-6.773,267.272,86.821,94276.899,26.495,108.574
贵州,黔南布依族苗族自治州,16.895,25.824,16.025,10.501,0.554,36.772,-3.425,-5.956,268.373,89.491,91729.73,26.0,107.265
贵州,黔西南布依族苗族自治州,14.501,28.488,14.878,14.022,0.736,24.726,-3.402,-3.788,271.301,93.158,89717.09,25.256,105.467
辽宁,丹东市,18.292,32.979,11.885,18.962,0.622,41.372,3.298,-6.018,259.013,50.451,100438.445,40.554,124.376
辽宁,大连市,11.788,24.616,8.368,12.099,0.405,50.576,2.349,-7.289,264.289,50.851,103042.776,39.591,122.22
辽宁,抚顺市,29.455,46.526,11.426,22.813,0.657,37.229,4.391,-3.424,256.383,54.493,98534.786,41.841,124.65
辽宁,朝阳市,12.092,24.896,9.765,10.098,0.471,46.53,3.604,-7.942,259.86,39.822,98362.738,41.545,120.053
辽宁,本溪市,22.046,39.854,13.004,23.521,0.685,37.933,4.155,-5.377,256.426,56.048,97801.107,41.232,124.544
辽宁,沈阳市,20.461,37.373,9.127,16.749,0.524,37.225,3.454,-4.814,260.09,36.503,103269.389,42.081,123.159
辽宁,盘锦市,18.213,38.084,12.329,19.177,0.567,40.567,2.426,-5.531,262.151,35.842,104076.005,41.13,122.01
辽宁,营口市,15.413,37.37,11.893,19.377,0.614,43.917,2.47,-6.796,260.697,44.662,101547.512,40.395,122.478
辽宁,葫芦岛市,20.56,38.099,13.587,16.801,0.682,41.39,2.306,-6.736,262.397,33.533,101392.74,40.66,120.215
辽宁,辽阳市,19.972,45.861,13.378,24.292,0.791,37.139,3.606,-5.13,259.535,43.854,101751.328,41.153,123.261
辽宁,铁岭市,30.288,45.583,9.296,18.257,0.589,38.735,4.005,-3.741,257.853,43.434,101447.398,42.653,124.158
辽宁,锦州市,15.333,30.014,10.093,12.964,0.475,43.05,2.967,-6.287,261.668,35.628,103180.009,41.502,121.659
辽宁,阜新市,9.346,16.41,4.816,5.893,0.32,44.715,4.207,-6.622,259.797,38.447,101496.806,42.289,121.968
辽宁,鞍山市,16.079,36.788,11.069,18.602,0.706,42.094,3.693,-6.202,260.15,44.009,101813.837,40.731,123.007
重庆,重庆城区,32.968,42.728,12.972,17.084,0.579,35.439,-4.078,2.376,271.831,77.679,96850.59,29.824,107.125
重庆,重庆郊县,43.108,57.79,17.466,14.376,0.55,41.583,-4.15,0.224,268.232,68.994,92789.993,30.334,108.755
陕西,咸阳市,28.947,47.444,10.788,26.849,0.632,36.166,-1.419,0.217,265.615,35.954,93351.631,34.779,108.367
陕西,商洛市,25.305,35.504,11.673,17.074,0.426,43.808,-1.19,-2.051,265.32,32.342,90984.987,33.64,109.889
陕西,安康市,33.963,43.642,14.476,14.014,0.507,44.582,-3.245,-0.305,266.466,55.436,91546.192,32.735,108.932
陕西,宝鸡市,29.287,42.187,8.89,16.633,0.538,51.91,-1.442,-0.11,262.825,61.619,87736.356,34.386,107.193
陕西,延安市,20.387,32.193,17.725,23.202,0.769,38.393,-0.819,-1.998,260.294,48.798,89103.172,36.432,109.316
陕西,榆林市,29.825,44.656,26.805,36.75,0.922,31.776,-0.443,-1.293,259.139,47.896,89520.644,38.041,109.581
陕西,汉中市,36.741,48.329,12.805,12.251,0.595,50.491,-3.195,-0.255,266.442,57.633,90494.716,33.088,107.098
陕西,渭南市,26.703,46.85,14.873,27.824,0.556,35.137,-0.726,-1.651,266.406,27.911,95932.427,34.919,109.855
陕西,西安市,35.049,53.38,9.645,27.994,0.638,37.535,-1.086,-0.845,265.273,39.381,92333.667,34.12,108.77
陕西,铜川市,20.299,31.729,15.075,19.602,0.515,40.917,-0.144,-3.322,263.031,33.219,90843.1,35.198,109.058
青海,保亭黎族苗族自治县,14.642,28.266,10.094,8.374,0.516,56.052,-6.9,-10.434,289.362,82.398,97749.086,18.566,109.618
青海,吐鲁番市,11.824,45.645,2.672,3.205,0.403,47.902,0.138,-0.089,261.679,47.937,91336.83,42.386,89.851
青海,果洛藏族自治州,2.082,2.298,0.59,0.665,0.148,71.012,6.33,0.251,251.424,64.542,59462.98,34.127,99.404
青海,海东市,33.191,42.128,12.801,16.204,0.633,48.547,1.597,0.355,260.364,70.373,72821.619,36.347,102.34
青海,海北藏族自治州,4.033,4.853,1.661,1.704,0.182,72.384,3.474,0.284,255.96,59.087,64907.139,37.775,100.288
青海,海南藏族自治州,2.627,2.972,0.801,0.962,0.155,69.747,5.505,0.502,257.161,54.615,66224.11,35.89,100.272
青海,海西蒙古族藏族自治州,0.814,0.964,0.426,0.437,0.144,69.762,4.014,0.772,255.865,48.6,64167.323,36.677,94.519
青海,西宁市,25.947,35.035,8.651,15.48,0.672,55.117,2.044,0.292,258.39,69.416,69408.733,36.842,101.423
青海,黄南藏族自治州,7.617,8.401,1.95,2.039,0.191,63.721,5.104,-0.27,257.113,63.824,65533.665,35.022,101.631
香港,香港特别行政区,18.555,30.625,9.805,21.065,0.54,23.435,-5.86,-12.125,283.255,66.56,102108.63,22.45,114.22
黑龙江,七台河市,11.415,21.235,2.351,5.081,0.298,56.764,11.438,-2.576,252.413,68.229,99073.885,45.87,130.943
黑龙江,伊春市,2.047,2.376,1.395,1.906,0.235,60.184,7.285,-5.206,249.674,69.035,97662.158,47.772,129.184
黑龙江,佳木斯市,4.759,7.784,1.563,3.01,0.267,56.844,8.288,-2.095,253.324,63.445,100986.409,47.207,132.11
黑龙江,双鸭山市,5.362,7.956,2.373,4.391,0.258,56.958,9.329,-2.189,252.729,65.985,100482.06,46.722,132.643
黑龙江,哈尔滨市,21.263,28.201,7.91,10.723,0.503,48.794,7.002,-1.536,253.095,64.016,99999.997,45.634,127.964
黑龙江,大兴安岭地区,0.64,0.393,0.862,1.084,0.219,59.693,6.384,-5.312,247.232,61.571,96482.396,52.286,124.212
黑龙江,大庆市,14.704,18.71,6.295,9.512,0.332,47.727,4.934,-5.786,255.677,47.188,101802.94,46.327,124.687
黑龙江,牡丹江市,13.455,19.391,4.026,5.882,0.323,52.286,10.043,-2.076,252.469,64.529,96187.571,44.592,129.883
黑龙江,绥化市,14.034,17.321,3.605,6.743,0.371,54.028,5.15,-5.105,253.07,58.531,100659.513,46.89,126.634
黑龙江,鸡西市,7.328,10.868,2.615,5.082,0.26,56.951,9.942,-3.614,253.8,65.465,100301.056,45.626,132.289
黑龙江,鹤岗市,2.118,3.123,1.36,2.098,0.246,60.616,8.3,-5.992,251.7,61.875,100054.072,47.661,130.778
黑龙江,黑河市,1.97,3.857,1.183,1.718,0.25,61.447,4.56,-6.79,249.824,64.549,98457.377,49.268,127.004
黑龙江,齐齐哈尔市,8.042,10.268,3.966,4.103,0.288,55.139,4.216,-7.226,254.484,47.966,100873.459,47.715,124.57
