province,city,PM2.5,PM10,SO2,NO2,CO,O3,U,V,TEMP,RH,PSFC,lat,lon
上海,上海市,24.526,32.583,6.47,34.001,0.623,42.73,1.244,-7.311,283.066,87.393,102590.485,31.173,121.42
云南,临沧市,23.018,34.018,8.282,5.291,0.482,53.269,-0.296,2.638,285.368,88.743,84256.257,23.935,99.686
云南,丽江市,10.057,15.949,4.49,8.58,0.46,66.622,4.843,3.04,278.072,51.531,74803.927,26.96,100.515
云南,保山市,18.98,32.802,6.527,8.772,0.458,51.865,0.658,1.261,282.835,87.262,82192.296,24.953,98.962
云南,大理白族自治州,13.151,23.206,5.825,7.559,0.463,59.873,3.493,2.638,280.211,80.406,78376.828,25.726,100.053
云南,德宏傣族景颇族自治州,23.158,34.85,8.029,6.224,0.406,51.975,-1.774,0.961,285.973,85.611,86405.365,24.535,98.052
云南,怒江傈僳族自治州,9.454,13.917,2.231,2.952,0.253,71.062,2.255,2.822,275.652,64.173,72923.023,26.916,98.885
云南,文山壮族苗族自治州,21.518,37.351,11.39,8.251,0.63,31.008,-1.63,-1.61,279.778,88.303,87205.355,23.696,104.735
云南,昆明市,20.188,37.531,10.443,19.077,0.74,37.95,1.353,4.506,280.558,92.442,79576.352,25.384,102.863
云南,昭通市,33.777,50.384,14.909,13.211,0.7,33.216,-1.565,-1.916,272.767,81.762,84867.602,27.667,103.985
云南,普洱市,20.552,32.109,7.875,5.293,0.382,44.056,-1.658,2.866,286.422,95.361,86373.556,23.159,100.718
云南,曲靖市,19.443,41.138,12.585,16.934,0.781,29.749,-0.635,2.255,277.447,89.016,80443.342,25.737,103.929
云南,楚雄彝族自治州,19.589,28.387,7.636,8.054,0.551,51.505,2.622,4.453,282.907,86.128,81311.044,25.328,101.567
云南,玉溪市,17.743,28.452,8.345,7.749,0.499,44.44,-1.372,4.437,283.891,94.211,83888.64,24.136,102.217
云南,红河哈尼族彝族自治州,18.953,30.585,10.359,6.533,0.521,38.05,-2.974,2.424,282.818,95.491,85666.196,23.451,103.034
云南,西双版纳傣族自治州,17.441,34.966,7.557,6.92,0.403,33.584,-3.601,0.837,288.205,95.355,89382.578,21.939,100.912
云南,迪庆藏族自治州,5.104,6.286,1.521,2.174,0.218,80.422,5.9,3.387,271.057,48.46,67253.64,27.957,99.459
内蒙古,乌兰察布市,6.149,10.851,3.932,4.135,0.302,46.786,5.591,-2.515,256.014,56.451,86888.682,41.691,112.44
内蒙古,乌海市,28.339,63.236,29.859,35.915,0.772,38.221,0.874,-0.722,259.654,39.936,89079.275,39.396,106.856
内蒙古,兴安盟,11.365,15.418,4.958,4.807,0.333,44.731,3.811,-2.801,255.869,54.715,95930.54,46.244,121.341
内蒙古,包头市,5.833,9.735,4.357,6.255,0.308,49.018,4.477,-1.802,256.299,51.982,86980.744,41.549,110.276
内蒙古,呼伦贝尔市,4.774,6.576,5.983,4.022,0.236,46.465,3.956,0.599,251.383,69.377,94434.204,49.636,121.171
内蒙古,呼和浩特市,19.365,41.115,12.847,24.353,0.724,40.305,3.115,-2.391,257.207,50.514,87356.732,40.578,111.513
内蒙古,巴彦淖尔市,5.131,8.425,3.785,3.905,0.251,51.188,3.118,0.147,257.978,44.489,88616.778,41.446,107.582
内蒙古,赤峰市,17.807,26.373,10.089,7.72,0.391,38.532,4.622,-3.256,258.306,49.346,92967.623,43.226,118.892
内蒙古,通辽市,18.749,26.868,7.563,8.581,0.411,39.2,3.013,-2.935,259.593,44.337,99405.337,43.814,121.591
内蒙古,鄂尔多斯市,9.713,18.102,8.6,12.715,0.391,46.824,2.121,-2.042,259.208,45.603,88299.561,39.407,108.63
内蒙古,锡林郭勒盟,4.885,6.425,3.406,1.669,0.217,42.205,5.323,-0.926,255.493,64.757,90007.422,44.179,115.482
内蒙古,阿拉善盟,3.074,5.188,2.113,2.618,0.205,52.96,-1.891,0.752,260.352,46.339,88841.726,40.473,102.467
北京,北京市,20.268,39.437,7.904,23.697,0.473,34.564,2.843,-6.271,266.878,28.404,99460.002,40.158,116.395
台湾,台湾省,18.835,27.958,7.606,22.233,0.283,44.618,-0.138,-5.122,291.028,80.301,93393.097,23.757,120.975
吉林,吉林市,55.536,72.436,10.156,19.251,0.793,43.937,-0.227,-0.211,259.872,56.977,98488.806,43.573,126.859
吉林,四平市,52.896,73.467,9.717,25.386,0.812,30.237,0.628,-1.666,260.268,41.592,101005.357,43.472,124.386
吉林,延边朝鲜族自治州,25.322,32.643,7.086,11.685,0.489,46.194,1.1,-0.799,259.358,52.975,95238.261,43.141,129.147
吉林,松原市,45.434,59.29,7.701,16.731,0.596,32.582,0.879,-0.389,258.763,42.884,101416.547,44.785,124.496
吉林,白城市,34.78,48.807,9.932,14.008,0.618,36.054,1.339,-1.496,257.725,46.655,101560.134,45.35,123.031
吉林,白山市,31.001,46.458,18.046,21.717,0.959,39.586,0.286,0.613,259.768,55.288,93150.724,42.063,127.256
吉林,辽源市,76.633,98.88,13.814,31.4,1.24,30.905,0.505,-0.673,260.468,55.763,98906.596,42.836,125.32
吉林,通化市,50.815,75.527,20.422,31.478,1.345,28.03,0.226,-1.378,260.745,57.13,96907.495,41.939,125.927
吉林,长春市,60.715,89.431,9.819,24.89,0.864,36.507,0.107,-0.633,259.501,45.846,100901.052,44.268,125.611
四川,乐山市,56.99,75.624,11.116,20.706,0.733,29.202,-0.004,-2.148,274.441,74.923,90710.974,29.218,103.569
四川,内江市,40.767,57.921,8.047,20.26,0.71,28.824,-0.535,-3.502,279.105,51.85,98168.536,29.62,104.95
四川,凉山彝族自治州,18.864,27.983,8.778,8.789,0.558,60.135,2.471,2.954,274.754,58.208,74347.044,27.883,102.065
四川,南充市,45.373,65.663,10.851,19.981,0.7,39.022,-3.036,-3.433,278.097,38.338,98191.839,31.19,106.199
四川,宜宾市,44.696,61.723,11.725,20.647,0.693,24.577,1.042,-1.933,278.458,63.851,96442.968,28.573,104.621
四川,巴中市,45.626,62.769,10.644,12.519,0.565,45.053,-5.641,-3.41,275.071,33.343,93696.704,32.033,107.031
四川,广元市,40.692,60.902,11.189,15.728,0.654,40.134,-2.092,-3.335,274.836,35.433,92797.484,32.261,105.788
四川,广安市,39.942,62.203,9.944,24.532,0.704,30.09,-1.201,-2.236,278.374,45.597,98171.824,30.43,106.628
四川,德阳市,44.622,68.529,7.478,25.468,0.712,31.588,-2.237,-2.02,276.409,43.636,94471.508,31.13,104.436
四川,成都市,43.536,67.674,7.946,28.689,0.755,27.74,-1.782,-2.608,276.742,48.195,94628.089,30.64,103.929
四川,攀枝花市,19.296,32.841,14.32,30.418,1.031,45.898,0.515,2.847,282.828,59.302,81795.545,26.791,101.734
四川,泸州市,32.646,45.734,10.344,18.352,0.613,24.678,0.779,-2.365,277.389,64.785,94711.707,28.424,105.675
四川,甘孜藏族自治州,3.352,4.145,0.801,1.296,0.144,80.63,5.188,3.118,264.08,55.396,60929.125,30.936,100.009
四川,眉山市,47.09,68.389,8.769,24.044,0.771,26.323,-0.449,-2.413,276.956,59.634,95103.882,29.912,103.766
四川,绵阳市,41.547,59.689,10.667,14.306,0.595,42.335,-1.772,-1.558,273.344,48.251,88993.98,31.86,104.704
四川,自贡市,45.569,63.807,8.292,22.756,0.712,24.837,-0.302,-3.331,279.593,54.614,98140.702,29.307,104.659
四川,资阳市,41.525,56.951,8.847,18.013,0.7,33.226,-1.282,-3.356,278.696,46.627,98434.32,30.102,105.149
四川,达州市,50.976,75.486,13.095,21.965,0.641,42.161,-3.408,-1.967,276.344,41.186,95342.8,31.335,107.636
四川,遂宁市,38.534,55.902,9.832,20.147,0.69,35.13,-2.258,-3.75,278.644,41.503,98680.919,30.642,105.457
四川,阿坝藏族羌族自治州,11.849,16.447,2.917,5.025,0.279,62.589,2.35,0.882,264.915,65.139,65353.39,32.406,102.61
四川,雅安市,44.676,62.372,12.967,12.121,0.595,46.435,-1.2,-0.455,269.205,80.795,80652.801,29.932,102.689
天津,天津市,35.601,74.634,12.883,40.301,0.757,20.102,1.687,-5.879,269.24,26.865,103397.889,39.315,117.308
宁夏,中卫市,20.468,38.601,8.201,13.833,0.39,41.273,-1.11,-0.44,262.583,49.447,84536.288,37.018,105.509
宁夏,吴忠市,14.318,26.927,9.602,12.581,0.348,42.211,-0.516,-0.807,261.688,42.094,86244.448,37.454,106.577
宁夏,固原市,23.531,54.403,9.507,14.267,0.427,45.775,0.158,-0.477,262.663,53.811,81731.451,35.905,106.183
宁夏,石嘴山市,25.662,54.872,26.474,28.602,0.721,43.352,0.537,-0.994,259.906,37.384,88075.582,39.013,106.499
宁夏,银川市,21.129,47.038,19.313,24.101,0.609,41.014,-1.21,-0.777,261.502,35.486,88404.318,38.287,106.342
安徽,亳州市,105.394,137.194,9.422,46.55,0.958,30.133,1.629,-6.872,272.421,55.321,103145.132,33.44,116.162
安徽,六安市,83.697,107.391,8.475,47.543,0.865,34.999,2.866,-5.036,271.793,86.347,100417.767,31.617,116.209
安徽,合肥市,76.555,88.912,8.771,44.486,0.89,31.374,3.659,-6.951,274.932,84.323,102809.25,31.766,117.359
安徽,安庆市,57.971,63.718,9.053,27.786,0.759,35.884,0.556,-6.56,275.601,76.586,100695.931,30.557,116.473
安徽,宣城市,37.48,48.136,7.596,31.199,0.895,27.812,3.907,-4.434,276.604,95.574,100475.355,30.676,118.846
安徽,宿州市,96.683,128.403,11.85,48.876,0.96,29.631,2.237,-7.398,272.85,63.79,102983.7,33.844,117.23
安徽,池州市,51.192,56.413,9.836,29.683,0.818,28.479,0.769,-6.456,275.365,92.683,100846.875,30.296,117.379
安徽,淮北市,106.422,136.566,13.25,51.278,0.954,26.691,2.142,-7.343,272.422,59.982,103089.448,33.722,116.747
安徽,淮南市,97.362,123.148,10.838,50.405,0.878,31.371,2.127,-7.619,273.898,77.873,103095.357,32.463,116.746
安徽,滁州市,74.952,92.146,9.548,39.95,0.874,38.63,3.31,-7.457,274.984,80.843,102626.318,32.55,118.076
安徽,芜湖市,54.15,61.779,9.425,37.28,0.929,33.069,3.566,-6.437,277.342,86.773,102856.198,31.167,118.162
安徽,蚌埠市,97.469,124.046,10.916,48.4,0.942,32.805,2.379,-7.315,273.222,73.49,103042.066,33.121,117.263
安徽,铜陵市,61.614,68.638,9.581,35.012,0.844,33.389,3.672,-7.711,276.138,85.934,102767.746,30.883,117.531
安徽,阜阳市,109.327,147.268,8.558,43.455,1.033,30.942,1.391,-6.508,272.483,60.718,103152.236,32.937,115.723
安徽,马鞍山市,55.325,65.533,9.535,35.745,0.921,34.995,3.738,-6.992,277.027,83.826,102840.268,31.622,118.386
安徽,黄山市,28.724,38.321,8.212,24.424,0.8,22.979,1.372,-5.582,275.441,93.499,98394.982,29.869,118.09
山东,东营市,44.883,74.603,16.294,37.403,0.722,28.846,3.935,-4.002,271.904,56.726,103300.179,37.57,118.572
山东,临沂市,73.882,117.375,14.873,42.846,0.944,34.748,2.0,-6.872,271.531,67.322,101348.115,35.289,118.27
山东,威海市,23.669,38.307,8.253,19.48,0.784,43.215,2.565,-4.188,274.467,77.572,102242.597,37.148,122.028
山东,德州市,63.069,115.945,20.269,52.103,0.868,22.757,2.154,-6.031,269.593,21.692,103380.277,37.233,116.679
山东,日照市,62.107,93.656,11.82,35.999,0.843,38.194,2.519,-7.844,271.419,76.324,101385.431,35.566,119.108
山东,枣庄市,87.944,135.649,16.197,50.1,0.957,28.744,1.745,-6.508,272.182,59.32,102212.04,34.925,117.383
山东,泰安市,69.966,122.47,18.763,51.41,0.929,29.398,1.379,-6.33,270.493,38.016,101387.115,35.993,117.04
山东,济南市,63.194,116.585,22.128,50.77,0.858,25.767,1.854,-5.443,269.607,31.512,101385.276,36.639,117.254
山东,济宁市,83.243,132.946,16.841,50.3,1.007,26.66,1.547,-6.605,271.645,39.585,102785.955,35.375,116.697
山东,淄博市,60.596,107.207,21.048,46.015,0.868,26.248,3.152,-4.713,269.709,48.785,100647.278,36.623,118.062
山东,滨州市,46.355,83.936,17.827,43.679,0.784,23.434,4.111,-4.951,271.092,41.139,103328.523,37.516,117.852
山东,潍坊市,59.75,94.426,16.239,40.489,0.942,29.544,4.924,-5.529,271.12,72.071,102067.802,36.53,119.092
山东,烟台市,34.673,48.558,11.87,25.205,0.897,40.587,2.448,-3.337,273.061,84.942,101845.936,37.25,120.789
山东,聊城市,84.583,144.163,21.581,58.522,1.116,25.094,1.401,-6.234,269.84,21.095,103199.53,36.458,115.863
山东,菏泽市,105.183,149.32,16.476,49.256,1.09,27.496,1.253,-6.967,271.519,25.531,103037.214,35.134,115.69
山东,青岛市,53.014,72.655,11.716,32.776,1.006,34.012,3.777,-5.487,272.513,81.117,102514.042,36.46,120.172
山西,临汾市,28.659,55.9,23.096,26.636,0.87,41.431,3.044,-6.052,265.569,34.844,91378.127,36.227,111.398
山西,吕梁市,20.924,48.286,22.403,25.695,0.644,39.347,2.994,-5.363,261.576,37.926,88863.618,37.663,111.27
山西,大同市,17.302,39.623,14.627,16.63,0.564,40.68,4.478,-5.581,259.342,45.861,88191.065,39.911,113.713
山西,太原市,25.178,59.872,22.511,29.072,0.642,36.515,3.765,-5.451,262.132,32.847,88620.273,37.967,112.321
山西,忻州市,21.619,49.659,19.915,23.21,0.534,39.326,3.841,-4.892,259.362,40.623,87032.879,38.877,112.391
山西,晋中市,32.939,70.82,24.194,33.652,0.809,33.0,4.07,-4.934,263.739,31.026,89563.368,37.328,112.997
山西,晋城市,36.389,71.328,19.932,29.565,0.918,40.038,3.082,-6.498,267.073,30.444,91636.967,35.625,112.752
山西,朔州市,23.024,57.437,22.927,25.513,0.662,37.427,4.762,-3.805,258.656,47.836,87567.374,39.619,112.655
山西,运城市,40.772,75.945,21.548,29.65,0.892,39.497,2.982,-5.175,269.261,32.397,95885.813,35.205,111.071
山西,长治市,30.338,61.131,22.352,30.856,0.896,36.302,3.498,-5.644,265.227,30.543,89858.459,36.48,112.915
山西,阳泉市,33.569,67.913,22.758,32.394,0.636,33.689,6.659,-6.538,263.924,27.519,91548.069,38.031,113.512
广东,东莞市,19.391,32.936,6.863,26.148,0.771,20.567,-3.236,-7.63,287.722,62.742,102055.02,22.931,113.81
广东,中山市,23.762,40.381,7.582,34.26,0.817,13.821,-1.908,-9.341,288.489,65.454,102027.412,22.5,113.383
广东,云浮市,18.59,30.445,9.348,19.312,0.734,15.306,-2.532,-6.505,285.728,69.341,100076.479,22.776,111.818
广东,佛山市,20.503,34.409,7.673,27.408,0.803,9.997,-2.891,-9.909,286.352,63.421,102181.97,23.035,112.979
广东,广州市,17.272,28.032,6.75,20.38,0.734,20.831,-2.636,-9.835,286.158,64.296,101221.362,23.339,113.525
广东,惠州市,16.142,28.242,8.341,15.167,0.703,28.808,-2.994,-10.426,285.425,68.209,100157.982,23.244,114.485
广东,揭阳市,17.928,34.786,11.725,16.636,0.821,23.98,1.633,-11.216,288.923,62.555,100627.863,23.323,116.123
广东,梅州市,16.147,32.899,11.704,15.785,0.82,20.75,1.419,-8.294,284.368,73.476,98739.983,24.169,116.07
广东,汕头市,18.071,34.614,13.122,20.62,0.792,24.585,1.475,-8.849,290.686,62.956,101754.396,23.339,116.614
广东,汕尾市,14.63,27.538,10.013,11.724,0.695,32.646,-0.128,-10.69,288.699,63.3,100339.139,23.024,115.527
广东,江门市,24.503,38.001,9.941,26.833,0.742,13.005,-2.907,-10.733,287.134,66.936,101461.952,22.289,112.676
广东,河源市,17.934,31.863,13.597,17.088,0.796,23.761,-1.174,-10.292,282.277,74.896,99005.78,24.021,114.969
广东,深圳市,20.358,37.082,7.908,27.696,0.736,24.358,-3.539,-10.93,286.942,66.591,101495.936,22.667,114.143
广东,清远市,19.313,31.444,11.412,19.489,0.753,18.617,-2.242,-9.894,281.304,71.412,98602.866,24.295,112.871
广东,湛江市,22.436,32.924,12.502,11.869,0.701,26.663,-2.872,-8.049,288.605,73.227,101843.502,21.091,110.163
广东,潮州市,16.056,31.648,10.853,17.155,0.767,24.131,3.192,-9.892,289.015,66.697,100042.328,23.755,116.754
广东,珠海市,25.102,41.842,13.595,33.683,0.738,17.827,-2.363,-10.705,289.152,67.217,102051.473,22.095,113.317
广东,肇庆市,15.368,27.177,10.505,19.59,0.729,16.365,-3.467,-8.211,284.7,66.115,100212.749,23.505,112.199
广东,茂名市,19.892,32.974,12.834,12.671,0.695,23.364,-4.269,-8.389,287.181,69.056,100011.889,22.013,110.952
广东,阳江市,22.824,35.588,12.355,17.115,0.68,19.056,-3.13,-9.754,286.764,68.546,100585.897,22.042,111.786
广东,韶关市,18.822,28.686,8.266,17.594,0.789,22.653,-1.254,-8.225,280.038,74.965,97861.876,24.785,113.819
广西,北海市,17.596,24.668,12.336,13.486,1.007,25.048,-2.308,-9.12,285.469,74.966,102021.911,21.674,109.37
广西,南宁市,16.84,24.964,8.03,11.577,0.72,27.765,-3.014,-8.459,282.236,70.326,100332.775,23.051,108.469
广西,崇左市,15.705,26.966,10.098,8.149,0.63,32.023,-3.761,-6.72,282.904,70.364,98972.501,22.483,107.291
广西,来宾市,19.891,27.987,8.456,10.56,0.716,29.514,-2.457,-9.177,280.901,72.197,99144.124,23.859,109.417
广西,柳州市,23.604,32.811,12.141,9.87,0.69,34.364,-1.887,-9.362,278.636,69.584,98665.167,24.956,109.372
广西,桂林市,32.086,41.814,10.951,13.701,0.671,34.13,-4.562,-7.412,277.453,73.777,96967.104,25.353,110.513
广西,梧州市,19.522,31.678,11.562,15.124,0.77,21.724,-2.6,-8.37,283.461,68.328,99881.925,23.484,110.996
广西,河池市,19.126,33.348,13.278,6.39,0.597,37.478,-3.091,-7.01,279.52,65.948,96196.062,24.628,107.843
广西,玉林市,16.955,28.113,11.856,12.731,0.867,24.069,-3.616,-9.359,284.626,71.327,100209.74,22.452,110.164
广西,百色市,21.156,37.964,12.111,8.139,0.573,34.633,-2.631,-4.002,281.382,69.844,93976.048,23.981,106.292
广西,贵港市,17.567,26.008,8.465,12.51,0.788,25.771,-3.026,-7.105,283.602,69.01,100798.071,23.322,110.021
广西,贺州市,21.944,34.198,14.925,14.615,0.677,24.89,-3.548,-10.245,280.154,72.148,98072.926,24.364,111.394
广西,钦州市,16.425,22.442,9.171,14.147,0.912,23.518,-2.116,-9.605,283.594,73.464,101371.54,22.173,109.01
广西,防城港市,15.759,24.294,9.251,12.53,0.752,26.567,-1.79,-9.584,282.745,76.536,99741.44,21.88,108.002
新疆,乌鲁木齐市,26.843,38.745,3.073,18.567,0.629,59.287,-1.131,2.014,264.673,43.841,84870.719,43.746,87.818
新疆,五家渠市,63.29,91.263,6.557,39.053,0.967,38.207,1.877,-1.013,260.867,75.993,97944.487,44.363,87.517
新疆,伊犁哈萨克自治州,12.799,16.336,3.254,6.051,0.673,65.195,-0.444,1.314,270.153,45.268,80521.223,43.438,82.146
新疆,克孜勒苏柯尔克孜自治州,11.347,28.746,1.967,2.586,0.252,66.571,1.359,0.424,260.461,70.765,70365.523,39.661,75.949
新疆,克拉玛依市,35.645,60.606,4.156,17.035,0.657,46.927,-2.671,-2.744,264.23,50.249,98902.041,45.457,85.207
新疆,北屯市,1.168,1.782,3.854,8.056,0.44,46.088,-4.83,4.396,265.238,35.526,96960.746,47.27,87.868
新疆,博尔塔拉蒙古自治州,20.49,33.918,5.985,8.116,0.577,58.538,-0.153,0.497,264.348,60.912,86951.583,44.714,82.114
新疆,双河市,29.306,55.264,9.788,12.064,0.578,48.488,0.354,-0.662,264.862,41.992,99435.224,44.87,82.474
新疆,可克达拉市,52.05,64.084,14.16,24.182,2.152,43.294,-2.364,0.47,277.138,42.65,95301.61,43.918,80.786
新疆,和田地区,5.906,12.664,1.277,1.349,0.193,54.677,1.508,0.616,263.092,47.777,74184.783,37.059,80.934
新疆,哈密市,2.563,3.245,0.92,1.898,0.264,61.008,-2.191,1.227,263.871,31.058,89312.486,43.042,93.517
新疆,喀什地区,13.694,27.995,2.913,3.447,0.253,50.911,1.535,1.303,263.556,50.802,76412.311,38.125,77.178
新疆,图木舒克市,13.335,18.957,5.637,3.665,0.23,38.432,-1.023,-0.707,268.545,39.818,90254.285,39.892,79.182
新疆,塔城地区,16.849,30.051,3.017,7.874,0.438,61.217,-1.723,0.675,265.042,45.185,90464.532,45.642,84.789
新疆,巴音郭楞蒙古自治州,2.702,4.972,1.004,0.714,0.163,58.875,-0.6,0.571,264.231,46.685,79635.864,39.463,87.481
新疆,新星市,29.25,38.095,9.725,28.075,1.26,30.68,1.83,-0.52,265.835,32.175,93997.23,42.75,93.68
新疆,昆玉市,17.107,50.77,3.983,5.197,0.417,41.777,0.067,-0.68,270.287,39.22,87780.31,37.457,79.093
新疆,昌吉回族自治州,18.383,26.885,2.685,11.205,0.446,60.568,-2.664,1.284,264.829,46.914,90815.73,44.342,88.608
新疆,石河子市,101.845,145.205,15.565,56.58,1.555,23.865,1.08,-0.2,263.185,67.23,95886.38,44.245,86.035
新疆,胡杨河市,41.356,63.18,4.026,16.18,0.71,46.066,-1.886,-0.878,261.228,67.5,99408.138,44.852,84.772
新疆,铁门关市,19.447,81.627,5.183,7.7,0.41,47.587,1.2,0.743,268.39,36.187,92843.603,41.773,85.66
新疆,阿克苏地区,15.409,44.864,4.366,3.791,0.29,51.206,-0.263,-0.232,266.59,49.18,86064.173,40.965,81.578
新疆,阿勒泰地区,1.106,1.543,1.608,2.806,0.28,64.285,-5.551,2.775,264.314,28.758,89423.147,46.902,88.421
新疆,阿拉尔市,22.995,85.23,4.657,7.002,0.403,41.615,-1.305,-0.826,268.264,47.315,91171.313,40.629,80.998
江苏,南京市,50.907,63.306,7.797,33.497,0.838,33.968,3.586,-6.688,277.531,85.191,102839.661,31.899,118.876
江苏,南通市,30.313,39.301,8.555,15.756,0.568,56.304,2.054,-5.885,281.161,85.574,102704.602,32.201,120.979
江苏,宿迁市,78.67,106.022,9.926,39.692,0.97,35.033,2.79,-8.111,274.163,76.269,103086.924,33.765,118.495
江苏,常州市,36.092,49.27,7.474,32.208,0.826,34.463,3.736,-6.787,279.329,88.078,102773.219,31.613,119.666
江苏,徐州市,91.138,130.51,13.636,48.07,0.987,27.885,2.229,-7.203,272.807,62.17,102964.13,34.363,117.513
江苏,扬州市,56.423,75.402,7.878,29.119,0.8,45.65,3.327,-7.548,277.804,84.036,102942.779,32.709,119.486
江苏,无锡市,33.133,46.298,8.134,33.771,0.807,34.775,3.06,-6.614,280.104,88.938,102614.086,31.546,120.066
江苏,泰州市,45.938,63.161,8.465,25.052,0.765,47.204,3.255,-6.703,278.793,86.086,102822.142,32.605,120.048
江苏,淮安市,72.179,93.322,9.33,35.53,0.911,38.676,3.494,-7.694,275.87,81.076,102987.366,33.362,118.985
江苏,盐城市,50.965,68.726,9.378,22.571,0.708,49.554,3.815,-6.269,278.961,84.531,102871.641,33.529,120.156
江苏,苏州市,29.548,40.045,7.402,31.611,0.705,41.39,2.493,-7.172,281.655,88.57,102679.43,31.374,120.661
江苏,连云港市,70.904,94.103,12.347,33.464,0.886,38.437,2.997,-8.18,274.914,77.526,102900.986,34.519,119.133
江苏,镇江市,43.814,57.944,7.311,31.398,0.78,38.375,3.444,-7.146,278.561,86.511,102788.591,32.016,119.49
江西,上饶市,28.057,33.478,7.848,22.159,0.795,15.767,1.272,-4.219,278.462,86.355,100566.004,28.778,117.47
江西,九江市,47.981,54.283,7.899,26.548,0.873,23.51,1.4,-6.347,276.376,83.1,100687.047,29.313,115.444
江西,南昌市,35.825,44.312,6.413,23.582,0.87,21.302,1.71,-7.364,279.161,78.69,102595.686,28.671,116.016
江西,吉安市,27.946,42.56,8.332,20.449,0.869,20.374,0.673,-5.859,278.369,76.805,100187.693,26.954,114.831
江西,宜春市,38.525,50.415,8.371,24.937,0.919,18.871,0.961,-5.839,277.458,76.632,100606.841,28.29,114.974
江西,抚州市,30.716,41.004,8.812,21.64,0.868,14.467,1.024,-5.38,278.088,86.928,100137.561,27.514,116.42
江西,新余市,34.919,49.267,9.691,25.851,0.937,15.977,1.233,-4.722,278.459,73.58,101586.435,27.847,114.836
江西,景德镇市,28.586,34.295,8.274,22.761,0.795,16.555,0.59,-5.822,277.835,83.601,101482.002,29.287,117.24
江西,萍乡市,52.319,68.002,9.978,26.652,1.037,15.366,1.337,-5.027,276.323,79.858,99240.944,27.505,113.908
江西,赣州市,18.206,30.028,10.399,18.233,0.906,20.159,-0.128,-7.897,278.621,82.537,98278.332,25.692,115.279
江西,鹰潭市,29.789,33.792,7.672,24.281,0.789,12.093,1.113,-4.258,278.783,85.021,101129.971,28.222,117.094
河北,保定市,41.649,69.748,14.466,33.266,0.692,31.738,1.688,-4.906,267.609,23.045,99468.495,39.018,115.159
河北,唐山市,52.347,95.398,22.502,44.646,1.031,18.305,-0.489,-4.634,269.074,43.668,102779.632,39.731,118.354
河北,廊坊市,36.814,67.716,10.218,40.953,0.705,22.475,1.456,-6.68,268.982,21.037,103508.943,39.267,116.632
河北,张家口市,12.281,21.963,6.197,8.932,0.345,42.949,5.112,-5.919,258.333,50.902,88597.206,40.877,115.042
河北,承德市,25.806,42.718,12.23,18.067,0.527,34.603,2.862,-5.074,260.528,44.938,92011.1,41.339,117.578
河北,沧州市,53.784,94.465,16.779,47.371,0.842,20.581,1.841,-6.275,269.507,24.953,103500.339,38.258,116.744
河北,石家庄市,60.381,105.865,20.62,45.395,0.974,24.582,2.786,-3.746,268.792,20.514,100108.698,38.135,114.407
河北,秦皇岛市,56.074,93.048,26.582,40.006,1.07,24.458,-1.378,-4.508,266.683,43.218,100290.305,40.12,119.193
河北,衡水市,78.315,129.532,19.144,52.028,1.17,23.56,0.86,-4.75,268.62,20.376,103437.594,37.755,115.813
河北,邢台市,81.993,141.324,20.778,51.962,1.197,22.582,1.521,-5.645,269.49,20.684,101854.426,37.195,114.815
河北,邯郸市,84.368,135.559,23.958,53.439,1.314,20.696,0.558,-5.475,269.875,20.653,101343.209,36.538,114.596
河南,三门峡市,36.66,70.52,14.731,27.751,0.649,37.642,3.697,-6.029,267.72,36.075,93283.768,34.362,111.101
河南,信阳市,94.443,131.322,9.927,43.186,1.014,35.068,0.512,-6.13,272.427,67.244,102149.351,32.091,114.907
河南,南阳市,66.727,96.449,11.392,32.734,0.839,33.836,-0.138,-3.89,272.998,28.049,100045.581,33.034,112.323
河南,周口市,117.056,153.413,14.063,44.601,1.217,28.136,0.5,-6.153,272.476,32.716,103004.598,33.738,114.884
河南,商丘市,110.84,142.326,12.733,47.124,1.024,28.337,1.135,-6.764,272.191,34.076,103036.061,34.277,115.718
河南,安阳市,85.165,124.655,23.165,54.286,1.445,20.659,0.385,-5.66,270.235,20.691,100913.909,35.888,114.318
河南,平顶山市,65.594,104.515,17.324,36.468,0.928,24.872,2.199,-5.702,272.819,25.455,100729.674,33.8,113.025
河南,开封市,113.856,148.284,17.216,52.657,1.264,25.723,-0.122,-6.14,271.714,22.817,102773.084,34.594,114.514
河南,新乡市,88.445,129.841,18.652,54.108,1.297,23.156,-1.242,-4.835,271.23,20.5,101792.242,35.256,114.111
河南,洛阳市,40.003,71.671,15.087,26.672,0.662,36.512,4.906,-4.848,270.097,29.803,95771.796,34.274,112.019
河南,济源市,37.78,68.69,16.795,27.725,0.764,41.444,2.084,-4.734,271.658,23.54,97696.212,35.105,112.445
河南,漯河市,114.913,153.247,17.289,50.098,1.212,18.94,-0.176,-5.228,272.682,26.438,102890.148,33.652,113.945
河南,濮阳市,105.102,144.768,21.44,54.249,1.25,24.364,0.839,-6.553,270.587,21.608,103080.263,35.809,115.283
河南,焦作市,76.453,121.839,16.64,46.771,1.132,21.752,-0.058,-1.306,272.612,23.499,101588.172,35.121,113.163
河南,许昌市,100.937,139.46,18.365,49.48,1.217,17.459,-0.116,-4.991,272.69,25.3,102170.435,34.075,113.707
河南,郑州市,90.751,131.878,17.862,49.772,1.212,17.197,0.634,-3.008,271.91,25.42,100769.109,34.634,113.438
河南,驻马店市,109.652,153.835,12.791,45.669,1.124,28.673,0.373,-5.822,272.525,37.926,102529.486,32.925,114.174
河南,鹤壁市,88.962,133.123,23.09,58.698,1.573,16.934,-0.291,-5.846,270.671,19.119,102190.158,35.716,114.319
浙江,丽水市,22.218,31.651,7.368,22.134,0.723,21.302,2.836,-4.258,278.285,94.815,95391.421,28.194,119.51
浙江,台州市,20.81,33.244,7.403,29.004,0.716,23.088,6.157,-6.708,282.005,88.79,99626.871,28.742,121.109
浙江,嘉兴市,32.608,42.489,6.507,39.771,0.785,25.975,4.487,-5.798,281.725,91.227,102648.705,30.635,120.754
浙江,宁波市,29.16,39.35,7.759,39.268,0.726,23.403,6.877,-5.761,282.952,91.683,101206.058,29.706,121.49
浙江,杭州市,26.179,42.423,6.435,25.708,0.892,18.744,4.094,-5.227,277.519,93.575,99753.01,29.891,119.464
浙江,温州市,17.21,27.61,7.305,21.631,0.628,26.29,5.855,-7.561,282.471,84.05,98364.058,27.897,120.411
浙江,湖州市,30.625,45.498,6.663,29.789,0.884,25.562,6.189,-4.674,278.737,93.052,101459.46,30.757,119.871
浙江,绍兴市,28.138,40.066,6.257,37.936,0.904,12.0,5.104,-3.942,279.461,95.627,100512.46,29.709,120.64
浙江,舟山市,14.122,24.47,6.542,13.798,0.382,58.012,2.762,-8.67,286.58,90.53,102106.525,30.038,122.23
浙江,衢州市,23.329,32.687,6.836,26.376,0.889,13.049,1.717,-2.77,278.17,90.287,99003.97,28.912,118.675
浙江,金华市,23.232,35.363,6.749,32.029,0.912,11.766,3.755,-3.395,278.199,95.549,99172.532,29.109,119.967
海南,万宁市,20.251,34.776,10.101,10.439,0.436,43.671,-3.302,-8.374,293.168,87.727,100534.999,18.842,110.294
海南,三亚市,15.043,26.803,8.423,9.111,0.477,49.599,-7.051,-6.851,294.074,76.806,99170.959,18.413,109.407
海南,东方市,24.417,35.234,12.267,8.804,0.415,44.617,-6.495,-6.423,292.831,80.107,99908.889,18.971,108.838
海南,临高县,23.237,37.966,11.824,12.209,0.534,27.754,-5.2,-6.023,292.169,84.119,101259.293,19.821,109.733
海南,乐东黎族自治县,19.674,30.468,10.368,8.441,0.416,46.67,-6.908,-6.823,292.888,79.557,98302.343,18.659,109.072
海南,五指山市,24.22,36.584,10.902,9.974,0.448,38.994,-6.084,-6.92,289.756,93.114,95102.404,18.81,109.518
海南,儋州市,26.29,40.528,12.211,11.48,0.501,31.885,-5.642,-5.299,291.959,85.582,100893.788,19.568,109.399
海南,定安县,18.345,33.067,9.667,12.873,0.563,27.757,-4.372,-6.282,292.64,84.047,100906.235,19.47,110.28
海南,屯昌县,19.502,33.792,10.888,12.756,0.532,29.086,-3.958,-5.536,291.924,87.468,100110.158,19.342,110.076
海南,文昌市,18.75,34.082,10.073,12.149,0.513,31.715,-5.505,-7.97,293.514,82.0,101681.023,19.707,110.773
海南,昌江黎族自治县,27.893,40.17,12.48,9.649,0.442,40.152,-7.556,-6.117,291.126,88.658,98932.273,19.233,109.016
海南,海口市,17.99,32.738,9.857,13.064,0.563,26.031,-5.568,-6.778,292.998,82.064,101514.582,19.842,110.393
海南,澄迈县,19.829,34.537,11.26,13.98,0.57,24.211,-4.827,-5.517,292.366,84.2,101064.184,19.676,109.989
海南,琼中黎族苗族自治县,22.85,36.801,11.256,11.705,0.486,32.757,-3.398,-5.357,290.467,94.165,97865.737,19.087,109.847
海南,琼海市,17.6,32.193,10.188,11.52,0.485,35.762,-3.195,-6.457,293.447,83.31,101428.382,19.22,110.43
海南,白沙黎族自治县,25.905,39.293,12.43,11.231,0.479,33.679,-4.839,-4.354,290.004,94.844,97584.665,19.2,109.388
海南,陵水黎族自治县,18.899,31.791,9.784,9.029,0.441,47.24,-4.577,-9.099,293.177,83.777,99796.566,18.581,109.913
湖北,仙桃市,82.959,101.448,10.623,28.123,1.052,31.202,-1.057,-7.366,275.392,60.264,103182.865,30.284,113.417
湖北,十堰市,46.719,73.26,13.405,19.225,0.634,43.832,1.357,-2.509,271.969,35.503,94892.128,32.462,110.476
湖北,咸宁市,63.74,76.847,8.431,30.152,1.006,21.242,0.433,-6.746,274.868,81.622,101064.439,29.621,114.178
湖北,天门市,77.285,103.806,12.811,31.624,1.042,35.241,-1.008,-7.306,275.641,50.396,103167.032,30.633,113.053
湖北,孝感市,80.626,107.058,11.071,33.24,1.053,36.158,-0.674,-7.747,274.262,60.142,102503.809,31.116,113.869
湖北,宜昌市,60.009,76.529,12.897,23.431,0.716,43.671,-1.747,-2.903,273.165,40.499,95635.016,30.746,111.129
湖北,恩施土家族苗族自治州,42.273,65.806,13.02,13.386,0.687,36.35,-1.498,0.136,271.07,67.62,90769.243,30.195,109.552
湖北,武汉市,77.525,93.675,8.849,35.932,1.063,24.944,-0.243,-8.091,275.065,70.014,103012.446,30.606,114.349
湖北,潜江市,74.642,105.429,12.447,31.987,1.091,32.197,-1.491,-7.371,275.824,49.672,103170.502,30.33,112.77
湖北,神农架林区,41.665,54.259,12.915,8.145,0.467,53.857,1.549,-4.748,267.388,50.178,83789.562,31.592,110.49
湖北,荆州市,74.064,100.164,12.075,29.957,1.034,33.641,-1.692,-7.46,275.882,50.454,102911.623,30.01,112.512
湖北,荆门市,77.497,102.806,13.858,37.419,0.999,35.408,-0.932,-7.634,274.753,41.451,102111.76,31.059,112.616
湖北,襄阳市,70.912,95.469,12.221,32.323,0.85,36.904,0.655,-5.107,273.206,34.033,99248.702,31.919,111.96
湖北,鄂州市,65.251,85.363,8.434,34.7,1.071,24.876,1.277,-8.076,275.753,75.511,102997.323,30.337,114.794
湖北,随州市,76.412,111.039,12.013,37.664,1.0,35.58,-0.526,-6.717,273.427,44.91,101360.092,31.809,113.43
湖北,黄冈市,66.22,82.703,8.484,32.228,0.98,33.982,0.127,-6.688,274.417,75.137,101076.144,30.702,115.358
湖北,黄石市,57.679,74.325,8.338,33.332,1.013,24.501,2.439,-6.935,276.052,80.595,101887.88,29.925,115.034
湖南,娄底市,47.56,69.051,8.09,17.555,0.971,40.226,-1.076,-6.617,274.09,71.008,98785.852,27.715,111.632
湖南,岳阳市,67.345,83.074,10.007,24.241,0.987,30.076,-0.976,-7.395,275.989,70.544,101835.132,29.081,113.275
湖南,常德市,66.497,91.95,10.569,25.815,0.969,32.749,-1.523,-5.354,274.748,51.937,101122.827,29.271,111.524
湖南,张家界市,55.033,81.508,9.664,19.504,0.772,33.312,-1.863,-2.233,272.265,60.249,96919.613,29.379,110.526
湖南,怀化市,41.771,63.527,8.785,13.913,0.768,39.635,-2.513,-5.038,274.056,68.59,97847.467,27.535,110.071
湖南,株洲市,56.025,69.907,8.675,24.875,0.904,19.053,1.018,-5.79,276.373,81.574,99400.689,27.109,113.513
湖南,永州市,43.608,57.372,9.353,17.275,0.697,31.613,-2.97,-7.197,275.614,80.227,97873.146,25.748,111.723
湖南,湘潭市,66.971,87.033,7.226,29.97,0.927,24.388,0.584,-7.311,276.139,74.983,101932.244,27.744,112.619
湖南,湘西土家族苗族自治州,46.805,71.36,6.758,14.991,0.714,35.623,-2.154,-2.205,272.945,67.728,96840.992,28.708,109.718
湖南,益阳市,57.872,83.407,8.421,21.087,1.032,37.929,-0.364,-6.776,274.499,66.491,100522.851,28.525,111.919
湖南,衡阳市,59.187,71.087,8.178,25.017,0.851,24.973,0.286,-6.695,276.326,78.724,101359.108,26.781,112.565
湖南,邵阳市,47.477,61.441,10.866,16.404,0.797,37.438,-2.574,-5.073,274.105,75.32,96369.891,26.893,110.881
湖南,郴州市,35.014,49.193,5.8,21.298,0.829,21.056,0.447,-6.704,275.637,85.587,96944.323,25.769,113.109
湖南,长沙市,65.746,80.601,8.37,27.307,0.979,24.759,0.329,-7.203,276.15,75.427,101270.074,28.235,113.159
甘肃,临夏回族自治州,57.782,109.186,13.914,32.157,1.175,44.204,-1.024,-0.42,264.794,65.959,77932.442,35.617,103.291
甘肃,兰州市,44.878,89.85,14.924,38.315,0.971,38.553,-0.552,0.24,263.484,63.812,79675.456,36.359,103.633
甘肃,嘉峪关市,44.17,103.73,17.242,60.113,1.037,51.475,-2.673,1.845,261.075,51.033,82251.478,39.798,98.145
甘肃,天水市,32.99,64.549,9.859,16.045,0.529,43.248,-2.64,-0.037,265.907,43.756,83548.707,34.645,105.739
甘肃,定西市,46.144,86.901,10.071,15.634,0.734,47.085,-1.477,1.42,264.052,65.788,77724.616,35.124,104.432
甘肃,平凉市,30.748,62.71,9.565,16.569,0.5,42.542,-0.746,-1.709,265.123,40.556,85583.163,35.304,106.644
甘肃,庆阳市,15.962,29.577,9.33,10.565,0.349,46.142,0.341,-2.795,263.718,40.589,86973.2,36.149,107.596
甘肃,张掖市,10.75,19.108,2.858,5.057,0.29,60.333,1.835,-0.127,262.229,46.31,74928.147,38.94,99.855
甘肃,武威市,15.984,27.803,4.612,9.288,0.458,49.497,-1.4,0.422,261.965,51.045,82186.951,38.163,103.073
甘肃,甘南藏族自治州,14.786,20.354,3.025,3.451,0.328,62.907,1.933,0.463,264.074,67.149,67616.805,34.331,102.768
甘肃,白银市,32.323,64.143,11.616,20.871,0.591,42.391,-0.881,0.8,263.527,58.172,82247.323,36.59,104.646
甘肃,酒泉市,3.41,5.985,1.372,3.18,0.196,56.719,-2.651,1.411,261.28,48.128,79594.896,40.236,96.062
甘肃,金昌市,16.592,44.329,9.071,10.271,0.458,51.294,-0.958,1.558,262.119,52.406,81262.529,38.44,102.048
甘肃,陇南市,35.031,54.956,11.004,14.174,0.588,45.284,-2.118,-1.008,267.518,49.375,83030.388,33.599,105.224
福建,三明市,12.746,24.335,11.412,16.342,0.735,16.28,1.873,-4.904,279.529,87.792,96044.835,26.29,117.395
福建,南平市,15.664,24.702,9.751,15.55,0.644,20.089,2.115,-4.263,280.139,85.155,96847.979,27.324,118.143
福建,厦门市,13.103,28.335,9.56,19.583,0.59,33.885,0.273,-8.677,291.587,60.533,100922.408,24.642,118.11
福建,宁德市,13.75,23.736,8.729,14.023,0.503,33.017,3.254,-5.865,284.322,79.851,95911.249,26.968,119.474
福建,泉州市,11.319,23.407,8.388,14.051,0.54,37.191,2.378,-7.594,286.966,73.791,97185.976,25.201,118.249
福建,漳州市,13.126,26.029,9.694,15.284,0.598,31.239,1.105,-6.96,289.389,66.875,98762.376,24.372,117.444
福建,福州市,10.383,21.71,6.815,14.142,0.478,37.951,4.072,-5.807,287.112,74.846,98002.295,26.083,119.206
福建,莆田市,9.657,20.356,7.888,12.205,0.468,44.843,2.782,-8.613,288.671,69.492,98700.834,25.445,118.864
福建,龙岩市,13.252,27.859,12.132,15.095,0.735,19.008,0.427,-6.897,281.837,81.793,95928.206,25.256,116.739
西藏,山南市,4.133,5.41,0.466,1.322,0.141,87.442,3.895,3.124,269.483,49.815,65996.06,28.295,92.274
西藏,拉萨市,2.54,5.024,0.187,1.99,0.155,84.115,8.295,5.359,263.214,35.093,56078.196,30.043,91.093
西藏,日喀则市,4.075,4.76,0.451,0.587,0.151,85.591,7.762,4.55,259.288,43.825,54792.008,29.483,86.493
西藏,昌都市,2.683,4.007,0.221,1.229,0.149,85.103,4.602,5.935,262.615,56.769,58778.569,30.753,97.044
西藏,林芝市,3.518,3.891,0.44,1.388,0.13,87.93,0.272,2.982,268.202,61.361,66321.778,29.184,95.25
西藏,玉树藏族自治州,1.219,1.395,0.142,0.449,0.134,76.64,0.588,1.932,257.322,70.725,56861.805,34.196,94.317
西藏,那曲市,1.27,1.744,0.111,0.2,0.129,78.719,3.611,2.212,258.896,62.517,54833.739,32.709,89.262
西藏,阿里地区,3.25,3.576,0.398,0.425,0.137,81.293,5.92,1.194,255.691,63.219,54191.797,33.013,82.553
贵州,六盘水市,16.613,34.301,11.261,16.948,0.748,25.61,-2.863,-2.238,275.404,84.082,83816.263,26.106,104.896
贵州,安顺市,25.298,40.26,11.677,16.051,0.543,30.221,-3.431,-6.226,276.961,73.441,89116.136,25.986,105.978
贵州,毕节市,23.591,36.083,11.545,14.671,0.669,32.54,-1.153,-3.736,272.701,83.688,84261.035,27.063,105.211
贵州,贵阳市,30.744,43.444,11.506,16.669,0.545,31.914,-1.466,-5.372,274.36,79.062,89255.061,26.845,106.71
贵州,遵义市,36.884,50.142,15.823,11.244,0.566,34.8,-1.048,-1.819,274.522,72.251,91613.536,28.167,107.102
贵州,铜仁市,31.768,56.684,14.806,10.972,0.727,37.655,-2.781,-1.91,273.522,70.609,94136.761,27.937,108.534
贵州,黔东南苗族侗族自治州,29.923,47.737,19.509,10.01,0.665,39.051,-2.701,-5.988,273.97,70.286,93916.321,26.495,108.574
贵州,黔南布依族苗族自治州,27.068,39.565,15.919,9.312,0.544,38.665,-2.695,-6.118,275.992,70.036,91437.487,26.0,107.265
贵州,黔西南布依族苗族自治州,20.641,38.571,10.433,12.943,0.618,27.661,-3.334,-3.173,278.811,75.825,89479.219,25.256,105.467
辽宁,丹东市,38.721,58.451,14.217,30.189,0.929,31.78,-0.246,-4.885,264.899,45.873,100001.934,40.554,124.376
辽宁,大连市,39.654,55.934,15.783,31.046,0.737,36.606,-2.407,-5.504,268.138,49.163,102400.987,39.591,122.22
辽宁,抚顺市,63.982,88.3,16.646,36.615,1.125,27.704,0.1,-1.383,261.503,50.532,98229.083,41.841,124.65
辽宁,朝阳市,50.721,80.215,27.956,26.991,1.105,27.245,0.945,-4.72,262.197,32.224,97873.946,41.545,120.053
辽宁,本溪市,49.799,73.709,17.432,35.628,1.144,27.496,0.713,-2.807,262.186,49.444,97487.84,41.232,124.544
辽宁,沈阳市,58.034,83.63,16.314,34.761,0.839,23.044,0.53,-4.015,262.493,38.985,102831.838,42.081,123.159
辽宁,盘锦市,43.087,66.525,24.5,33.559,0.837,27.494,-0.823,-4.75,263.487,37.267,103535.134,41.13,122.01
辽宁,营口市,49.749,70.141,20.78,40.218,0.968,24.11,-1.43,-4.76,264.631,45.128,101002.95,40.395,122.478
辽宁,葫芦岛市,55.888,85.035,35.01,34.292,1.149,25.687,-0.02,-5.662,264.511,27.432,100806.04,40.66,120.215
辽宁,辽阳市,64.426,90.818,23.136,44.777,1.211,20.047,0.209,-3.222,263.261,45.908,101283.068,41.153,123.261
辽宁,铁岭市,71.934,96.434,12.609,34.353,0.997,27.756,0.354,-2.087,261.67,43.106,101104.084,42.653,124.158
辽宁,锦州市,41.075,63.516,23.731,27.523,0.783,33.389,0.234,-5.121,263.406,32.227,102671.188,41.502,121.659
辽宁,阜新市,30.136,49.463,15.534,17.305,0.583,34.379,1.392,-4.604,261.781,37.01,101072.983,42.289,121.968
辽宁,鞍山市,51.485,73.562,20.202,38.508,1.064,24.563,-0.123,-4.665,264.152,42.167,101314.354,40.731,123.007
重庆,重庆城区,44.669,64.663,14.991,21.814,0.652,27.812,-1.034,-0.804,277.431,53.324,96416.772,29.824,107.125
重庆,重庆郊县,41.478,62.004,17.16,12.201,0.578,41.577,-2.707,-0.952,273.668,54.682,92392.353,30.334,108.755
陕西,咸阳市,36.956,71.138,12.441,29.56,0.64,37.084,0.923,-2.71,268.8,28.433,93066.814,34.779,108.367
陕西,商洛市,28.844,48.081,9.081,19.716,0.456,45.373,1.184,-6.095,268.629,30.941,90637.978,33.64,109.889
陕西,安康市,41.912,61.925,11.329,16.138,0.539,46.571,-1.695,-2.178,270.574,37.581,91222.678,32.735,108.932
陕西,宝鸡市,30.064,54.236,7.845,19.508,0.432,45.024,-1.661,-2.504,266.626,36.636,87565.273,34.386,107.193
陕西,延安市,17.455,30.515,13.342,21.769,0.716,45.258,0.769,-4.864,263.664,40.803,88850.474,36.432,109.316
陕西,榆林市,16.614,30.575,15.864,27.57,0.807,42.05,1.739,-4.003,261.583,46.265,89258.351,38.041,109.581
陕西,汉中市,44.877,64.673,9.707,14.523,0.597,43.168,-2.587,-1.642,271.226,37.17,90193.362,33.088,107.098
陕西,渭南市,38.331,66.852,16.041,29.979,0.7,37.665,1.886,-2.407,269.731,29.331,95549.406,34.919,109.855
陕西,西安市,37.741,73.199,10.545,32.308,0.645,37.725,1.64,-1.554,268.32,33.055,92066.919,34.12,108.77
陕西,铜川市,24.175,36.729,16.278,22.258,0.516,40.053,0.94,-5.491,266.798,29.788,90555.888,35.198,109.058
青海,保亭黎族苗族自治县,18.036,30.07,9.388,9.386,0.464,46.184,-5.85,-7.694,292.172,84.71,97604.656,18.566,109.618
青海,吐鲁番市,9.82,21.266,2.801,4.169,0.457,59.705,0.205,-0.034,264.609,32.11,91435.664,42.386,89.851
青海,果洛藏族自治州,1.151,1.287,0.218,0.768,0.129,70.508,3.605,1.003,256.458,77.35,59724.039,34.127,99.404
青海,海东市,32.471,45.043,12.822,21.755,0.773,50.492,0.619,-0.023,263.777,61.607,72951.073,36.347,102.34
青海,海北藏族自治州,1.947,2.681,0.763,1.334,0.169,69.856,3.186,-1.217,260.0,55.858,65173.875,37.775,100.288
青海,海南藏族自治州,1.066,1.303,0.331,0.752,0.14,72.662,3.604,0.115,263.08,57.27,66418.272,35.89,100.272
青海,海西蒙古族藏族自治州,0.839,1.008,0.3,0.458,0.133,68.658,0.309,1.033,261.023,56.064,64316.493,36.677,94.519
青海,西宁市,26.061,41.071,8.438,19.536,0.772,57.444,1.829,-0.671,262.517,63.548,69591.48,36.842,101.423
青海,黄南藏族自治州,3.39,3.886,1.115,1.834,0.172,69.776,3.069,0.39,262.692,62.531,65733.352,35.022,101.631
香港,香港特别行政区,20.005,38.11,9.24,28.93,0.69,27.325,-2.825,-12.3,288.02,67.965,101632.205,22.45,114.22
黑龙江,七台河市,50.117,88.59,6.973,18.91,0.682,38.431,3.367,-0.3,256.06,62.704,99847.036,45.87,130.943
黑龙江,伊春市,18.985,19.064,3.176,7.362,0.37,44.868,3.097,-0.04,253.611,67.354,98182.236,47.772,129.184
黑龙江,佳木斯市,48.726,62.604,4.339,11.52,0.507,42.284,4.2,0.944,254.839,67.012,101980.208,47.207,132.11
黑龙江,双鸭山市,50.28,69.835,5.82,13.928,0.486,41.111,3.965,0.439,255.259,67.18,101534.146,46.722,132.643
黑龙江,哈尔滨市,42.423,59.434,9.362,18.742,0.683,39.892,0.686,0.107,257.688,55.152,100224.38,45.634,127.964
黑龙江,大兴安岭地区,1.117,1.729,2.251,1.86,0.217,48.496,4.147,0.576,249.284,69.107,95947.338,52.286,124.212
黑龙江,大庆市,40.388,50.358,9.124,22.031,0.548,34.748,0.807,-0.406,256.676,51.483,101684.983,46.327,124.687
黑龙江,牡丹江市,32.709,46.749,6.613,12.152,0.54,44.813,1.562,-0.303,257.394,59.78,96754.248,44.592,129.883
黑龙江,绥化市,44.033,48.35,5.485,17.297,0.626,40.42,0.668,0.501,255.977,61.493,100787.929,46.89,126.634
黑龙江,鸡西市,30.251,49.506,7.24,16.238,0.524,37.917,2.911,-1.033,257.177,63.816,101256.372,45.626,132.289
黑龙江,鹤岗市,31.941,39.884,5.028,12.226,0.456,42.631,3.74,-0.43,254.382,66.334,100889.789,47.661,130.778
黑龙江,黑河市,15.806,21.707,4.482,5.91,0.386,45.596,2.01,0.579,252.456,71.498,98560.758,49.268,127.004
黑龙江,齐齐哈尔市,30.981,40.684,10.368,11.673,0.556,40.197,1.51,-0.5,255.22,58.464,100761.992,47.715,124.57
