province,city,PM2.5,PM10,SO2,NO2,CO,O3,U,V,TEMP,RH,PSFC,lat,lon
上海,上海市,30.742,59.848,7.122,46.348,0.484,50.627,-4.67,2.272,289.523,83.69,102235.318,31.173,121.42
云南,临沧市,20.681,26.052,7.195,5.426,0.437,47.722,2.461,2.225,286.36,75.346,84171.496,23.935,99.686
云南,丽江市,9.255,12.729,3.09,4.702,0.437,70.432,6.239,2.585,279.732,45.834,74677.051,26.96,100.515
云南,保山市,20.447,33.527,6.634,7.124,0.426,44.616,2.511,1.373,283.892,77.948,82110.511,24.953,98.962
云南,大理白族自治州,13.477,22.073,4.757,4.943,0.399,65.74,5.499,2.304,281.585,68.109,78270.345,25.726,100.053
云南,德宏傣族景颇族自治州,23.582,32.481,8.953,6.433,0.354,45.07,0.397,0.535,286.52,78.021,86342.863,24.535,98.052
云南,怒江傈僳族自治州,10.168,14.903,1.734,2.005,0.232,67.884,3.362,2.041,276.524,63.444,72868.338,26.916,98.885
云南,文山壮族苗族自治州,37.792,49.766,11.627,6.925,0.538,60.153,1.634,3.839,287.564,86.199,86826.822,23.696,104.735
云南,昆明市,19.269,30.283,8.235,14.297,0.503,56.537,5.794,4.942,282.834,79.471,79406.793,25.384,102.863
云南,昭通市,42.062,61.451,10.907,13.726,0.621,55.864,1.329,1.177,281.66,74.509,84204.667,27.667,103.985
云南,普洱市,20.205,27.549,6.381,7.435,0.335,48.188,1.262,2.491,287.636,78.096,86264.558,23.159,100.718
云南,曲靖市,18.032,33.042,9.903,11.885,0.469,60.47,4.588,4.867,282.901,79.452,80168.652,25.737,103.929
云南,楚雄彝族自治州,18.126,23.025,5.847,5.877,0.448,63.534,4.921,4.183,284.176,71.053,81162.677,25.328,101.567
云南,玉溪市,19.209,25.64,6.395,5.937,0.336,63.714,2.963,4.026,286.103,80.39,83736.52,24.136,102.217
云南,红河哈尼族彝族自治州,23.593,30.65,8.5,5.134,0.366,64.109,1.412,3.469,287.112,82.781,85450.149,23.451,103.034
云南,西双版纳傣族自治州,22.036,35.64,6.073,10.746,0.343,37.87,0.187,1.819,290.065,77.242,89271.89,21.939,100.912
云南,迪庆藏族自治州,6.804,8.205,1.326,1.822,0.225,74.693,7.474,2.678,273.179,52.94,67201.316,27.957,99.459
内蒙古,乌兰察布市,34.459,62.09,28.782,37.187,0.804,29.657,4.801,7.343,273.18,52.503,85868.056,41.691,112.44
内蒙古,乌海市,46.816,105.965,67.148,47.844,1.47,29.221,-1.045,5.272,276.691,42.405,87559.76,39.396,106.856
内蒙古,兴安盟,11.769,20.903,9.093,6.742,0.307,39.296,4.98,6.53,268.051,52.011,94628.217,46.244,121.341
内蒙古,包头市,39.076,67.198,29.352,43.674,0.869,25.322,3.276,7.944,273.365,52.804,85764.157,41.549,110.276
内蒙古,呼伦贝尔市,4.976,7.806,5.288,3.964,0.21,42.418,3.288,6.374,263.003,67.173,92791.288,49.636,121.171
内蒙古,呼和浩特市,51.255,101.878,28.808,51.479,1.153,21.958,0.897,4.414,272.654,55.82,86387.673,40.578,111.513
内蒙古,巴彦淖尔市,23.794,38.232,16.077,17.625,0.527,36.587,2.893,6.583,274.764,48.412,87072.515,41.446,107.582
内蒙古,赤峰市,26.64,46.757,16.939,20.08,0.567,32.058,5.108,6.81,272.086,51.251,92034.439,43.226,118.892
内蒙古,通辽市,22.201,43.328,13.798,13.741,0.427,36.673,2.468,7.413,271.421,43.205,98306.409,43.814,121.591
内蒙古,鄂尔多斯市,28.041,55.848,24.232,28.343,0.711,33.181,1.332,6.484,275.685,46.858,86985.524,39.407,108.63
内蒙古,锡林郭勒盟,15.241,24.718,17.27,11.627,0.3,37.874,5.82,7.538,271.487,57.965,88777.373,44.179,115.482
内蒙古,阿拉善盟,13.05,18.127,5.907,5.194,0.288,53.165,4.059,1.995,276.579,41.354,87236.723,40.473,102.467
北京,北京市,98.692,158.507,10.442,66.524,1.473,15.602,-0.84,0.87,276.008,50.985,98562.482,40.158,116.395
台湾,台湾省,18.31,21.864,6.83,20.213,0.228,66.147,-0.81,-1.111,290.831,69.045,93470.585,23.757,120.975
吉林,吉林市,18.238,30.243,7.974,10.477,0.422,45.08,2.344,3.935,267.419,50.15,97915.179,43.573,126.859
吉林,四平市,24.249,43.826,10.031,16.897,0.518,40.218,1.83,5.623,270.043,39.725,100182.971,43.472,124.386
吉林,延边朝鲜族自治州,12.66,17.594,5.601,9.176,0.35,48.808,6.087,0.979,265.686,48.672,94804.848,43.141,129.147
吉林,松原市,20.292,38.378,10.496,12.751,0.438,36.603,2.372,6.727,268.818,39.846,100372.198,44.785,124.496
吉林,白城市,19.231,37.519,11.3,10.67,0.471,35.387,2.518,7.307,269.524,38.736,100259.556,45.35,123.031
吉林,白山市,18.966,31.365,10.715,13.981,0.631,42.675,1.929,2.583,266.209,50.367,92947.55,42.063,127.256
吉林,辽源市,28.122,40.385,6.458,13.532,0.56,40.883,1.683,4.36,269.35,45.791,98332.868,42.836,125.32
吉林,通化市,27.414,45.186,12.327,16.806,0.776,34.701,0.444,2.391,268.596,47.222,96564.645,41.939,125.927
吉林,长春市,21.112,38.643,9.144,14.146,0.493,39.431,2.481,5.293,268.597,42.573,100053.544,44.268,125.611
四川,乐山市,50.38,68.912,7.52,23.107,0.653,35.471,0.052,-1.442,281.828,83.949,89761.306,29.218,103.569
四川,内江市,85.451,114.174,7.93,29.185,0.923,26.6,-0.878,-1.361,286.359,74.866,96944.69,29.62,104.95
四川,凉山彝族自治州,17.015,23.252,5.763,7.495,0.475,64.49,4.8,3.809,278.394,54.768,74127.55,27.883,102.065
四川,南充市,61.213,93.917,10.103,25.257,0.965,19.944,-1.569,-1.071,284.311,85.758,97011.294,31.19,106.199
四川,宜宾市,62.507,85.925,10.437,26.131,0.806,37.788,0.859,-0.807,286.083,68.357,95263.424,28.573,104.621
四川,巴中市,59.15,80.216,13.106,21.184,0.932,23.086,-3.236,-0.228,281.687,86.333,92684.621,32.033,107.031
四川,广元市,43.549,66.717,13.21,21.667,0.869,21.341,-1.843,-0.975,280.746,75.991,91781.413,32.261,105.788
四川,广安市,47.449,74.128,6.906,29.568,0.855,22.225,-0.327,1.387,285.555,81.143,97020.915,30.43,106.628
四川,德阳市,69.742,99.247,8.069,30.809,0.828,22.108,-0.67,-1.654,282.036,75.841,93391.38,31.13,104.436
四川,成都市,62.992,96.462,8.378,33.576,0.827,24.692,-0.893,-1.87,282.79,80.295,93536.736,30.64,103.929
四川,攀枝花市,19.182,30.067,12.451,25.137,1.065,49.158,1.872,3.549,284.278,50.002,81590.737,26.791,101.734
四川,泸州市,43.469,63.947,10.215,23.652,0.71,32.079,-0.14,2.013,285.192,74.167,93626.739,28.424,105.675
四川,甘孜藏族自治州,3.877,4.624,0.62,1.456,0.136,73.208,5.687,1.478,266.336,58.962,60948.166,30.936,100.009
四川,眉山市,60.666,88.85,7.648,28.617,0.782,25.817,-0.941,-1.869,283.558,82.761,93993.169,29.912,103.766
四川,绵阳市,48.078,65.111,8.721,15.784,0.634,34.129,-0.462,-0.87,279.345,74.077,88100.711,31.86,104.704
四川,自贡市,80.299,105.351,9.12,29.763,0.905,29.856,-0.634,-1.466,286.632,72.093,96912.546,29.307,104.659
四川,资阳市,79.431,111.277,7.771,23.276,0.842,25.297,-0.915,-2.03,285.564,79.297,97213.376,30.102,105.149
四川,达州市,55.744,75.687,12.402,22.866,0.87,28.465,-1.798,1.545,283.628,87.472,94310.106,31.335,107.636
四川,遂宁市,69.98,106.642,9.607,24.507,0.883,20.277,-1.203,-1.818,284.791,84.533,97466.482,30.642,105.457
四川,阿坝藏族羌族自治州,7.149,9.322,1.112,3.696,0.202,62.825,4.315,0.533,267.608,65.643,65267.611,32.406,102.61
四川,雅安市,36.107,47.113,6.082,11.36,0.456,56.301,-0.284,0.098,276.654,86.775,80056.432,29.932,102.689
天津,天津市,112.616,195.293,22.388,78.859,2.013,10.283,-2.43,-0.123,278.693,58.35,102402.568,39.315,117.308
宁夏,中卫市,35.13,69.164,13.266,27.959,0.774,39.807,2.89,6.863,277.378,44.968,83392.629,37.018,105.509
宁夏,吴忠市,29.694,55.551,11.9,18.094,0.562,41.937,0.836,7.752,277.083,52.669,85014.241,37.454,106.577
宁夏,固原市,31.875,71.396,13.068,27.749,0.737,41.021,1.074,6.397,274.002,60.522,80903.517,35.905,106.183
宁夏,石嘴山市,50.608,102.983,49.218,48.957,1.616,31.607,0.79,3.158,276.986,40.638,86635.378,39.013,106.499
宁夏,银川市,40.556,81.931,21.93,37.176,1.062,35.875,0.965,4.164,278.223,41.242,86946.805,38.287,106.342
安徽,亳州市,133.225,201.482,8.975,39.663,1.219,30.028,-2.163,-2.978,285.364,78.671,101979.449,33.44,116.162
安徽,六安市,126.37,205.0,6.824,29.806,1.29,51.818,-0.758,-0.525,285.109,72.334,99404.693,31.617,116.209
安徽,合肥市,151.197,213.458,8.306,49.039,1.424,37.647,-1.085,-1.429,286.449,74.805,101790.94,31.766,117.359
安徽,安庆市,139.133,149.559,8.238,26.505,1.237,56.331,-2.094,-2.705,286.594,65.609,99809.861,30.557,116.473
安徽,宣城市,87.286,119.515,8.632,40.815,1.09,41.244,-1.25,1.584,287.287,66.842,99742.568,30.676,118.846
安徽,宿州市,98.32,157.457,11.168,40.013,1.031,39.043,-2.573,-2.875,285.256,83.589,101937.674,33.844,117.23
安徽,池州市,121.206,148.783,9.579,31.834,1.221,43.995,-1.681,-0.957,287.269,64.139,99963.168,30.296,117.379
安徽,淮北市,107.892,162.992,10.334,43.891,1.148,25.88,-2.417,-3.015,285.272,82.181,101984.838,33.722,116.747
安徽,淮南市,159.081,240.42,10.506,43.627,1.299,39.97,-1.785,-1.663,286.69,73.59,101979.274,32.463,116.746
安徽,滁州市,125.645,187.569,11.273,50.29,1.105,41.22,-3.23,-1.119,286.984,77.043,101687.191,32.55,118.076
安徽,芜湖市,159.639,207.432,8.994,56.797,1.806,35.394,-0.719,-0.694,286.755,73.002,101942.408,31.167,118.162
安徽,蚌埠市,119.833,178.502,12.572,41.46,1.053,53.276,-3.012,-2.195,286.796,74.253,101970.49,33.121,117.263
安徽,铜陵市,158.228,212.862,7.047,43.002,1.592,41.123,-0.748,-2.621,286.635,74.418,101799.563,30.883,117.531
安徽,阜阳市,173.219,277.041,7.749,40.18,1.404,27.459,-1.83,-2.654,285.477,74.535,101945.526,32.937,115.723
安徽,马鞍山市,124.107,183.224,10.182,60.755,1.623,27.114,-1.974,-0.422,286.738,72.732,101947.955,31.622,118.386
安徽,黄山市,54.29,80.629,10.825,23.363,0.77,44.054,-1.837,0.805,287.653,58.481,97729.426,29.869,118.09
山东,东营市,101.835,201.307,19.115,52.984,1.252,28.2,-3.486,0.268,281.914,77.575,102447.237,37.57,118.572
山东,临沂市,97.141,198.383,10.42,44.671,1.021,35.33,-3.036,-1.607,282.745,91.237,100508.201,35.289,118.27
山东,威海市,53.922,123.831,9.78,25.21,0.94,54.484,-3.454,-0.49,282.657,80.682,101886.354,37.148,122.028
山东,德州市,150.205,304.418,20.483,73.271,1.813,18.75,-2.687,-0.455,280.905,78.595,102276.754,37.233,116.679
山东,日照市,83.023,166.379,8.18,34.249,0.874,50.685,-3.684,-1.404,283.087,93.792,100637.474,35.566,119.108
山东,枣庄市,83.989,199.992,10.684,48.017,0.864,22.108,-2.553,-1.188,282.902,89.212,101238.778,34.925,117.383
山东,泰安市,143.713,288.074,16.51,61.488,1.691,20.834,-3.974,-0.464,281.134,88.086,100422.601,35.993,117.04
山东,济南市,174.648,325.873,21.471,72.503,2.014,20.974,-3.397,0.466,281.433,83.609,100418.712,36.639,117.254
山东,济宁市,104.083,236.353,13.275,56.343,1.207,11.925,-2.409,-0.766,281.859,88.483,101714.595,35.375,116.697
山东,淄博市,168.795,301.1,20.396,61.392,1.832,24.156,-4.007,0.877,280.847,88.741,99810.826,36.623,118.062
山东,滨州市,125.07,242.701,21.091,63.648,1.535,20.704,-3.666,0.435,281.399,78.552,102376.878,37.516,117.852
山东,潍坊市,137.397,267.412,14.742,48.742,1.531,37.678,-3.684,0.292,281.884,88.426,101295.31,36.53,119.092
山东,烟台市,82.619,178.212,11.134,34.712,1.37,43.262,-3.897,0.645,282.031,80.787,101342.083,37.25,120.789
山东,聊城市,185.526,360.12,24.786,78.294,2.33,10.681,-1.86,-1.17,280.527,81.803,102035.169,36.458,115.863
山东,菏泽市,181.423,312.136,13.278,57.475,1.664,5.064,-1.026,-1.854,281.15,85.921,101877.244,35.134,115.69
山东,青岛市,88.229,190.707,9.688,33.675,1.135,49.817,-5.184,-0.325,282.9,87.414,101877.442,36.46,120.172
山西,临汾市,150.659,234.945,58.027,69.66,2.164,26.915,-1.613,1.803,277.757,49.711,90393.443,36.227,111.398
山西,吕梁市,80.484,145.427,59.209,66.686,1.468,19.717,-1.331,3.019,275.802,42.078,87909.945,37.663,111.27
山西,大同市,59.687,115.274,31.513,42.73,1.163,21.879,1.188,4.006,273.785,48.617,87463.481,39.911,113.713
山西,太原市,89.426,173.735,41.989,74.361,1.382,14.353,-0.774,1.328,274.786,46.014,87848.23,37.967,112.321
山西,忻州市,68.179,127.718,29.79,48.378,1.019,27.971,-0.498,3.896,273.932,44.852,86299.481,38.877,112.391
山西,晋中市,113.676,203.8,36.49,72.914,1.692,17.682,-1.386,2.489,275.65,52.975,88822.785,37.328,112.997
山西,晋城市,157.523,285.453,20.541,50.559,1.828,40.64,-2.01,1.564,277.237,63.615,90848.082,35.625,112.752
山西,朔州市,63.712,132.467,43.18,45.814,1.097,26.244,1.332,4.875,274.294,45.259,86744.203,39.619,112.655
山西,运城市,176.73,289.036,26.68,55.701,2.155,39.509,-2.684,1.312,279.929,54.046,94667.389,35.205,111.071
山西,长治市,144.047,257.105,34.335,61.172,2.236,29.042,-1.742,1.558,276.175,59.412,89143.931,36.48,112.915
山西,阳泉市,122.556,227.769,40.285,78.123,1.837,11.563,-1.301,0.969,274.292,57.467,90788.719,38.031,113.512
广东,东莞市,52.641,76.404,9.921,46.277,0.769,49.278,-4.374,-0.586,294.302,70.118,101657.404,22.931,113.81
广东,中山市,39.198,65.078,7.929,42.886,0.643,53.291,-4.874,-0.419,294.721,79.074,101639.661,22.5,113.383
广东,云浮市,56.196,70.693,9.555,36.922,0.751,36.631,-4.788,1.683,293.506,77.217,99585.224,22.776,111.818
广东,佛山市,61.638,94.673,11.275,73.079,0.953,22.242,-3.355,0.203,294.955,67.583,101680.084,23.035,112.979
广东,广州市,53.532,70.524,9.063,46.998,0.751,37.663,-3.589,-0.01,294.397,66.327,100792.872,23.339,113.525
广东,惠州市,42.497,61.384,9.272,23.265,0.642,57.402,-3.835,-1.191,293.127,70.961,99838.493,23.244,114.485
广东,揭阳市,51.834,84.509,14.97,30.688,0.913,66.995,-3.404,-2.397,292.395,76.295,100482.861,23.323,116.123
广东,梅州市,43.441,71.236,10.704,26.542,0.84,45.612,-1.835,-0.219,291.29,70.706,98448.788,24.169,116.07
广东,汕头市,39.121,62.771,13.329,24.215,0.689,78.705,-4.261,-3.004,292.977,78.146,101614.689,23.339,116.614
广东,汕尾市,43.997,71.503,11.108,22.49,0.737,69.146,-4.517,-2.653,292.864,75.847,100186.27,23.024,115.527
广东,江门市,42.521,60.7,7.574,31.958,0.567,54.701,-5.287,-0.511,294.428,82.56,101053.452,22.289,112.676
广东,河源市,45.959,69.612,10.706,25.87,0.81,41.887,-2.683,-0.767,291.393,71.128,98627.812,24.021,114.969
广东,深圳市,37.268,62.58,8.513,31.22,0.628,67.07,-5.452,-0.403,294.299,77.267,101167.241,22.667,114.143
广东,清远市,54.819,59.084,8.836,17.98,0.696,39.898,-1.746,-0.861,291.646,77.417,98101.734,24.295,112.871
广东,湛江市,23.025,35.978,4.77,6.789,0.41,78.288,-7.303,1.579,296.209,86.98,101347.886,21.091,110.163
广东,潮州市,39.705,65.731,10.442,21.836,0.737,65.817,-3.687,-2.269,292.358,71.298,99925.124,23.755,116.754
广东,珠海市,27.16,39.528,5.685,15.773,0.368,78.382,-6.283,-1.38,294.928,86.597,101701.29,22.095,113.317
广东,肇庆市,59.857,70.608,8.862,39.47,0.747,31.641,-3.829,0.193,293.427,71.325,99716.235,23.505,112.199
广东,茂名市,30.774,43.128,7.004,11.962,0.506,63.704,-6.688,1.434,294.623,81.639,99598.724,22.013,110.952
广东,阳江市,40.881,52.248,6.701,15.959,0.513,61.518,-5.529,-0.451,293.991,85.807,100176.613,22.042,111.786
广东,韶关市,54.642,59.497,9.592,18.185,0.91,37.312,-1.322,-0.186,290.806,74.149,97332.977,24.785,113.819
广西,北海市,25.036,36.116,6.929,10.624,0.539,65.01,-6.134,2.278,296.356,83.665,101379.236,21.674,109.37
广西,南宁市,58.135,71.87,8.908,22.539,0.933,33.467,-3.139,-2.292,291.436,92.141,99605.737,23.051,108.469
广西,崇左市,45.817,67.476,10.064,16.873,0.775,37.201,-2.832,-1.249,291.943,96.067,98272.354,22.483,107.291
广西,来宾市,60.58,71.622,9.855,18.477,0.788,38.416,-2.912,-1.23,290.546,90.727,98459.177,23.859,109.417
广西,柳州市,61.764,72.758,13.453,14.818,0.711,40.375,-2.137,-1.641,289.179,90.297,97877.188,24.956,109.372
广西,桂林市,67.344,79.279,10.119,16.92,0.727,43.873,-2.884,-1.1,288.175,88.864,96275.048,25.353,110.513
广西,梧州市,43.918,55.24,9.003,19.689,0.75,43.493,-4.479,0.138,292.682,79.337,99298.135,23.484,110.996
广西,河池市,59.059,71.488,14.679,10.668,0.725,35.732,-2.394,-0.321,288.178,92.96,95499.453,24.628,107.843
广西,玉林市,33.356,44.112,8.398,15.127,0.684,56.28,-4.029,1.806,294.639,80.782,99646.312,22.452,110.164
广西,百色市,53.946,73.427,17.972,11.084,0.705,45.597,-1.909,1.065,288.912,93.726,93365.585,23.981,106.292
广西,贵港市,50.379,61.243,10.066,19.553,0.844,49.206,-3.898,-2.712,292.254,84.962,100128.15,23.322,110.021
广西,贺州市,54.261,65.095,10.494,13.413,0.713,36.434,-3.046,-1.024,290.371,86.776,97511.967,24.364,111.394
广西,钦州市,28.249,39.778,7.712,14.01,0.754,50.985,-3.721,0.291,295.05,84.517,100683.415,22.173,109.01
广西,防城港市,27.418,41.311,9.082,15.211,0.67,47.825,-3.402,-0.143,294.008,94.273,99083.906,21.88,108.002
新疆,乌鲁木齐市,63.278,177.757,2.63,7.574,0.409,63.423,3.551,-6.239,264.216,57.677,84384.33,43.746,87.818
新疆,五家渠市,71.93,122.087,3.833,10.4,0.497,57.147,3.24,-4.393,269.69,55.53,97591.543,44.363,87.517
新疆,伊犁哈萨克自治州,4.897,10.424,2.256,2.272,0.223,72.95,7.728,-2.043,258.914,66.153,80824.53,43.438,82.146
新疆,克孜勒苏柯尔克孜自治州,24.539,44.714,0.692,4.223,0.592,78.203,13.64,-10.359,266.38,37.852,70312.928,39.661,75.949
新疆,克拉玛依市,11.816,37.955,3.867,3.823,0.385,65.582,7.567,-6.081,268.038,44.157,98435.565,45.457,85.207
新疆,北屯市,1.474,1.896,2.782,1.86,0.376,47.38,5.596,-5.874,261.772,68.66,96319.3,47.27,87.868
新疆,博尔塔拉蒙古自治州,7.212,20.175,2.383,2.919,0.239,72.009,9.695,-1.267,263.027,46.753,86676.512,44.714,82.114
新疆,双河市,22.51,70.574,5.07,11.034,0.418,60.002,-0.162,-9.52,269.772,41.548,99178.134,44.87,82.474
新疆,可克达拉市,3.322,7.266,3.508,2.46,0.258,70.23,12.154,1.006,268.278,52.89,96441.832,43.918,80.786
新疆,和田地区,103.141,111.496,1.502,1.959,0.237,70.182,6.95,-1.109,270.967,31.723,74165.189,37.059,80.934
新疆,哈密市,10.276,10.679,1.45,1.296,0.237,65.527,6.223,-3.46,269.907,48.713,88143.3,43.042,93.517
新疆,喀什地区,111.059,180.604,2.539,10.12,2.157,69.655,7.652,-3.432,273.02,28.371,76325.925,38.125,77.178
新疆,图木舒克市,92.49,97.398,2.548,1.763,0.278,67.04,5.877,-1.658,277.798,24.688,89497.112,39.892,79.182
新疆,塔城地区,5.699,12.531,2.384,1.983,0.238,67.033,8.882,-4.842,262.439,57.753,90103.637,45.642,84.789
新疆,巴音郭楞蒙古自治州,39.863,42.228,0.834,0.708,0.163,65.463,6.287,-1.863,268.621,42.551,79106.371,39.463,87.481
新疆,新星市,21.295,26.735,3.72,6.115,0.575,47.68,-1.485,-2.955,273.635,42.69,92671.25,42.75,93.68
新疆,昆玉市,45.757,86.56,7.823,11.323,0.797,59.273,4.13,-0.463,281.54,19.463,87402.923,37.457,79.093
新疆,昌吉回族自治州,20.691,63.016,2.513,4.07,0.316,67.059,5.684,-3.523,266.622,59.097,90364.65,44.342,88.608
新疆,石河子市,59.98,137.575,8.04,17.5,0.55,53.89,5.09,-3.275,269.98,50.025,95639.075,44.245,86.035
新疆,胡杨河市,21.306,44.416,3.638,4.286,0.378,64.086,3.254,-1.802,269.784,49.558,99032.382,44.852,84.772
新疆,铁门关市,12.927,34.22,1.877,2.373,0.267,80.05,2.993,-9.587,274.81,25.98,91718.47,41.773,85.66
新疆,阿克苏地区,109.55,127.85,1.725,2.497,0.342,70.799,2.905,-6.742,271.104,29.055,85257.788,40.965,81.578
新疆,阿勒泰地区,1.344,1.883,2.344,1.195,0.245,62.107,4.148,-2.59,259.685,71.452,88666.035,46.902,88.421
新疆,阿拉尔市,149.957,189.303,2.244,5.273,0.721,63.533,1.9,-1.667,274.624,26.503,90289.042,40.629,80.998
江苏,南京市,105.476,166.398,9.831,58.588,1.282,23.33,-2.712,0.41,287.126,75.604,102009.65,31.899,118.876
江苏,南通市,40.221,69.418,10.281,30.421,0.445,52.484,-5.268,2.707,288.698,82.811,102233.256,32.201,120.979
江苏,宿迁市,68.754,123.563,9.279,33.019,0.938,62.67,-3.129,-2.161,286.801,79.825,102174.607,33.765,118.495
江苏,常州市,95.949,164.288,10.152,71.688,1.488,15.566,-2.528,1.918,287.908,79.161,102071.683,31.613,119.666
江苏,徐州市,87.392,166.213,10.51,42.956,0.969,30.133,-2.111,-2.402,284.453,87.934,101959.492,34.363,117.513
江苏,扬州市,80.09,135.92,8.423,36.737,0.821,39.023,-3.921,0.553,287.683,80.07,102190.24,32.709,119.486
江苏,无锡市,86.576,159.648,11.528,76.071,1.332,15.556,-3.055,2.54,288.241,81.04,101988.922,31.546,120.066
江苏,泰州市,66.547,116.422,10.093,40.129,0.74,37.09,-4.393,1.636,287.972,82.417,102167.354,32.605,120.048
江苏,淮安市,78.38,138.991,8.622,30.38,0.902,67.643,-3.745,-0.737,287.378,78.318,102152.257,33.362,118.985
江苏,盐城市,57.51,91.574,8.5,16.588,0.595,78.883,-4.353,1.268,287.519,84.645,102252.19,33.529,120.156
江苏,苏州市,62.078,123.445,11.499,76.915,0.887,25.18,-3.644,2.896,288.761,82.534,102170.718,31.374,120.661
江苏,连云港市,54.077,108.371,9.542,25.343,0.707,63.804,-2.922,-0.823,286.004,87.938,102095.011,34.519,119.133
江苏,镇江市,95.679,162.106,9.162,61.542,1.285,16.978,-3.206,0.966,287.726,80.978,102053.022,32.016,119.49
江西,上饶市,56.987,83.723,22.043,27.466,0.773,46.377,-1.255,0.117,289.618,56.101,99788.358,28.778,117.47
江西,九江市,114.038,100.184,12.086,19.711,1.042,55.103,-1.412,-1.564,287.743,68.391,99747.659,29.313,115.444
江西,南昌市,87.037,117.035,14.602,28.396,1.215,45.926,-1.17,-2.397,289.682,64.293,101631.79,28.671,116.016
江西,吉安市,51.537,79.629,15.808,17.525,0.863,55.838,-0.86,-0.548,290.043,65.278,99324.515,26.954,114.831
江西,宜春市,76.262,112.164,17.785,26.395,1.187,54.651,-1.366,-1.133,289.014,64.55,99688.162,28.29,114.974
江西,抚州市,51.213,70.654,14.11,15.802,0.708,60.068,-1.045,0.624,290.122,62.579,99339.637,27.514,116.42
江西,新余市,72.325,114.618,26.097,39.215,1.299,48.811,-1.482,-1.36,289.502,65.503,100620.988,27.847,114.836
江西,景德镇市,56.927,86.295,16.87,26.347,0.762,39.405,-1.369,-0.472,289.189,52.71,100625.557,29.287,117.24
江西,萍乡市,94.698,128.214,18.356,24.921,1.375,49.911,-1.481,0.297,289.529,61.687,98323.056,27.505,113.908
江西,赣州市,43.163,63.348,11.138,14.545,0.849,49.871,-0.743,0.323,290.063,68.913,97674.026,25.692,115.279
江西,鹰潭市,57.207,82.884,21.305,31.804,0.787,49.664,-1.233,0.796,290.426,58.217,100298.795,28.222,117.094
河北,保定市,122.524,220.421,17.836,69.979,1.485,14.691,-0.305,-0.222,276.713,55.135,98525.78,39.018,115.159
河北,唐山市,75.747,143.916,29.777,58.01,1.832,14.547,-3.072,0.566,278.551,59.751,101903.783,39.731,118.354
河北,廊坊市,141.359,247.935,18.193,87.838,2.134,9.768,-1.296,-0.39,277.651,56.289,102450.122,39.267,116.632
河北,张家口市,47.174,85.877,16.599,38.171,0.867,29.117,0.923,4.675,272.777,51.506,87924.608,40.877,115.042
河北,承德市,46.359,88.384,11.946,39.19,1.105,23.169,1.641,3.914,271.652,59.48,91438.878,41.339,117.578
河北,沧州市,121.886,238.932,18.876,76.93,1.61,16.346,-2.004,-0.766,279.701,66.444,102435.237,38.258,116.744
河北,石家庄市,138.434,275.408,20.318,74.589,1.753,11.12,-0.102,-0.875,276.862,59.396,99075.856,38.135,114.407
河北,秦皇岛市,53.022,99.327,18.697,44.976,1.305,22.654,-2.576,1.531,276.695,63.542,99568.065,40.12,119.193
河北,衡水市,138.44,283.176,16.708,72.716,1.645,11.4,-1.422,-2.199,278.368,73.685,102290.246,37.755,115.813
河北,邢台市,151.55,313.783,16.343,70.07,1.827,8.282,-0.559,-2.775,277.745,69.428,100742.762,37.195,114.815
河北,邯郸市,162.033,316.618,21.21,67.553,2.162,8.831,-0.911,-3.105,278.968,68.921,100225.543,36.538,114.596
河南,三门峡市,153.08,240.037,11.081,47.311,1.421,37.971,-0.849,1.353,278.948,59.758,92231.328,34.362,111.101
河南,信阳市,161.64,284.009,8.562,36.513,1.531,24.842,-1.714,-2.58,284.302,75.141,100950.976,32.091,114.907
河南,南阳市,167.729,257.067,8.418,44.06,1.591,23.401,-1.789,-1.193,281.724,75.763,98868.732,33.034,112.323
河南,周口市,215.072,347.253,8.762,43.798,1.639,10.312,-1.271,-2.815,283.219,82.748,101780.417,33.738,114.884
河南,商丘市,169.909,257.82,7.753,45.931,1.43,11.398,-1.026,-2.478,282.838,86.783,101872.642,34.277,115.718
河南,安阳市,171.434,308.692,22.68,62.622,2.371,11.183,-0.605,-3.083,279.621,67.938,99799.712,35.888,114.318
河南,平顶山市,191.43,320.642,11.836,54.847,1.784,9.956,-0.723,-1.256,281.014,73.764,99553.371,33.8,113.025
河南,开封市,226.229,341.89,12.634,55.266,1.967,3.706,-1.115,-2.174,280.484,80.112,101561.913,34.594,114.514
河南,新乡市,178.801,315.429,17.813,58.458,2.172,11.706,-2.397,-3.098,280.8,66.467,100619.103,35.256,114.111
河南,洛阳市,180.987,297.717,11.403,51.094,1.622,29.912,-0.763,-0.891,279.724,62.684,94733.808,34.274,112.019
河南,济源市,175.299,327.597,14.491,54.233,1.76,26.325,-2.948,-1.243,279.777,63.002,96670.054,35.105,112.445
河南,漯河市,218.777,350.202,10.456,51.35,1.856,3.409,-0.717,-2.528,281.845,83.345,101635.825,33.652,113.945
河南,濮阳市,203.205,340.988,22.888,67.796,2.182,7.631,-1.273,-2.509,280.229,80.288,101889.027,35.809,115.283
河南,焦作市,174.954,328.974,12.93,55.758,1.951,14.981,-3.718,-1.011,281.559,60.998,100408.281,35.121,113.163
河南,许昌市,213.962,340.187,13.425,55.429,1.972,3.034,-1.401,-1.981,280.732,80.745,100954.136,34.075,113.707
河南,郑州市,202.304,344.338,13.612,60.449,2.017,6.414,-2.614,-1.026,280.604,70.977,99607.285,34.634,113.438
河南,驻马店市,191.418,342.61,7.291,42.429,1.65,10.824,-1.2,-2.63,283.108,81.08,101287.968,32.925,114.174
河南,鹤壁市,167.006,314.142,22.368,63.357,2.468,10.353,-0.574,-3.964,280.376,66.858,101007.572,35.716,114.319
浙江,丽水市,29.503,47.61,6.732,18.143,0.474,53.703,-1.097,1.621,287.528,77.689,95069.069,28.194,119.51
浙江,台州市,27.485,50.221,5.529,21.721,0.444,56.683,-2.099,-0.329,289.271,89.398,99395.619,28.742,121.109
浙江,嘉兴市,60.166,105.147,8.278,69.05,0.71,32.499,-2.805,2.083,289.137,82.276,102173.234,30.635,120.754
浙江,宁波市,33.312,59.281,6.621,35.72,0.498,57.496,-2.51,0.517,289.511,87.755,100938.747,29.706,121.49
浙江,杭州市,58.624,99.923,8.984,45.548,0.852,32.932,-1.488,0.779,287.736,71.304,99195.45,29.891,119.464
浙江,温州市,31.66,63.234,7.273,30.505,0.56,42.842,-1.486,-1.306,288.965,88.837,98173.993,27.897,120.411
浙江,湖州市,78.569,138.469,9.392,65.539,1.096,21.47,-1.699,2.146,287.794,72.919,100852.699,30.757,119.871
浙江,绍兴市,55.683,90.333,7.367,48.763,0.734,37.947,-2.031,1.713,289.061,80.047,100056.336,29.709,120.64
浙江,舟山市,11.475,17.098,3.37,6.595,0.225,80.225,-3.718,0.015,290.612,85.535,101979.98,30.038,122.23
浙江,衢州市,41.072,65.064,13.496,36.443,0.631,45.342,-1.216,0.964,288.95,62.338,98394.166,28.912,118.675
浙江,金华市,42.427,71.925,7.408,36.518,0.644,39.397,-1.606,1.698,288.77,76.288,98680.378,29.109,119.967
海南,万宁市,13.398,24.677,1.573,1.691,0.256,81.257,-5.812,-2.851,296.254,92.488,100271.25,18.842,110.294
海南,三亚市,13.267,22.307,2.076,3.669,0.413,60.824,-7.653,-2.401,296.574,83.064,98975.724,18.413,109.407
海南,东方市,15.359,21.246,2.234,2.794,0.254,68.919,-2.121,0.187,297.39,76.607,99608.813,18.971,108.838
海南,临高县,15.701,28.583,3.579,5.99,0.344,58.274,-6.401,0.906,296.89,83.469,100853.936,19.821,109.733
海南,乐东黎族自治县,13.194,19.178,1.414,2.433,0.28,63.706,-5.1,-1.07,296.505,79.148,98095.522,18.659,109.072
海南,五指山市,14.054,21.238,1.482,2.204,0.27,67.698,-6.49,-0.29,293.97,89.062,94914.194,18.81,109.518
海南,儋州市,15.94,26.404,2.611,3.821,0.312,65.32,-5.864,1.159,296.852,83.224,100488.147,19.568,109.399
海南,定安县,14.085,27.335,2.117,4.202,0.347,58.207,-5.802,-0.353,296.398,87.662,100566.333,19.47,110.28
海南,屯昌县,14.504,26.918,2.074,3.756,0.33,61.13,-5.094,0.018,295.936,88.936,99774.458,19.342,110.076
海南,文昌市,13.767,26.149,1.49,1.565,0.28,70.127,-6.841,-1.186,296.56,90.103,101361.3,19.707,110.773
海南,昌江黎族自治县,15.06,21.662,2.128,2.531,0.258,70.112,-5.189,0.406,296.519,81.083,98603.007,19.233,109.016
海南,海口市,14.672,28.612,2.758,4.872,0.359,59.225,-6.47,-0.285,296.698,86.591,101155.597,19.842,110.393
海南,澄迈县,15.17,29.216,3.41,6.273,0.379,53.571,-5.967,0.343,296.653,85.073,100688.011,19.676,109.989
海南,琼中黎族苗族自治县,15.42,25.731,1.821,2.685,0.297,67.203,-4.951,0.042,294.594,93.119,97581.132,19.087,109.847
海南,琼海市,13.083,25.025,1.433,1.98,0.278,71.797,-5.478,-1.493,296.635,89.953,101118.203,19.22,110.43
海南,白沙黎族自治县,14.696,22.69,1.686,2.005,0.274,70.538,-5.455,1.011,295.082,87.752,97275.829,19.2,109.388
海南,陵水黎族自治县,13.989,24.116,1.446,2.047,0.31,73.107,-5.54,-3.633,296.151,89.729,99574.683,18.581,109.913
湖北,仙桃市,172.752,270.021,12.675,31.014,1.768,35.797,-0.863,-3.629,286.042,62.097,101928.971,30.284,113.417
湖北,十堰市,95.766,150.239,13.977,24.353,1.146,40.91,-1.229,0.147,280.962,75.325,93813.699,32.462,110.476
湖北,咸宁市,135.582,176.257,11.388,33.294,1.507,36.828,-0.724,-2.109,286.498,73.657,99981.298,29.621,114.178
湖北,天门市,165.748,275.193,13.395,31.237,1.747,42.222,-1.099,-3.166,285.787,61.393,101896.976,30.633,113.053
湖北,孝感市,147.19,245.776,12.104,30.317,1.7,26.987,-1.303,-4.02,284.858,67.834,101282.981,31.116,113.869
湖北,宜昌市,149.175,201.676,14.943,30.078,1.26,40.589,-1.323,0.392,282.808,78.803,94670.753,30.746,111.129
湖北,恩施土家族苗族自治州,100.289,135.46,15.484,17.36,1.123,24.73,-0.923,2.109,280.906,92.968,89998.61,30.195,109.552
湖北,武汉市,150.295,196.314,10.789,41.529,1.794,19.585,-0.313,-2.759,286.369,67.244,101796.881,30.606,114.349
湖北,潜江市,176.399,306.27,12.437,33.761,1.85,44.057,-1.087,-3.277,285.944,60.292,101900.888,30.33,112.77
湖北,神农架林区,93.277,121.244,18.31,11.381,0.775,50.023,0.405,2.849,277.044,91.931,83252.413,31.592,110.49
湖北,荆州市,179.145,290.52,13.976,32.523,1.758,46.383,-1.109,-3.324,286.334,63.243,101654.633,30.01,112.512
湖北,荆门市,179.334,260.831,13.393,36.753,1.649,43.659,-0.978,-3.195,284.495,68.547,100870.425,31.059,112.616
湖北,襄阳市,154.17,214.301,11.288,34.667,1.464,41.551,-0.875,-1.285,282.515,77.014,98083.857,31.919,111.96
湖北,鄂州市,130.721,166.62,12.446,42.069,1.76,24.523,0.107,-0.879,287.264,71.559,101829.199,30.337,114.794
湖北,随州市,150.022,246.587,10.886,34.121,1.578,26.95,-1.74,-2.623,283.457,74.789,100160.514,31.809,113.43
湖北,黄冈市,134.876,145.956,10.246,23.5,1.377,47.645,-1.906,-0.528,286.674,64.666,100063.739,30.702,115.358
湖北,黄石市,127.907,137.195,14.041,29.01,1.452,42.614,-1.106,-0.114,287.328,71.481,100824.317,29.925,115.034
湖南,娄底市,148.482,221.13,9.432,28.232,1.78,57.008,-1.824,-1.969,286.836,66.229,97766.879,27.715,111.632
湖南,岳阳市,163.206,232.351,11.008,28.169,1.555,51.555,-0.951,-3.337,287.63,65.748,100690.214,29.081,113.275
湖南,常德市,154.459,241.399,12.557,31.37,1.646,48.628,-1.218,-2.573,285.906,67.358,99928.485,29.271,111.524
湖南,张家界市,124.456,187.62,9.55,26.002,1.3,40.9,-2.382,-0.292,283.627,80.249,95906.506,29.379,110.526
湖南,怀化市,112.418,162.199,9.653,22.122,1.292,43.946,-1.752,-1.696,285.912,74.854,96818.451,27.535,110.071
湖南,株洲市,122.257,151.164,13.952,25.601,1.176,50.008,0.052,-1.578,289.587,64.321,98459.35,27.109,113.513
湖南,永州市,85.53,109.551,8.951,19.709,0.947,44.999,-1.875,-1.268,288.443,79.517,97052.163,25.748,111.723
湖南,湘潭市,213.935,281.46,8.458,41.117,1.686,48.322,0.201,-4.414,288.886,63.111,100788.274,27.744,112.619
湖南,湘西土家族苗族自治州,110.098,163.587,6.373,23.953,1.264,35.952,-2.3,-0.692,284.0,78.227,95807.244,28.708,109.718
湖南,益阳市,159.368,254.654,9.287,29.086,1.881,59.188,-0.859,-3.09,286.402,66.226,99396.619,28.525,111.919
湖南,衡阳市,157.513,199.275,11.984,33.979,1.423,47.668,-0.466,-3.168,289.586,62.393,100273.947,26.781,112.565
湖南,邵阳市,118.075,154.964,11.791,23.662,1.17,49.419,-2.687,-0.89,286.507,73.726,95492.799,26.893,110.881
湖南,郴州市,61.452,79.743,8.973,19.328,1.077,42.203,-0.111,-0.767,289.147,75.183,96216.756,25.769,113.109
湖南,长沙市,177.002,229.525,11.085,30.86,1.479,51.748,0.023,-2.972,288.713,63.184,100178.264,28.235,113.159
甘肃,临夏回族自治州,26.503,58.205,9.137,21.748,1.176,58.54,2.66,1.292,275.577,43.085,77319.512,35.617,103.291
甘肃,兰州市,43.796,84.684,22.311,46.146,1.509,41.002,4.703,1.459,275.836,45.437,78906.536,36.359,103.633
甘肃,嘉峪关市,51.348,42.887,12.028,19.53,0.395,51.478,3.632,-1.922,275.653,35.477,81359.377,39.798,98.145
甘肃,天水市,37.849,71.823,12.552,22.224,0.815,37.971,-0.368,4.894,275.347,62.585,82712.761,34.645,105.739
甘肃,定西市,33.902,71.005,11.267,21.053,0.863,50.748,1.022,2.659,274.171,56.869,77127.318,35.124,104.432
甘肃,平凉市,43.78,89.036,11.786,30.716,0.826,35.313,-0.146,4.465,275.376,57.162,84597.066,35.304,106.644
甘肃,庆阳市,36.963,70.529,13.97,23.386,0.634,43.916,-0.636,4.464,275.648,58.416,85897.692,36.149,107.596
甘肃,张掖市,15.225,9.416,2.129,3.126,0.201,68.267,5.064,1.075,271.899,42.057,74284.472,38.94,99.855
甘肃,武威市,21.46,32.856,6.824,10.391,0.562,57.575,1.874,1.194,275.672,44.211,81111.863,38.163,103.073
甘肃,甘南藏族自治州,3.504,5.347,1.053,3.309,0.224,70.77,5.837,0.236,268.192,57.769,67447.94,34.331,102.768
甘肃,白银市,42.444,82.274,18.267,34.871,1.065,38.473,1.664,5.21,276.278,48.812,81306.729,36.59,104.646
甘肃,酒泉市,8.749,8.484,1.328,1.527,0.166,63.902,6.641,0.241,271.026,45.576,78797.077,40.236,96.062
甘肃,金昌市,15.848,30.687,9.981,11.77,0.449,59.194,3.686,0.352,276.655,36.986,80299.962,38.44,102.048
甘肃,陇南市,34.296,55.66,11.074,19.751,0.715,36.209,-0.314,2.212,275.354,70.659,82291.492,33.599,105.224
福建,三明市,37.011,53.521,10.497,17.747,0.962,38.434,-1.254,0.878,288.956,71.328,95653.112,26.29,117.395
福建,南平市,30.229,42.608,9.419,12.855,0.518,58.347,-1.177,0.606,288.581,72.773,96444.786,27.324,118.143
福建,厦门市,32.29,66.46,9.02,29.142,0.568,49.445,-1.875,-3.753,292.17,73.965,100853.305,24.642,118.11
福建,宁德市,23.506,37.313,5.759,11.266,0.39,58.49,-1.068,-1.389,288.572,84.037,95778.005,26.968,119.474
福建,泉州市,30.115,55.434,6.713,18.455,0.558,54.86,-1.046,-2.197,290.012,77.809,97079.088,25.201,118.249
福建,漳州市,33.16,59.363,8.285,20.952,0.557,57.441,-1.757,-2.188,291.026,75.701,98677.238,24.372,117.444
福建,福州市,23.769,45.458,5.856,17.708,0.44,57.665,-0.987,-3.03,290.05,83.995,97861.842,26.083,119.206
福建,莆田市,25.648,49.394,6.642,16.292,0.457,62.193,-1.274,-3.724,290.943,79.885,98607.807,25.445,118.864
福建,龙岩市,32.588,54.907,9.497,19.388,0.68,45.499,-0.983,0.3,289.825,69.748,95628.837,25.256,116.739
西藏,山南市,7.836,9.497,0.546,1.588,0.152,86.53,4.472,-1.088,272.929,46.715,66165.337,28.295,92.274
西藏,拉萨市,2.519,4.259,0.072,2.785,0.17,86.295,3.508,-2.463,265.451,45.427,56469.919,30.043,91.093
西藏,日喀则市,2.132,2.501,0.188,0.417,0.133,92.855,5.629,-2.425,264.802,37.18,55296.63,29.483,86.493
西藏,昌都市,2.86,3.927,0.137,1.346,0.139,76.99,5.25,1.888,264.737,65.912,58915.147,30.753,97.044
西藏,林芝市,5.363,5.894,0.439,1.477,0.124,83.287,1.061,0.695,270.779,62.109,66399.719,29.184,95.25
西藏,玉树藏族自治州,0.623,0.854,0.083,0.467,0.136,85.654,6.146,-0.006,259.513,58.212,57068.179,34.196,94.317
西藏,那曲市,0.374,0.44,0.036,0.197,0.129,87.287,6.3,-1.262,261.429,45.02,55290.407,32.709,89.262
西藏,阿里地区,0.45,0.602,0.063,0.967,0.131,84.655,7.79,-2.232,261.261,34.014,54783.258,33.013,82.553
贵州,六盘水市,31.066,55.272,11.927,16.256,0.622,56.691,-0.502,3.394,282.464,89.995,83386.903,26.106,104.896
贵州,安顺市,40.599,63.449,13.714,17.527,0.537,47.538,-2.59,0.495,283.49,89.904,88541.517,25.986,105.978
贵州,毕节市,35.474,54.092,10.783,16.428,0.567,52.518,1.589,4.134,281.579,84.577,83691.703,27.063,105.211
贵州,贵阳市,43.551,64.722,13.762,25.549,0.597,37.264,-0.516,2.268,282.502,91.421,88578.489,26.845,106.71
贵州,遵义市,53.643,70.498,16.922,17.233,0.648,35.378,-1.568,2.662,282.503,88.145,90771.5,28.167,107.102
贵州,铜仁市,79.57,126.146,13.66,14.676,1.001,37.654,-1.913,0.517,283.052,86.898,93241.776,27.937,108.534
贵州,黔东南苗族侗族自治州,75.792,104.569,18.576,10.672,0.832,41.822,-1.617,-0.981,284.684,89.143,93126.166,26.495,108.574
贵州,黔南布依族苗族自治州,53.205,71.081,17.253,13.651,0.584,39.346,-1.707,-0.632,284.002,92.065,90798.466,26.0,107.265
贵州,黔西南布依族苗族自治州,32.672,55.83,14.847,11.162,0.551,53.647,-1.668,0.742,285.574,89.692,88926.557,25.256,105.467
辽宁,丹东市,33.027,50.537,14.167,23.314,0.897,34.346,-1.799,-1.255,272.318,40.49,99657.95,40.554,124.376
辽宁,大连市,35.344,64.128,12.49,23.837,0.727,41.898,-4.683,0.59,277.226,51.873,101876.887,39.591,122.22
辽宁,抚顺市,24.768,40.495,8.613,15.412,0.656,41.189,-0.695,3.043,270.151,42.544,97772.562,41.841,124.65
辽宁,朝阳市,41.733,83.717,20.279,31.981,1.123,27.813,1.186,5.569,272.977,55.405,97125.704,41.545,120.053
辽宁,本溪市,26.299,43.654,11.311,18.398,0.772,37.876,-1.176,1.886,270.115,42.742,97133.761,41.232,124.544
辽宁,沈阳市,31.428,71.562,24.389,33.309,0.751,31.375,-0.543,4.08,273.255,36.682,102028.372,42.081,123.159
辽宁,盘锦市,33.688,69.875,26.197,32.354,0.898,32.353,-1.416,3.361,275.643,45.381,102704.037,41.13,122.01
辽宁,营口市,34.184,58.669,13.985,26.317,0.808,34.197,-3.968,2.832,275.102,42.909,100429.048,40.395,122.478
辽宁,葫芦岛市,42.151,80.111,22.73,36.29,1.043,28.379,-0.218,2.16,275.34,56.98,100045.407,40.66,120.215
辽宁,辽阳市,29.968,58.896,17.199,27.644,0.85,33.47,-2.401,3.442,273.643,38.696,100664.037,41.153,123.261
辽宁,铁岭市,26.916,50.586,12.242,23.154,0.637,38.119,0.495,4.599,271.107,38.55,100389.897,42.653,124.158
辽宁,锦州市,34.203,72.233,29.007,31.503,0.813,33.611,-0.225,3.525,274.58,46.618,101819.408,41.502,121.659
辽宁,阜新市,30.097,66.527,21.699,24.703,0.645,36.797,0.762,5.456,272.485,44.511,100213.449,42.289,121.968
辽宁,鞍山市,32.171,59.472,15.857,27.014,0.855,33.138,-2.439,1.84,273.974,40.54,100749.517,40.731,123.007
重庆,重庆城区,56.028,78.147,13.628,26.093,0.836,25.289,-1.388,2.269,284.996,78.468,95339.275,29.824,107.125
重庆,重庆郊县,79.559,107.878,21.48,16.475,0.918,29.861,-1.899,1.847,282.177,85.569,91524.205,30.334,108.755
陕西,咸阳市,102.366,163.008,17.421,58.007,1.265,24.199,-2.981,-0.705,279.125,44.763,91767.881,34.779,108.367
陕西,商洛市,91.99,138.182,9.523,35.629,0.979,35.691,-0.891,0.875,278.368,61.527,89718.459,33.64,109.889
陕西,安康市,69.191,94.538,16.369,19.938,0.856,32.617,-1.56,0.559,279.432,76.962,90249.398,32.735,108.932
陕西,宝鸡市,57.932,95.366,11.087,32.168,0.759,30.725,-0.93,2.436,276.901,60.392,86539.748,34.386,107.193
陕西,延安市,45.595,80.12,27.734,43.259,1.151,34.317,-0.578,3.203,276.452,48.898,87758.91,36.432,109.316
陕西,榆林市,40.106,81.361,30.964,46.399,1.129,28.664,0.37,5.143,275.688,48.518,88054.074,38.041,109.581
陕西,汉中市,54.588,71.013,13.743,19.882,0.818,24.757,-2.065,0.464,278.465,79.373,89258.977,33.088,107.098
陕西,渭南市,128.877,217.254,22.486,58.112,1.705,28.288,-1.855,-0.81,280.694,48.308,94210.441,34.919,109.855
陕西,西安市,120.01,187.891,14.371,50.613,1.259,26.25,-0.341,2.307,279.736,53.806,90829.533,34.12,108.77
陕西,铜川市,72.156,118.738,24.491,53.488,1.306,29.444,-1.815,-0.703,277.512,48.484,89448.643,35.198,109.058
青海,保亭黎族苗族自治县,14.11,22.756,1.786,3.342,0.372,63.012,-6.014,-2.604,294.972,90.446,97421.058,18.566,109.618
青海,吐鲁番市,43.39,118.957,2.613,6.468,0.415,58.593,3.941,-6.302,270.763,43.278,90291.808,42.386,89.851
青海,果洛藏族自治州,1.044,1.27,0.164,0.757,0.155,77.216,6.189,0.124,259.667,69.235,59749.392,34.127,99.404
青海,海东市,18.059,25.36,5.586,14.402,0.692,65.251,6.254,-0.821,271.474,50.924,72550.781,36.347,102.34
青海,海北藏族自治州,2.269,2.608,0.677,0.948,0.152,75.652,6.636,-0.459,264.019,61.335,64969.746,37.775,100.288
青海,海南藏族自治州,1.371,1.559,0.28,0.61,0.136,79.385,6.387,0.199,266.252,56.132,66274.557,35.89,100.272
青海,海西蒙古族藏族自治州,3.202,3.346,0.338,0.411,0.133,76.223,4.798,1.151,264.255,52.781,64280.731,36.677,94.519
青海,西宁市,12.335,17.686,3.937,10.709,0.559,69.729,6.572,-1.292,268.157,58.524,69294.107,36.842,101.423
青海,黄南藏族自治州,1.671,1.899,0.332,0.959,0.146,74.689,5.622,0.818,265.238,62.937,65612.798,35.022,101.631
香港,香港特别行政区,29.57,42.53,5.875,17.775,0.41,85.095,-6.52,-1.04,294.68,82.9,101347.785,22.45,114.22
黑龙江,七台河市,25.225,42.065,9.865,17.781,0.558,34.309,5.626,2.006,262.178,69.136,98938.363,45.87,130.943
黑龙江,伊春市,19.287,28.212,7.549,8.962,0.376,35.853,3.645,2.823,258.819,66.254,97160.988,47.772,129.184
黑龙江,佳木斯市,20.505,30.049,6.742,10.563,0.355,36.197,3.795,2.253,260.158,69.771,100960.243,47.207,132.11
黑龙江,双鸭山市,21.339,30.465,7.75,11.237,0.352,36.352,4.129,1.894,260.908,71.826,100532.35,46.722,132.643
黑龙江,哈尔滨市,20.694,32.486,9.465,12.791,0.454,37.704,3.403,4.087,264.606,57.588,99316.469,45.634,127.964
黑龙江,大兴安岭地区,3.369,4.018,3.616,3.064,0.196,40.534,2.469,4.063,256.13,71.552,94314.054,52.286,124.212
黑龙江,大庆市,19.311,42.08,11.179,13.362,0.444,35.794,2.038,6.477,266.9,43.133,100400.911,46.327,124.687
黑龙江,牡丹江市,17.288,27.779,5.88,12.3,0.465,40.162,5.785,2.312,263.807,57.882,96075.13,44.592,129.883
黑龙江,绥化市,24.28,40.634,10.491,13.967,0.529,32.045,1.649,4.834,263.113,58.409,99651.733,46.89,126.634
黑龙江,鸡西市,26.365,37.839,9.931,15.191,0.532,32.81,5.626,0.419,263.289,67.249,100322.66,45.626,132.289
黑龙江,鹤岗市,18.609,27.481,7.606,10.555,0.343,35.729,3.188,1.363,259.244,66.483,99835.999,47.661,130.778
黑龙江,黑河市,19.128,25.328,8.295,9.435,0.354,33.815,2.668,5.271,258.135,65.046,97293.716,49.268,127.004
黑龙江,齐齐哈尔市,20.121,46.113,12.225,12.127,0.425,32.454,1.36,6.642,264.235,49.866,99335.931,47.715,124.57
