province,city,PM2.5,PM10,SO2,NO2,CO,O3,U,V,TEMP,RH,PSFC,lat,lon
上海,上海市,10.683,22.192,3.832,18.33,0.419,35.394,-6.634,-0.521,301.047,87.613,100270.781,31.173,121.42
云南,临沧市,12.024,16.217,2.696,3.295,0.42,44.314,1.259,0.565,293.043,89.182,83378.845,23.935,99.686
云南,丽江市,30.822,50.347,13.5,6.401,0.636,70.885,-1.847,1.936,288.747,87.682,74431.362,26.96,100.515
云南,保山市,8.429,17.764,3.655,4.251,0.417,44.674,1.06,0.446,292.212,89.532,81397.197,24.953,98.962
云南,大理白族自治州,17.115,33.818,6.772,4.773,0.47,62.874,-1.228,1.202,290.7,86.319,77762.903,25.726,100.053
云南,德宏傣族景颇族自治州,10.882,14.22,3.498,3.196,0.287,36.686,1.683,0.376,293.645,92.693,85489.269,24.535,98.052
云南,怒江傈僳族自治州,19.76,29.473,3.986,1.903,0.331,56.317,-0.188,0.849,286.903,92.865,72575.135,26.916,98.885
云南,文山壮族苗族自治州,34.221,48.435,11.462,5.554,0.452,84.077,-2.367,-2.369,293.564,77.617,85982.764,23.696,104.735
云南,昆明市,36.42,52.526,10.684,11.783,0.546,89.21,-4.08,1.266,290.493,78.794,78914.635,25.384,102.863
云南,昭通市,36.942,58.858,11.109,7.102,0.629,97.914,-1.879,-0.305,292.935,75.287,83706.864,27.667,103.985
云南,普洱市,14.063,18.689,3.278,3.543,0.369,48.061,-0.097,1.167,294.21,86.406,85386.36,23.159,100.718
云南,曲靖市,34.053,50.909,10.967,8.286,0.498,94.586,-3.373,-0.33,290.09,78.492,79710.179,25.737,103.929
云南,楚雄彝族自治州,33.351,50.143,11.191,8.941,0.554,77.677,-2.384,2.449,292.43,79.861,80578.164,25.328,101.567
云南,玉溪市,31.703,45.362,8.924,6.756,0.526,83.451,-3.646,1.905,293.32,78.189,82992.15,24.136,102.217
云南,红河哈尼族彝族自治州,29.564,43.346,10.583,4.827,0.458,82.789,-3.56,0.247,293.654,78.504,84625.444,23.451,103.034
云南,西双版纳傣族自治州,8.546,12.439,3.167,3.626,0.382,37.968,0.894,0.886,295.178,87.667,88298.568,21.939,100.912
云南,迪庆藏族自治州,23.865,35.696,5.745,2.315,0.359,63.881,-0.038,2.611,284.016,91.767,67232.916,27.957,99.459
内蒙古,乌兰察布市,17.563,22.568,4.902,4.463,0.277,79.501,2.796,-0.113,292.721,54.996,85783.361,41.691,112.44
内蒙古,乌海市,34.995,64.286,35.655,26.11,1.01,97.725,-1.111,3.64,296.825,48.284,87270.109,39.396,106.856
内蒙古,兴安盟,7.493,8.591,1.59,1.968,0.179,66.062,0.407,-3.334,290.78,70.093,94394.397,46.244,121.341
内蒙古,包头市,16.379,21.685,5.004,5.608,0.263,79.882,1.731,-0.423,293.384,48.085,85738.96,41.549,110.276
内蒙古,呼伦贝尔市,10.638,12.475,2.3,2.247,0.204,62.003,0.26,-0.357,290.58,74.951,93240.264,49.636,121.171
内蒙古,呼和浩特市,26.644,42.836,10.674,14.727,0.619,94.936,1.39,1.26,294.45,52.816,86096.407,40.578,111.513
内蒙古,巴彦淖尔市,12.193,14.317,3.221,2.732,0.187,69.806,-1.852,-3.281,294.478,41.946,87058.773,41.446,107.582
内蒙古,赤峰市,13.645,18.279,5.464,5.177,0.261,72.576,-0.824,-0.118,291.178,69.887,91624.714,43.226,118.892
内蒙古,通辽市,6.921,9.225,2.643,3.558,0.203,65.379,1.53,-2.22,292.996,65.207,97362.349,43.814,121.591
内蒙古,鄂尔多斯市,29.281,43.094,13.522,8.292,0.496,98.581,0.224,2.707,296.298,49.13,86697.587,39.407,108.63
内蒙古,锡林郭勒盟,10.051,12.362,3.315,1.717,0.18,73.65,-0.191,0.965,291.882,57.601,88776.808,44.179,115.482
内蒙古,阿拉善盟,24.962,28.897,4.721,2.837,0.207,76.775,-5.949,0.055,296.357,38.351,87081.864,40.473,102.467
北京,北京市,52.295,84.159,5.285,21.257,0.79,135.632,0.164,3.081,297.679,70.213,97161.484,40.158,116.395
台湾,台湾省,42.955,46.827,10.826,17.58,0.291,87.316,1.105,2.361,296.335,88.071,91765.433,23.757,120.975
吉林,吉林市,11.34,16.794,5.842,7.193,0.316,56.019,4.944,3.006,290.344,89.488,96560.259,43.573,126.859
吉林,四平市,7.798,11.908,2.895,5.109,0.258,59.951,4.184,-0.142,292.437,78.449,98784.583,43.472,124.386
吉林,延边朝鲜族自治州,14.169,18.415,6.547,5.761,0.261,60.36,6.303,1.892,289.875,83.338,93701.069,43.141,129.147
吉林,松原市,10.554,15.678,3.696,3.278,0.255,52.492,3.533,-2.286,291.742,83.822,99047.351,44.785,124.496
吉林,白城市,9.988,12.321,2.802,2.712,0.203,58.61,1.495,-3.782,292.49,76.725,99216.422,45.35,123.031
吉林,白山市,16.246,23.428,8.172,6.9,0.484,71.495,5.004,2.793,289.065,86.153,92040.475,42.063,127.256
吉林,辽源市,9.788,15.631,3.755,6.852,0.324,61.778,5.083,1.562,291.452,80.067,97018.587,42.836,125.32
吉林,通化市,18.508,30.028,8.627,8.792,0.586,67.681,3.164,2.037,290.94,83.233,95362.688,41.939,125.927
吉林,长春市,10.714,17.714,3.443,5.89,0.312,48.316,4.865,0.432,291.518,87.015,98592.24,44.268,125.611
四川,乐山市,39.383,59.631,10.891,10.35,0.631,96.84,-0.436,-1.505,295.594,80.924,88977.329,29.218,103.569
四川,内江市,37.838,62.665,11.503,19.227,0.774,105.047,-2.285,2.013,301.14,57.727,95742.971,29.62,104.95
四川,凉山彝族自治州,41.568,58.689,15.101,6.642,0.79,78.477,-2.91,1.564,287.699,88.227,74043.719,27.883,102.065
四川,南充市,47.612,72.585,10.718,21.27,0.794,95.934,-2.896,0.882,300.989,53.958,95819.853,31.19,106.199
四川,宜宾市,43.332,62.538,11.593,13.629,0.735,102.513,-0.791,0.234,300.006,61.147,94159.668,28.573,104.621
四川,巴中市,30.159,45.287,10.083,10.4,0.518,90.956,-3.524,0.702,298.085,53.576,91801.869,32.033,107.031
四川,广元市,29.526,49.427,13.53,10.773,0.628,79.64,-2.31,1.122,297.449,62.336,90939.04,32.261,105.788
四川,广安市,52.431,76.838,11.278,23.829,0.757,104.957,-1.95,2.025,301.406,50.436,95831.665,30.43,106.628
四川,德阳市,35.033,61.418,9.831,15.472,0.675,91.563,-0.929,-0.991,298.572,65.443,92399.606,31.13,104.436
四川,成都市,29.407,53.559,9.64,15.465,0.62,96.719,-0.818,-1.748,298.548,67.55,92532.852,30.64,103.929
四川,攀枝花市,40.669,62.207,25.493,18.329,1.017,62.52,-2.137,1.14,293.226,76.539,81119.625,26.791,101.734
四川,泸州市,33.322,51.091,10.073,13.339,0.55,100.853,-2.695,2.024,298.871,56.595,92647.362,28.424,105.675
四川,甘孜藏族自治州,31.243,37.93,7.853,1.76,0.249,79.3,-0.879,4.411,281.237,85.596,61372.888,30.936,100.009
四川,眉山市,28.291,52.744,10.667,14.68,0.659,97.537,-1.273,-1.166,298.538,71.413,92957.046,29.912,103.766
四川,绵阳市,39.82,60.947,12.144,11.133,0.591,91.025,-1.805,1.064,294.808,74.476,87448.578,31.86,104.704
四川,自贡市,41.052,61.676,11.897,17.726,0.806,102.049,-2.352,0.903,301.008,59.453,95712.639,29.307,104.659
四川,资阳市,35.788,64.466,10.149,16.6,0.697,103.776,-1.945,2.084,301.405,55.974,95985.746,30.102,105.149
四川,达州市,37.816,54.302,11.588,20.853,0.546,97.198,-3.24,0.714,299.074,50.148,93313.009,31.335,107.636
四川,遂宁市,42.703,73.989,9.213,19.801,0.754,100.79,-1.73,1.732,301.681,54.288,96221.588,30.642,105.457
四川,阿坝藏族羌族自治州,34.295,47.775,13.298,2.093,0.349,74.271,-1.151,4.734,282.654,88.591,65667.897,32.406,102.61
四川,雅安市,35.324,53.042,14.208,4.836,0.425,92.194,-2.389,-0.457,289.51,92.725,79818.973,29.932,102.689
天津,天津市,41.132,78.109,11.145,30.531,1.049,144.705,-0.23,4.067,299.95,59.66,100726.104,39.315,117.308
宁夏,中卫市,26.677,42.89,11.769,5.266,0.525,84.489,-2.009,4.859,293.546,67.784,83239.499,37.018,105.509
宁夏,吴忠市,27.841,42.406,10.436,4.762,0.391,95.233,-1.36,5.268,294.532,64.26,84796.545,37.454,106.577
宁夏,固原市,30.283,46.037,10.49,9.525,0.499,83.991,-1.064,5.883,290.765,79.079,80835.868,35.905,106.183
宁夏,石嘴山市,29.636,54.905,16.497,18.019,0.791,98.063,-0.387,2.954,295.626,54.072,86395.827,39.013,106.499
宁夏,银川市,25.928,47.837,9.117,15.018,0.532,95.024,-1.094,2.57,295.861,58.027,86660.137,38.287,106.342
安徽,亳州市,32.002,58.041,8.669,13.812,0.618,109.95,-4.618,-3.444,298.734,70.886,100469.6,33.44,116.162
安徽,六安市,28.046,46.547,7.708,16.05,0.534,85.824,-3.485,-4.563,297.781,80.711,97927.678,31.617,116.209
安徽,合肥市,20.323,34.767,5.578,12.912,0.482,78.792,-3.51,-6.082,299.911,76.181,100133.685,31.766,117.359
安徽,安庆市,23.705,35.458,7.692,10.539,0.533,76.657,-4.901,-7.662,299.196,77.646,98175.347,30.557,116.473
安徽,宣城市,19.854,30.557,5.924,12.631,0.605,49.634,-2.753,-5.482,299.149,87.392,98041.922,30.676,118.846
安徽,宿州市,29.267,48.969,7.517,14.349,0.547,108.45,-4.768,-3.805,298.081,77.283,100441.288,33.844,117.23
安徽,池州市,24.708,38.906,10.636,15.236,0.719,59.702,-4.176,-6.938,299.193,82.656,98278.619,30.296,117.379
安徽,淮北市,32.796,55.529,9.825,16.402,0.622,114.113,-4.842,-3.472,298.295,74.722,100487.599,33.722,116.747
安徽,淮南市,26.194,47.862,8.887,17.423,0.504,93.76,-4.061,-5.308,299.223,76.143,100403.437,32.463,116.746
安徽,滁州市,18.433,29.5,4.906,8.865,0.335,84.932,-4.179,-6.449,299.44,79.588,100082.143,32.55,118.076
安徽,芜湖市,23.05,38.429,8.619,18.371,0.758,60.754,-3.176,-6.949,300.33,79.184,100179.755,31.167,118.162
安徽,蚌埠市,26.596,42.293,6.149,12.299,0.449,95.316,-4.339,-4.971,298.521,78.429,100439.995,33.121,117.263
安徽,铜陵市,24.196,39.144,9.254,17.809,0.705,63.558,-3.478,-7.161,300.281,77.639,100050.309,30.883,117.531
安徽,阜阳市,28.573,62.255,8.681,14.312,0.625,105.23,-4.493,-3.836,299.179,68.525,100411.107,32.937,115.723
安徽,马鞍山市,20.451,34.366,6.862,15.494,0.599,67.878,-3.258,-7.163,300.218,79.207,100209.732,31.622,118.386
安徽,黄山市,18.227,30.546,8.61,8.894,0.621,49.651,-4.126,-6.11,298.612,84.598,96096.576,29.869,118.09
山东,东营市,26.381,58.366,12.114,20.223,0.592,119.854,-1.761,3.697,298.105,61.304,100940.022,37.57,118.572
山东,临沂市,18.602,42.872,7.452,14.988,0.411,106.89,-4.502,-2.129,296.612,75.87,99166.891,35.289,118.27
山东,威海市,14.201,27.81,5.97,12.653,0.381,100.787,-3.241,-0.701,296.891,70.958,100409.016,37.148,122.028
山东,德州市,42.033,82.238,11.145,25.782,0.88,147.372,-1.078,3.937,299.208,61.471,100735.843,37.233,116.679
山东,日照市,15.38,32.18,5.347,10.313,0.302,100.797,-4.64,-2.173,296.691,76.859,99298.679,35.566,119.108
山东,枣庄市,21.848,54.204,9.934,16.879,0.512,125.32,-5.108,-1.772,297.643,71.676,99827.764,34.925,117.383
山东,泰安市,30.037,65.429,9.886,19.931,0.744,133.435,-3.817,0.799,297.159,66.704,99085.564,35.993,117.04
山东,济南市,34.161,72.375,11.499,27.489,0.834,135.44,-2.608,2.647,298.133,59.88,99058.902,36.639,117.254
山东,济宁市,29.05,61.894,9.884,18.096,0.714,134.99,-3.955,0.083,298.007,68.309,100273.586,35.375,116.697
山东,淄博市,24.607,55.859,11.107,25.236,0.771,111.95,-2.682,2.651,297.158,61.644,98501.615,36.623,118.062
山东,滨州市,30.433,64.538,13.027,29.686,0.877,125.871,-1.562,3.781,298.833,58.396,100851.903,37.516,117.852
山东,潍坊市,20.587,46.856,8.105,17.805,0.446,101.674,-2.382,1.72,296.762,70.636,99903.473,36.53,119.092
山东,烟台市,17.032,35.835,6.038,14.012,0.391,104.713,-2.358,1.213,296.743,71.428,99918.653,37.25,120.789
山东,聊城市,44.045,84.182,10.274,21.732,0.93,139.841,-1.783,3.637,298.755,67.281,100522.736,36.458,115.863
山东,菏泽市,42.252,78.199,9.84,19.954,0.875,134.244,-3.561,0.39,298.363,69.821,100395.783,35.134,115.69
山东,青岛市,15.976,36.74,5.511,15.539,0.391,96.653,-3.609,-0.434,296.99,74.836,100439.321,36.46,120.172
山西,临汾市,46.514,72.473,11.711,15.019,1.029,146.313,-0.364,2.867,296.113,57.05,89736.397,36.227,111.398
山西,吕梁市,52.975,72.221,14.053,16.702,0.984,102.69,0.76,3.584,295.311,57.294,87449.659,37.663,111.27
山西,大同市,38.503,61.494,13.65,12.343,0.759,106.29,2.149,2.408,294.233,63.264,87039.052,39.911,113.713
山西,太原市,53.344,88.177,11.717,23.051,1.033,106.588,1.174,2.501,294.792,62.731,87372.085,37.967,112.321
山西,忻州市,43.94,66.71,12.975,10.522,0.746,104.389,1.148,2.552,293.985,61.678,85949.017,38.877,112.391
山西,晋中市,63.096,94.042,10.224,20.629,1.105,130.905,0.951,2.294,294.831,66.093,88270.468,37.328,112.997
山西,晋城市,50.632,86.548,9.222,21.814,0.81,162.764,-0.979,2.461,295.638,64.588,90133.963,35.625,112.752
山西,朔州市,33.755,56.294,13.403,13.67,0.784,95.011,2.235,2.892,294.642,57.414,86388.41,39.619,112.655
山西,运城市,40.145,67.537,9.712,13.663,0.813,162.702,-3.384,2.219,299.236,48.29,93665.367,35.205,111.071
山西,长治市,50.861,80.013,9.318,16.016,0.881,148.383,0.265,2.166,295.217,63.216,88542.921,36.48,112.915
山西,阳泉市,66.767,104.245,13.103,22.073,1.251,129.376,2.108,2.052,296.195,64.448,90045.533,38.031,113.512
广东,东莞市,28.084,45.753,6.8,23.071,0.864,101.184,1.259,-2.537,301.56,66.747,99671.62,22.931,113.81
广东,中山市,34.212,51.466,9.173,23.079,0.836,112.837,1.751,-1.511,301.242,73.369,99698.954,22.5,113.383
广东,云浮市,37.262,52.875,11.071,14.772,0.771,81.456,0.379,-4.252,300.448,68.322,97820.739,22.776,111.818
广东,佛山市,34.109,51.33,10.523,25.339,0.821,96.111,0.662,-4.208,301.659,65.135,99742.057,23.035,112.979
广东,广州市,27.554,43.219,8.252,19.357,0.768,96.378,0.699,-4.255,300.71,68.673,98853.514,23.339,113.525
广东,惠州市,25.79,39.386,8.621,9.447,0.729,105.251,1.3,-2.736,299.838,73.24,97887.814,23.244,114.485
广东,揭阳市,25.103,35.312,9.949,10.086,0.971,101.539,1.264,-0.265,300.167,76.168,98408.426,23.323,116.123
广东,梅州市,21.723,32.235,10.54,10.1,0.883,81.531,0.09,-0.806,299.003,81.3,96433.989,24.169,116.07
广东,汕头市,25.951,36.014,11.127,13.701,0.993,98.408,0.512,-0.206,300.422,79.305,99487.187,23.339,116.614
广东,汕尾市,24.856,37.645,9.383,6.463,0.748,112.145,2.155,-0.675,299.979,75.215,98175.276,23.024,115.527
广东,江门市,36.481,50.86,10.332,15.031,0.707,106.953,1.323,-2.292,301.228,73.554,99179.891,22.289,112.676
广东,河源市,21.743,33.2,10.729,8.14,0.695,94.517,0.61,-3.521,298.836,79.731,96657.494,24.021,114.969
广东,深圳市,30.792,50.102,7.759,22.716,0.872,105.429,2.37,-1.178,300.781,72.584,99210.863,22.667,114.143
广东,清远市,29.018,43.206,12.562,12.118,0.739,89.274,0.354,-5.837,298.338,74.719,96307.923,24.295,112.871
广东,湛江市,25.146,39.435,10.48,9.205,0.77,93.381,1.514,-1.962,302.198,75.01,99666.982,21.091,110.163
广东,潮州市,23.799,33.394,10.452,12.609,0.986,87.412,-0.255,-0.467,299.552,81.501,97852.648,23.755,116.754
广东,珠海市,37.485,54.25,12.027,16.218,0.712,136.05,1.8,-0.518,301.048,79.475,99790.943,22.095,113.317
广东,肇庆市,34.943,50.166,11.529,14.071,0.722,82.757,-0.29,-5.249,300.28,66.854,97908.647,23.505,112.199
广东,茂名市,33.819,48.844,11.779,10.587,0.807,89.625,-0.278,-3.541,301.064,71.644,97911.965,22.013,110.952
广东,阳江市,34.881,48.775,9.964,10.529,0.702,90.655,1.049,-3.234,301.089,72.175,98391.736,22.042,111.786
广东,韶关市,23.135,32.145,9.885,8.634,0.936,94.225,0.333,-5.553,298.024,79.635,95499.987,24.785,113.819
广西,北海市,27.121,43.513,11.889,10.988,0.974,89.224,0.479,-4.576,302.864,65.267,99726.939,21.674,109.37
广西,南宁市,36.982,55.235,10.579,13.664,0.86,89.169,-1.394,-5.666,301.662,59.594,98038.744,23.051,108.469
广西,崇左市,31.649,51.325,11.21,7.639,0.714,85.303,-0.504,-4.566,300.691,65.527,96845.023,22.483,107.291
广西,来宾市,39.867,54.808,11.48,7.093,0.718,104.78,-2.134,-6.346,300.211,64.146,96897.762,23.859,109.417
广西,柳州市,38.145,50.691,12.48,5.405,0.637,104.205,-1.842,-6.432,299.152,66.457,96377.664,24.956,109.372
广西,桂林市,40.851,53.37,13.988,7.896,0.688,110.247,-2.251,-6.048,297.304,73.07,94779.598,25.353,110.513
广西,梧州市,40.852,57.793,13.063,12.53,0.834,80.598,-1.121,-5.991,300.191,66.668,97603.629,23.484,110.996
广西,河池市,32.108,46.042,11.539,4.122,0.549,82.998,-2.181,-5.593,298.486,63.569,94183.926,24.628,107.843
广西,玉林市,36.117,54.145,12.788,11.464,0.976,94.121,-1.253,-4.868,301.192,66.185,98010.955,22.452,110.164
广西,百色市,32.649,47.091,11.961,4.966,0.596,83.811,-1.485,-3.947,297.597,66.471,92221.11,23.981,106.292
广西,贵港市,42.05,59.459,11.886,9.717,0.844,99.222,-2.021,-5.13,301.501,61.578,98445.173,23.322,110.021
广西,贺州市,40.229,54.433,14.471,10.022,0.822,86.246,-1.177,-6.825,298.162,72.422,95866.215,24.364,111.394
广西,钦州市,34.022,52.04,11.172,13.069,1.005,90.056,-0.344,-5.046,302.216,62.698,99070.964,22.173,109.01
广西,防城港市,36.436,54.109,11.691,8.997,0.817,91.046,0.934,-5.058,301.256,65.584,97594.731,21.88,108.002
新疆,乌鲁木齐市,26.912,38.028,2.254,12.232,0.256,68.215,-0.481,1.005,292.681,35.961,83780.429,43.746,87.818
新疆,五家渠市,32.947,51.713,3.843,22.64,0.347,63.38,-3.207,0.4,299.85,27.997,95433.11,44.363,87.517
新疆,伊犁哈萨克自治州,14.646,18.603,2.127,3.243,0.23,71.9,0.527,1.223,288.364,45.067,80017.73,43.438,82.146
新疆,克孜勒苏柯尔克孜自治州,14.689,20.294,0.426,0.786,0.156,76.926,-0.15,-1.372,281.215,64.676,70336.004,39.661,75.949
新疆,克拉玛依市,15.15,23.966,2.939,6.538,0.386,78.307,-2.584,-1.021,300.744,26.518,96258.975,45.457,85.207
新疆,北屯市,9.364,11.396,1.754,2.818,0.18,68.79,-1.528,1.792,298.53,26.212,94587.866,47.27,87.868
新疆,博尔塔拉蒙古自治州,16.845,21.147,2.75,2.814,0.191,74.799,0.275,0.669,291.254,41.626,85631.082,44.714,82.114
新疆,双河市,21.17,27.874,3.902,3.892,0.186,74.288,0.028,-2.212,299.502,28.744,96706.204,44.87,82.474
新疆,可克达拉市,16.46,29.016,4.95,8.654,0.414,72.016,-0.076,-0.162,297.294,33.206,93805.954,43.918,80.786
新疆,和田地区,80.352,91.915,0.379,0.635,0.125,60.662,-1.467,0.122,288.314,45.126,73586.579,37.059,80.934
新疆,哈密市,16.266,18.736,0.857,4.637,0.166,70.906,-4.029,0.396,297.747,20.39,87605.173,43.042,93.517
新疆,喀什地区,62.945,68.222,0.725,1.419,0.151,60.901,0.247,0.651,287.889,50.305,75696.417,38.125,77.178
新疆,图木舒克市,69.868,70.472,1.292,1.255,0.142,52.322,-2.692,-0.95,297.295,34.723,88395.717,39.892,79.182
新疆,塔城地区,16.489,19.886,2.584,3.208,0.235,76.254,-1.441,1.243,294.834,34.742,88884.412,45.642,84.789
新疆,巴音郭楞蒙古自治州,32.66,33.679,0.721,0.588,0.121,69.385,-3.638,-0.46,291.666,38.65,78618.12,39.463,87.481
新疆,新星市,17.76,27.355,1.385,15.945,0.315,60.825,-6.79,0.575,302.455,14.625,91705.13,42.75,93.68
新疆,昆玉市,137.477,248.58,2.083,3.35,0.157,53.747,-4.72,2.227,297.923,32.62,86080.063,37.457,79.093
新疆,昌吉回族自治州,18.517,22.139,1.402,5.406,0.18,71.539,-2.655,0.745,296.18,30.385,89164.53,44.342,88.608
新疆,石河子市,26.925,36.345,5.29,15.375,0.31,75.92,-2.725,1.74,299.3,27.27,93651.945,44.245,86.035
新疆,胡杨河市,20.012,30.45,4.622,8.544,0.56,89.584,-3.194,0.486,300.802,29.758,96669.518,44.852,84.772
新疆,铁门关市,28.097,56.08,5.053,7.423,0.257,78.423,-5.01,-1.177,301.207,19.617,90683.437,41.773,85.66
新疆,阿克苏地区,40.75,43.493,1.141,1.19,0.169,64.015,-1.217,-1.21,294.209,36.716,84609.761,40.965,81.578
新疆,阿勒泰地区,9.056,9.729,1.224,1.447,0.151,70.096,-2.096,0.696,294.571,28.581,87951.804,46.902,88.421
新疆,阿拉尔市,32.471,38.615,1.309,1.919,0.215,65.244,-1.382,-3.12,297.697,30.406,89209.248,40.629,80.998
江苏,南京市,18.498,30.87,6.292,14.921,0.514,66.74,-3.674,-6.861,300.401,80.092,100260.395,31.899,118.876
江苏,南通市,8.706,18.261,3.106,8.172,0.241,51.314,-7.333,-3.235,300.711,86.562,100386.206,32.201,120.979
江苏,宿迁市,21.583,32.702,5.21,10.027,0.379,92.234,-4.912,-5.451,298.538,81.219,100642.468,33.765,118.495
江苏,常州市,16.78,27.666,5.911,19.189,0.584,47.824,-4.079,-5.617,300.864,83.1,100236.365,31.613,119.666
江苏,徐州市,24.783,48.861,8.261,15.322,0.532,114.073,-4.827,-3.133,297.847,76.636,100483.11,34.363,117.513
江苏,扬州市,14.803,24.203,4.484,8.544,0.342,69.836,-5.334,-6.323,300.472,79.553,100487.77,32.709,119.486
江苏,无锡市,16.165,27.836,6.798,22.792,0.634,37.145,-4.403,-4.674,300.841,84.16,100128.16,31.546,120.066
江苏,泰州市,12.394,20.89,4.026,9.163,0.333,61.073,-5.961,-5.364,300.6,81.859,100421.206,32.605,120.048
江苏,淮安市,18.501,28.045,4.812,7.797,0.324,84.838,-4.866,-6.134,299.377,81.462,100565.176,33.362,118.985
江苏,盐城市,11.08,18.874,2.755,3.525,0.208,79.844,-6.575,-5.049,299.92,83.12,100612.667,33.529,120.156
江苏,苏州市,15.297,26.314,5.565,24.157,0.552,32.427,-4.901,-3.422,300.988,85.236,100249.668,31.374,120.661
江苏,连云港市,13.428,22.066,3.677,5.387,0.246,98.506,-5.948,-4.478,298.531,79.007,100611.861,34.519,119.133
江苏,镇江市,16.381,27.194,5.733,15.556,0.49,58.631,-4.592,-6.201,300.749,80.812,100270.31,32.016,119.49
江西,上饶市,17.379,29.437,9.309,8.333,0.625,51.879,-5.557,-5.51,300.945,75.099,97926.665,28.778,117.47
江西,九江市,23.291,33.049,7.287,8.335,0.581,77.62,-5.074,-7.003,299.756,76.71,98035.535,29.313,115.444
江西,南昌市,23.005,36.499,7.4,10.589,0.913,74.752,-4.547,-7.857,301.992,70.888,99705.307,28.671,116.016
江西,吉安市,24.773,36.1,9.296,8.292,0.826,77.525,-2.94,-6.957,299.734,78.864,97436.018,26.954,114.831
江西,宜春市,23.155,34.206,6.993,9.042,0.716,73.957,-4.746,-7.018,300.298,74.421,97885.683,28.29,114.974
江西,抚州市,19.045,29.177,8.358,7.452,0.621,60.803,-4.3,-5.708,300.406,78.33,97416.877,27.514,116.42
江西,新余市,25.103,38.836,8.343,11.093,0.782,73.265,-4.281,-7.273,300.784,73.667,98730.822,27.847,114.836
江西,景德镇市,17.36,29.215,8.713,7.248,0.659,51.655,-4.93,-6.118,301.402,72.569,98775.315,29.287,117.24
江西,萍乡市,22.777,35.216,7.465,8.965,0.608,71.197,-4.354,-5.824,299.101,77.991,96594.692,27.505,113.908
江西,赣州市,20.62,28.323,8.671,6.568,1.096,76.029,-1.22,-5.619,298.574,84.271,95752.555,25.692,115.279
江西,鹰潭市,19.339,32.169,11.385,9.407,0.71,51.608,-5.69,-5.023,301.138,75.989,98369.233,28.222,117.094
河北,保定市,55.53,85.454,11.253,17.289,0.762,156.304,0.309,2.32,298.608,67.828,97120.087,39.018,115.159
河北,唐山市,36.634,71.316,18.167,34.035,0.98,140.003,0.125,3.668,298.242,68.948,100295.083,39.731,118.354
河北,廊坊市,41.765,75.616,10.744,26.492,0.952,132.805,0.416,4.176,300.447,59.223,100731.9,39.267,116.632
河北,张家口市,29.948,46.813,7.538,9.052,0.431,106.848,1.973,1.37,293.342,65.406,87476.744,40.877,115.042
河北,承德市,37.846,63.67,6.926,13.737,0.577,104.785,1.476,2.016,292.517,78.918,90710.003,41.339,117.578
河北,沧州市,39.54,69.587,13.439,24.851,0.825,140.136,-0.62,4.841,300.13,58.385,100799.242,38.258,116.744
河北,石家庄市,57.623,96.496,14.608,19.254,1.001,145.393,-0.453,2.216,299.886,61.674,97606.495,38.135,114.407
河北,秦皇岛市,34.69,64.857,17.369,29.981,0.983,123.996,1.927,3.108,296.353,74.106,98148.155,40.12,119.193
河北,衡水市,41.703,73.206,12.012,18.834,0.794,147.823,-0.832,5.006,300.211,61.395,100642.146,37.755,115.813
河北,邢台市,48.903,91.099,14.619,23.717,0.977,136.029,-0.696,4.206,300.22,61.576,99192.882,37.195,114.815
河北,邯郸市,48.245,90.862,14.017,25.14,0.998,130.698,-1.118,3.582,299.582,63.767,98761.735,36.538,114.596
河南,三门峡市,41.322,61.651,10.498,9.216,0.606,144.681,-2.265,3.145,297.106,54.091,91389.235,34.362,111.101
河南,信阳市,29.894,51.115,8.589,13.435,0.501,105.137,-4.732,-4.361,299.373,66.957,99422.916,32.091,114.907
河南,南阳市,40.533,62.512,9.126,12.251,0.717,152.772,-3.84,-1.982,299.281,59.783,97538.46,33.034,112.323
河南,周口市,46.2,86.713,10.721,20.744,0.851,123.938,-4.327,-2.083,299.142,66.647,100271.602,33.738,114.884
河南,商丘市,41.8,75.892,9.994,19.647,0.791,125.056,-4.357,-1.568,298.58,69.6,100379.247,34.277,115.718
河南,安阳市,45.119,85.605,11.861,24.086,0.934,136.565,-1.476,2.723,299.555,62.444,98386.311,35.888,114.318
河南,平顶山市,49.714,86.393,12.516,29.23,0.949,145.919,-2.829,-0.813,299.166,63.92,98187.43,33.8,113.025
河南,开封市,49.897,95.759,10.727,28.754,0.935,129.809,-3.259,0.026,299.01,68.101,100061.975,34.594,114.514
河南,新乡市,46.945,90.109,11.843,30.957,0.922,137.61,-1.783,1.352,299.532,64.802,99173.632,35.256,114.111
河南,洛阳市,46.467,72.193,11.45,15.89,0.734,160.539,-2.074,1.486,297.444,59.734,93718.872,34.274,112.019
河南,济源市,49.45,87.791,10.853,27.007,0.856,158.125,-1.83,0.876,299.185,55.993,95503.948,35.105,112.445
河南,漯河市,52.396,94.389,14.582,27.336,0.914,130.732,-3.692,-1.75,299.388,66.598,100120.58,33.652,113.945
河南,濮阳市,44.718,84.632,10.957,20.796,0.998,135.772,-2.891,2.496,298.937,67.588,100378.388,35.809,115.283
河南,焦作市,46.042,91.203,9.165,35.007,0.892,143.817,-1.643,0.551,300.78,57.006,98960.287,35.121,113.163
河南,许昌市,51.865,99.826,12.2,36.999,1.021,126.57,-3.183,-1.004,299.345,66.228,99489.574,34.075,113.707
河南,郑州市,47.484,95.97,8.99,42.724,0.993,134.094,-2.206,0.785,299.51,63.522,98239.292,34.634,113.438
河南,驻马店市,40.138,71.024,10.114,16.513,0.696,130.847,-4.376,-3.077,299.552,63.238,99777.77,32.925,114.174
河南,鹤壁市,44.531,84.5,12.066,26.277,0.94,132.792,-1.358,2.709,299.949,63.586,99509.119,35.716,114.319
浙江,丽水市,16.012,24.555,5.819,12.665,0.416,36.69,-5.019,-2.998,297.193,89.25,93389.207,28.194,119.51
浙江,台州市,8.519,16.905,4.23,8.987,0.322,33.837,-3.989,-2.162,299.439,89.37,97515.588,28.742,121.109
浙江,嘉兴市,15.071,24.551,4.394,22.599,0.544,29.405,-3.542,-2.969,301.015,85.687,100199.383,30.635,120.754
浙江,宁波市,7.746,17.709,3.669,10.001,0.303,35.376,-3.923,-0.785,300.345,89.516,98986.619,29.706,121.49
浙江,杭州市,18.111,28.738,6.118,14.528,0.626,38.652,-3.599,-5.121,299.544,85.417,97420.755,29.891,119.464
浙江,温州市,9.736,17.095,5.086,11.759,0.385,35.004,-4.212,-3.633,298.563,90.585,96312.241,27.897,120.411
浙江,湖州市,16.593,26.887,5.036,20.048,0.578,35.584,-2.628,-4.667,300.154,86.29,99027.004,30.757,119.871
浙江,绍兴市,15.756,24.444,4.631,15.567,0.561,30.074,-2.845,-2.903,299.936,86.888,98181.784,29.709,120.64
浙江,舟山市,1.812,14.258,0.792,1.375,0.1,44.595,-7.325,2.125,300.975,89.735,99980.332,30.038,122.23
浙江,衢州市,16.114,27.131,8.659,12.623,0.524,43.412,-5.91,-4.73,299.742,80.865,96602.265,28.912,118.675
浙江,金华市,17.689,27.662,5.856,16.122,0.556,31.884,-3.957,-3.471,299.392,85.283,96869.746,29.109,119.967
海南,万宁市,13.977,21.37,5.639,4.564,0.274,59.292,3.578,0.186,299.89,81.559,98747.138,18.842,110.294
海南,三亚市,9.949,16.729,3.916,6.489,0.39,48.047,5.804,-0.656,298.583,90.901,97634.793,18.413,109.407
海南,东方市,17.357,24.555,6.115,3.296,0.258,68.625,2.392,0.426,299.286,88.93,98259.882,18.971,108.838
海南,临高县,12.409,25.156,8.394,4.649,0.45,71.986,5.056,-0.516,300.104,88.334,99323.893,19.821,109.733
海南,乐东黎族自治县,13.432,20.128,4.578,3.383,0.269,58.082,4.131,-0.949,298.454,89.118,96774.508,18.659,109.072
海南,五指山市,16.894,24.786,5.534,3.624,0.272,60.334,4.352,-1.288,296.402,91.346,93621.674,18.81,109.518
海南,儋州市,15.324,26.704,7.986,4.612,0.37,72.317,4.391,0.197,299.706,88.324,99018.346,19.568,109.399
海南,定安县,9.322,18.43,7.21,7.925,0.418,58.622,4.482,-1.372,300.155,84.853,99015.35,19.47,110.28
海南,屯昌县,11.788,20.568,7.344,5.394,0.372,61.736,4.604,-1.386,299.722,84.078,98266.064,19.342,110.076
海南,文昌市,15.394,28.521,8.784,8.164,0.453,65.303,4.23,-0.697,300.582,86.106,99737.651,19.707,110.773
海南,昌江黎族自治县,19.331,28.707,7.458,4.223,0.293,72.58,2.756,0.613,298.403,90.601,97253.0,19.233,109.016
海南,海口市,10.973,23.226,8.554,10.283,0.512,60.884,4.652,-0.941,300.527,87.061,99558.573,19.842,110.393
海南,澄迈县,9.476,19.461,7.661,6.821,0.447,62.37,4.929,-1.11,300.12,86.357,99146.209,19.676,109.989
海南,琼中黎族苗族自治县,15.273,23.874,6.631,3.668,0.31,63.334,4.954,-1.509,298.712,82.88,96153.583,19.087,109.847
海南,琼海市,11.913,20.863,7.108,5.947,0.348,59.828,3.73,-0.657,300.333,82.993,99546.467,19.22,110.43
海南,白沙黎族自治县,15.985,24.946,6.998,3.876,0.299,66.842,4.761,-0.072,297.965,86.77,95906.365,19.2,109.388
海南,陵水黎族自治县,13.274,20.084,4.743,5.33,0.289,55.544,4.186,-0.394,299.649,81.963,98112.519,18.581,109.913
湖北,仙桃市,30.258,42.483,6.906,9.369,0.599,107.184,-3.866,-5.958,301.407,62.431,100193.465,30.284,113.417
湖北,十堰市,35.725,50.834,9.538,6.121,0.61,114.09,-3.182,-0.013,296.311,60.116,92864.951,32.462,110.476
湖北,咸宁市,30.627,39.004,5.968,10.306,0.682,92.787,-4.049,-5.154,300.107,71.682,98316.154,29.621,114.178
湖北,天门市,30.111,44.341,7.29,8.379,0.555,109.312,-4.296,-5.743,301.611,57.807,100195.961,30.633,113.053
湖北,孝感市,29.56,40.259,6.617,8.935,0.479,104.43,-4.641,-5.918,300.867,60.954,99652.942,31.116,113.869
湖北,宜昌市,32.119,49.052,8.222,10.074,0.687,111.416,-2.792,-4.368,296.746,65.107,93531.792,30.746,111.129
湖北,恩施土家族苗族自治州,30.59,42.079,9.753,6.174,0.676,95.198,-3.918,-1.818,294.364,64.017,89151.884,30.195,109.552
湖北,武汉市,28.666,39.262,5.989,14.779,0.652,95.825,-3.724,-5.97,301.434,64.02,100084.885,30.606,114.349
湖北,潜江市,30.776,48.29,7.83,10.036,0.691,112.48,-3.913,-5.751,301.548,58.351,100186.951,30.33,112.77
湖北,神农架林区,32.426,42.328,7.655,2.446,0.397,108.099,-3.861,-1.588,290.025,70.803,82871.705,31.592,110.49
湖北,荆州市,31.038,48.519,7.911,11.386,0.794,109.509,-3.104,-6.304,301.33,60.287,99945.209,30.01,112.512
湖北,荆门市,31.51,47.577,8.066,10.098,0.633,116.657,-3.397,-5.448,300.791,58.991,99282.624,31.059,112.616
湖北,襄阳市,37.277,57.404,8.278,10.604,0.712,129.432,-2.451,-3.11,298.704,60.687,96773.309,31.919,111.96
湖北,鄂州市,30.154,41.691,5.883,14.443,0.719,94.081,-2.949,-4.757,301.816,64.579,100081.904,30.337,114.794
湖北,随州市,32.183,45.839,7.579,9.425,0.505,119.782,-4.914,-4.469,300.033,60.318,98661.653,31.809,113.43
湖北,黄冈市,23.35,32.627,6.287,9.38,0.467,86.458,-5.258,-5.243,300.387,68.727,98439.651,30.702,115.358
湖北,黄石市,27.392,37.67,6.291,11.981,0.69,86.177,-4.037,-3.921,300.792,70.151,99112.846,29.925,115.034
湖南,娄底市,30.651,45.801,7.719,8.951,1.012,111.763,-1.199,-7.128,297.333,73.272,96223.577,27.715,111.632
湖南,岳阳市,30.536,41.215,6.837,8.592,0.739,96.113,-3.672,-6.431,300.597,68.817,98961.015,29.081,113.275
湖南,常德市,30.476,47.38,10.115,11.232,0.837,109.022,-2.692,-6.566,299.921,61.579,98320.915,29.271,111.524
湖南,张家界市,29.791,44.34,10.272,9.049,0.748,104.86,-4.005,-4.866,297.637,63.121,94600.946,29.379,110.526
湖南,怀化市,32.735,52.115,11.585,7.067,0.985,105.713,-2.832,-5.212,297.424,69.324,95435.317,27.535,110.071
湖南,株洲市,23.475,33.767,8.049,8.662,0.608,78.623,-2.204,-5.859,298.955,78.398,96713.522,27.109,113.513
湖南,永州市,40.687,57.027,12.258,10.668,0.797,98.876,-0.692,-6.325,296.702,78.429,95448.235,25.748,111.723
湖南,湘潭市,27.777,42.77,6.709,16.04,0.966,98.354,-0.718,-7.593,299.676,71.111,99001.665,27.744,112.619
湖南,湘西土家族苗族自治州,31.207,47.442,8.861,7.648,0.85,92.143,-3.055,-3.949,297.45,63.284,94532.168,28.708,109.718
湖南,益阳市,31.382,47.738,7.661,9.001,0.963,108.441,-1.609,-6.452,298.58,70.915,97778.471,28.525,111.919
湖南,衡阳市,26.551,40.779,8.311,12.818,0.883,93.977,0.037,-6.832,299.173,73.812,98477.328,26.781,112.565
湖南,邵阳市,38.302,54.221,11.05,9.21,0.907,107.788,-1.648,-5.774,295.981,76.429,94089.391,26.893,110.881
湖南,郴州市,23.926,36.27,8.69,9.546,0.975,89.44,0.293,-6.252,296.713,83.247,94543.847,25.769,113.109
湖南,长沙市,25.895,36.683,5.838,9.875,0.743,90.384,-2.381,-6.852,299.988,71.572,98431.065,28.235,113.159
甘肃,临夏回族自治州,38.104,52.632,11.145,8.413,0.651,70.554,-1.311,1.222,289.814,73.062,77290.752,35.617,103.291
甘肃,兰州市,30.117,49.033,12.836,13.682,0.644,75.944,-1.605,0.913,291.026,67.914,78882.077,36.359,103.633
甘肃,嘉峪关市,14.875,47.33,12.733,33.24,0.605,98.285,-7.19,1.49,292.003,42.93,81316.342,39.798,98.145
甘肃,天水市,34.487,48.237,10.276,5.731,0.408,79.25,-2.061,5.76,291.83,75.866,82477.323,34.645,105.739
甘肃,定西市,37.198,54.151,11.839,5.214,0.447,79.669,-2.231,5.129,288.918,82.053,77145.65,35.124,104.432
甘肃,平凉市,32.384,48.756,9.224,8.656,0.489,83.778,-0.802,4.983,293.419,69.559,84269.617,35.304,106.644
甘肃,庆阳市,32.684,50.157,11.688,7.443,0.534,92.78,-1.434,4.145,294.442,64.388,85532.572,36.149,107.596
甘肃,张掖市,22.999,30.866,4.918,3.808,0.232,86.258,-3.743,1.103,288.262,58.685,74524.272,38.94,99.855
甘肃,武威市,26.373,36.795,9.988,3.429,0.296,93.373,-3.119,1.899,293.221,53.074,81068.203,38.163,103.073
甘肃,甘南藏族自治州,41.661,48.655,11.532,2.012,0.354,81.499,-1.493,3.057,283.441,88.332,67801.687,34.331,102.768
甘肃,白银市,29.166,46.512,14.463,6.725,0.582,81.946,-2.253,4.711,292.235,69.893,81211.098,36.59,104.646
甘肃,酒泉市,21.909,23.894,1.861,1.949,0.141,77.244,-6.371,-0.417,291.583,38.561,78768.095,40.236,96.062
甘肃,金昌市,19.06,36.179,10.359,6.09,0.288,94.05,-3.956,2.328,292.597,52.04,80308.971,38.44,102.048
甘肃,陇南市,38.055,52.07,13.477,4.602,0.475,85.728,-2.282,4.956,290.88,82.262,82037.061,33.599,105.224
福建,三明市,11.387,19.197,7.031,7.03,0.51,46.94,-4.18,-2.445,297.911,86.086,93805.963,26.29,117.395
福建,南平市,10.988,18.702,5.876,6.475,0.381,46.381,-4.605,-3.03,299.138,78.728,94599.997,27.324,118.143
福建,厦门市,18.565,29.252,5.537,15.197,0.61,72.807,-2.985,-0.412,299.68,85.98,98730.463,24.642,118.11
福建,宁德市,8.776,14.559,3.822,6.505,0.287,44.978,-5.139,-4.186,297.541,89.962,93959.078,26.968,119.474
福建,泉州市,18.036,27.443,6.175,9.097,0.529,68.227,-3.106,-0.547,297.841,90.1,95139.783,25.201,118.249
福建,漳州市,21.143,30.558,7.408,9.617,0.658,73.451,-2.373,-0.332,298.594,87.7,96642.357,24.372,117.444
福建,福州市,12.346,19.854,5.375,9.163,0.385,57.699,-3.873,-3.258,298.489,91.375,95895.902,26.083,119.206
福建,莆田市,16.952,26.651,7.321,9.676,0.498,74.996,-2.424,-1.271,298.779,90.041,96606.346,25.445,118.864
福建,龙岩市,16.561,25.493,8.129,7.785,0.594,58.437,-2.708,-1.354,297.819,85.661,93737.902,25.256,116.739
西藏,山南市,24.138,25.632,1.807,1.534,0.174,85.768,0.738,2.641,283.773,85.085,66130.074,28.295,92.274
西藏,拉萨市,16.851,19.492,1.792,2.016,0.162,106.948,2.831,4.836,280.027,77.388,56785.678,30.043,91.093
西藏,日喀则市,21.902,23.345,2.219,0.656,0.184,123.003,4.001,2.944,278.526,79.122,55548.223,29.483,86.493
西藏,昌都市,16.792,18.021,1.302,0.786,0.149,87.711,1.812,4.764,280.506,78.079,59301.804,30.753,97.044
西藏,林芝市,20.413,21.302,1.477,1.686,0.154,74.468,-0.366,2.287,283.024,90.797,66418.169,29.184,95.25
西藏,玉树藏族自治州,13.438,14.104,0.766,0.6,0.13,79.864,0.065,3.205,278.972,79.543,57481.371,34.196,94.317
西藏,那曲市,10.899,11.787,0.681,0.315,0.144,88.549,2.65,1.675,279.831,72.448,55616.627,32.709,89.262
西藏,阿里地区,9.444,9.808,0.716,0.412,0.153,88.941,4.606,-0.344,279.308,55.44,55019.974,33.013,82.553
贵州,六盘水市,31.029,51.118,8.879,9.872,0.551,93.376,-2.54,-1.296,291.38,75.942,82823.1,26.106,104.896
贵州,安顺市,28.675,47.097,7.121,7.846,0.434,105.753,-3.316,-3.59,294.182,65.917,87707.873,25.986,105.978
贵州,毕节市,32.734,52.308,7.847,9.509,0.521,99.492,-2.565,0.117,291.644,73.085,83184.447,27.063,105.211
贵州,贵阳市,28.633,47.65,6.073,13.401,0.481,110.357,-3.187,-2.464,293.356,70.556,87781.687,26.845,106.71
贵州,遵义市,31.874,43.392,9.765,8.96,0.422,99.789,-3.596,-0.71,295.118,66.188,89910.59,28.167,107.102
贵州,铜仁市,30.25,50.022,11.356,5.453,0.538,95.187,-3.121,-3.55,296.104,65.235,92149.291,27.937,108.534
贵州,黔东南苗族侗族自治州,33.052,49.037,14.118,5.06,0.553,102.591,-2.575,-5.398,295.58,72.021,91973.762,26.495,108.574
贵州,黔南布依族苗族自治州,31.564,44.615,10.732,5.237,0.423,105.529,-2.951,-4.815,294.993,67.163,89795.689,26.0,107.265
贵州,黔西南布依族苗族自治州,28.436,45.393,10.914,5.905,0.48,95.173,-2.396,-2.991,294.949,68.058,88057.242,25.256,105.467
辽宁,丹东市,30.248,47.351,10.982,11.13,0.836,82.087,1.769,1.528,293.426,84.624,98184.765,40.554,124.376
辽宁,大连市,26.397,42.454,8.399,12.146,0.559,113.093,2.51,2.657,296.643,75.374,100282.905,39.591,122.22
辽宁,抚顺市,22.937,38.813,9.373,15.852,0.711,60.66,2.432,1.445,292.242,81.643,96486.772,41.841,124.65
辽宁,朝阳市,26.536,45.17,14.761,16.468,0.618,80.889,1.116,0.57,294.678,72.159,95921.911,41.545,120.053
辽宁,本溪市,36.597,59.501,12.641,16.462,1.127,69.618,2.633,1.911,292.385,87.399,95882.976,41.232,124.544
辽宁,沈阳市,14.597,31.533,7.0,21.097,0.446,56.949,0.349,0.194,294.837,71.284,100415.938,42.081,123.159
辽宁,盘锦市,31.147,55.251,13.297,20.117,0.881,99.505,1.749,2.368,295.985,79.27,100987.105,41.13,122.01
辽宁,营口市,29.142,47.953,9.908,11.142,0.666,126.312,3.587,3.068,296.145,75.875,98932.183,40.395,122.478
辽宁,葫芦岛市,37.771,58.149,16.127,25.907,0.925,97.02,3.254,3.246,296.703,70.428,98547.468,40.66,120.215
辽宁,辽阳市,37.832,66.758,14.265,24.782,1.25,85.796,2.539,2.636,295.261,80.733,99119.383,41.153,123.261
辽宁,铁岭市,9.823,18.193,4.306,10.634,0.304,56.033,2.531,0.807,292.937,73.856,98937.705,42.653,124.158
辽宁,锦州市,23.003,41.074,11.507,19.68,0.617,72.47,-0.432,0.809,295.542,73.682,100192.449,41.502,121.659
辽宁,阜新市,9.47,16.653,4.539,11.07,0.28,63.079,-0.518,-0.963,294.679,66.191,98815.54,42.289,121.968
辽宁,鞍山市,32.123,54.293,11.485,15.145,0.886,106.121,2.744,2.337,295.725,76.582,99188.362,40.731,123.007
重庆,重庆城区,36.944,51.869,12.04,18.181,0.541,100.841,-2.936,1.151,299.629,51.466,94248.733,29.824,107.125
重庆,重庆郊县,30.86,40.996,10.947,6.785,0.467,93.659,-3.613,-1.085,296.323,55.266,90630.554,30.334,108.755
陕西,咸阳市,38.923,67.331,8.099,17.952,0.869,109.511,-2.353,2.116,298.307,48.301,90955.406,34.779,108.367
陕西,商洛市,39.707,57.485,10.199,6.742,0.573,109.439,-1.906,2.116,294.492,60.697,89060.523,33.64,109.889
陕西,安康市,33.297,46.237,10.343,4.971,0.532,100.188,-3.971,0.888,294.805,57.039,89537.846,32.735,108.932
陕西,宝鸡市,35.078,51.949,6.845,10.641,0.585,83.591,-1.52,3.304,294.197,62.663,86070.497,34.386,107.193
陕西,延安市,38.391,59.603,13.947,13.351,0.839,92.323,-1.233,4.11,295.188,59.698,87285.018,36.432,109.316
陕西,榆林市,37.441,56.18,14.807,14.644,0.778,96.794,0.196,4.61,296.369,54.871,87601.901,38.041,109.581
陕西,汉中市,30.632,44.658,10.422,6.088,0.498,90.573,-3.965,1.047,295.217,58.461,88601.581,33.088,107.098
陕西,渭南市,38.907,66.736,9.056,17.466,0.798,125.529,-2.45,0.918,300.048,44.1,93217.392,34.919,109.855
陕西,西安市,36.287,58.077,8.377,12.849,0.707,105.783,-1.556,4.001,297.675,46.86,90064.184,34.12,108.77
陕西,铜川市,42.536,69.596,10.537,16.621,0.907,112.864,-2.004,3.119,296.734,51.111,88812.999,35.198,109.058
青海,保亭黎族苗族自治县,13.324,20.298,4.934,5.924,0.334,54.816,6.23,-1.636,298.492,84.412,96039.232,18.566,109.618
青海,吐鲁番市,19.771,22.478,1.307,1.718,0.162,71.033,-2.255,-1.933,298.931,21.885,89423.359,42.386,89.851
青海,果洛藏族自治州,24.381,25.576,3.867,0.835,0.171,81.387,-1.218,4.567,280.296,82.08,60256.916,34.127,99.404
青海,海东市,38.629,44.432,11.284,5.209,0.352,89.083,-2.897,0.786,286.443,75.498,72775.235,36.347,102.34
青海,海北藏族自治州,30.437,33.53,6.092,1.849,0.214,86.334,-3.055,2.751,280.97,83.713,65574.462,37.775,100.288
青海,海南藏族自治州,30.878,33.026,6.174,1.278,0.215,80.549,-3.982,2.388,283.497,76.317,66599.701,35.89,100.272
青海,海西蒙古族藏族自治州,19.316,19.854,1.468,0.463,0.134,77.019,-0.649,0.204,283.023,61.484,64529.29,36.677,94.519
青海,西宁市,35.531,44.85,10.301,8.702,0.474,86.868,-3.143,1.575,283.862,83.725,69688.125,36.842,101.423
青海,黄南藏族自治州,38.857,41.544,8.915,1.134,0.267,81.452,-2.56,3.369,282.448,85.166,66005.28,35.022,101.631
香港,香港特别行政区,33.975,50.945,8.46,23.085,0.735,113.26,2.6,-0.665,300.69,76.49,99394.98,22.45,114.22
黑龙江,七台河市,10.465,18.587,4.483,6.369,0.26,38.995,-1.082,-1.886,288.591,94.497,97580.987,45.87,130.943
黑龙江,伊春市,11.57,15.225,2.089,2.468,0.184,53.747,-2.971,-1.893,288.481,88.202,96336.917,47.772,129.184
黑龙江,佳木斯市,8.057,11.085,2.198,3.693,0.208,54.406,-2.561,-2.56,289.501,88.587,99603.802,47.207,132.11
黑龙江,双鸭山市,7.815,11.072,2.648,3.158,0.184,49.043,-2.586,-1.797,288.539,90.079,99153.401,46.722,132.643
黑龙江,哈尔滨市,15.247,21.171,4.648,7.002,0.281,43.547,-0.189,-0.682,289.882,92.877,97898.409,45.634,127.964
黑龙江,大兴安岭地区,9.269,9.815,0.949,1.62,0.185,63.596,1.459,1.23,292.023,65.828,94682.423,52.286,124.212
黑龙江,大庆市,10.465,15.388,3.219,3.571,0.278,53.168,0.389,-4.453,291.098,84.274,99279.287,46.327,124.687
黑龙江,牡丹江市,16.166,22.955,5.981,6.511,0.281,46.432,3.459,1.169,289.661,89.873,94887.53,44.592,129.883
黑龙江,绥化市,10.841,13.378,1.94,2.911,0.212,53.844,-2.406,-3.403,290.332,85.057,98479.551,46.89,126.634
黑龙江,鸡西市,11.544,17.56,4.397,4.965,0.226,41.093,-0.634,-1.567,289.12,93.217,98801.184,45.626,132.289
黑龙江,鹤岗市,8.945,12.773,2.085,3.116,0.232,57.945,-2.558,-3.165,289.488,85.899,98694.955,47.661,130.778
黑龙江,黑河市,12.013,15.645,1.511,2.011,0.203,54.124,-0.582,-1.502,290.556,83.961,96787.58,49.268,127.004
黑龙江,齐齐哈尔市,11.448,14.035,2.126,3.535,0.202,56.574,-1.455,-3.828,290.758,83.866,98600.013,47.715,124.57
