province,city,PM2.5,PM10,SO2,NO2,CO,O3,U,V,TEMP,RH,PSFC,lat,lon
上海,上海市,5.078,20.31,3.636,9.684,0.25,25.97,-8.902,2.609,301.61,84.095,100358.021,31.173,121.42
云南,临沧市,10.8,15.195,2.696,3.622,0.407,43.657,0.657,0.395,293.619,85.581,83278.303,23.935,99.686
云南,丽江市,27.021,42.585,11.37,4.625,0.74,72.95,-1.266,1.714,289.345,82.937,74355.515,26.96,100.515
云南,保山市,8.276,16.454,3.15,4.045,0.316,41.965,0.317,0.403,292.645,84.694,81311.801,24.953,98.962
云南,大理白族自治州,14.642,26.229,5.142,5.391,0.418,58.039,-0.81,0.904,291.035,84.076,77682.197,25.726,100.053
云南,德宏傣族景颇族自治州,11.053,15.477,3.641,3.84,0.27,38.278,0.033,0.481,294.151,89.68,85384.145,24.535,98.052
云南,怒江傈僳族自治州,9.783,16.761,2.109,2.097,0.234,47.505,-0.464,1.276,287.284,91.365,72511.254,26.916,98.885
云南,文山壮族苗族自治州,38.023,54.11,9.687,5.984,0.436,77.7,-0.409,-1.805,296.026,72.827,85778.919,23.696,104.735
云南,昆明市,41.093,61.009,9.824,15.789,0.558,85.145,-2.559,1.353,291.781,77.452,78792.539,25.384,102.863
云南,昭通市,37.585,64.196,8.27,7.315,0.571,89.238,-1.244,0.158,294.057,80.944,83529.243,27.667,103.985
云南,普洱市,11.602,15.304,2.624,3.551,0.376,46.046,0.193,0.827,294.541,85.737,85272.662,23.159,100.718
云南,曲靖市,40.244,63.654,9.466,10.928,0.579,88.664,-2.145,0.082,291.927,78.425,79567.045,25.737,103.929
云南,楚雄彝族自治州,34.972,48.598,8.447,9.093,0.546,79.021,-1.185,1.385,293.296,76.948,80462.022,25.328,101.567
云南,玉溪市,31.092,41.723,6.223,6.898,0.367,79.701,-1.528,1.101,294.275,77.77,82861.265,24.136,102.217
云南,红河哈尼族彝族自治州,28.225,38.835,7.786,4.744,0.331,79.677,-1.024,0.189,294.881,78.159,84474.979,23.451,103.034
云南,西双版纳傣族自治州,6.78,9.727,2.205,3.336,0.345,35.463,1.753,1.472,295.321,89.358,88182.633,21.939,100.912
云南,迪庆藏族自治州,13.126,23.044,4.03,3.078,0.319,57.532,-0.223,2.524,284.373,90.471,67179.226,27.957,99.459
内蒙古,乌兰察布市,21.32,35.534,7.718,6.193,0.382,72.694,-3.11,-0.74,294.579,57.261,85860.49,41.691,112.44
内蒙古,乌海市,33.389,62.981,25.17,23.918,0.776,93.458,-5.212,2.312,300.229,45.184,87179.686,39.396,106.856
内蒙古,兴安盟,25.004,33.188,7.524,4.368,0.255,56.249,-1.105,-2.408,291.651,90.217,94421.634,46.244,121.341
内蒙古,包头市,21.983,34.066,6.26,8.19,0.354,79.569,-3.768,-0.23,296.376,46.066,85771.451,41.549,110.276
内蒙古,呼伦贝尔市,17.332,20.065,4.431,2.023,0.206,63.496,-1.214,0.18,291.274,78.114,93352.661,49.636,121.171
内蒙古,呼和浩特市,23.107,47.828,9.601,16.535,0.723,83.434,-4.018,-0.295,295.961,59.082,86089.705,40.578,111.513
内蒙古,巴彦淖尔市,29.217,41.923,10.83,6.871,0.31,92.201,-3.841,0.796,299.304,36.778,86973.198,41.446,107.582
内蒙古,赤峰市,28.077,35.117,7.361,3.771,0.284,63.196,0.63,-1.619,294.607,73.028,91601.009,43.226,118.892
内蒙古,通辽市,31.031,42.165,8.511,4.047,0.339,65.29,0.801,-1.823,295.948,83.505,97235.964,43.814,121.591
内蒙古,鄂尔多斯市,35.898,62.796,14.924,11.726,0.649,95.53,-4.109,0.854,298.379,52.561,86626.714,39.407,108.63
内蒙古,锡林郭勒盟,18.171,19.926,3.394,1.405,0.165,59.573,0.155,-1.762,293.283,65.213,88902.69,44.179,115.482
内蒙古,阿拉善盟,39.672,52.305,8.935,3.333,0.23,90.856,-2.493,-0.407,299.417,38.644,87005.287,40.473,102.467
北京,北京市,28.83,43.879,5.616,12.685,0.64,63.982,-2.431,-2.679,297.773,86.462,97063.068,40.158,116.395
台湾,台湾省,15.472,19.16,6.431,18.168,0.163,52.91,0.073,1.051,297.342,85.329,91780.968,23.757,120.975
吉林,吉林市,14.701,22.136,6.3,8.867,0.388,65.523,1.47,3.42,296.013,90.362,96523.73,43.573,126.859
吉林,四平市,19.631,28.215,5.952,10.88,0.54,57.863,3.225,3.007,297.431,89.21,98617.862,43.472,124.386
吉林,延边朝鲜族自治州,17.488,25.467,5.743,5.553,0.275,57.567,-0.275,1.686,293.414,95.196,93844.633,43.141,129.147
吉林,松原市,23.176,34.017,5.804,4.699,0.383,67.324,-1.99,-2.133,296.377,85.777,98982.579,44.785,124.496
吉林,白城市,22.043,34.828,7.928,5.216,0.303,58.41,-1.291,-3.75,295.765,83.714,99171.245,45.35,123.031
吉林,白山市,14.356,19.806,6.575,7.191,0.36,43.958,3.131,3.269,294.397,91.793,92059.14,42.063,127.256
吉林,辽源市,11.782,17.46,5.058,9.996,0.425,47.432,4.273,4.982,296.323,91.015,96905.563,42.836,125.32
吉林,通化市,12.033,18.133,5.99,6.986,0.425,43.737,2.186,3.548,295.85,90.023,95295.215,41.939,125.927
吉林,长春市,17.465,28.171,4.28,7.689,0.455,70.956,-0.305,-0.014,296.368,89.982,98525.194,44.268,125.611
四川,乐山市,41.673,60.009,10.467,10.697,0.597,77.048,0.318,0.72,297.022,77.001,88740.075,29.218,103.569
四川,内江市,27.759,51.484,8.415,16.556,0.684,94.631,0.512,-1.508,302.105,69.029,95446.5,29.62,104.95
四川,凉山彝族自治州,41.74,58.56,12.596,5.116,0.749,77.13,-1.188,1.26,288.469,85.841,73948.83,27.883,102.065
四川,南充市,31.026,54.491,8.37,18.416,0.636,82.665,0.6,-1.875,302.741,60.124,95439.738,31.19,106.199
四川,宜宾市,41.074,62.16,7.098,11.645,0.662,96.07,0.457,-0.143,300.766,70.456,93903.246,28.573,104.621
四川,巴中市,34.19,50.767,9.405,8.982,0.467,78.661,-1.839,-1.184,300.742,59.893,91425.533,32.033,107.031
四川,广元市,28.468,47.857,11.856,8.551,0.448,77.635,0.017,-0.823,299.685,62.137,90607.681,32.261,105.788
四川,广安市,34.264,60.151,7.938,23.058,0.699,85.138,0.729,-2.357,303.515,58.703,95443.452,30.43,106.628
四川,德阳市,34.78,65.886,10.535,21.318,0.63,100.967,0.367,-0.025,300.215,63.086,92096.006,31.13,104.436
四川,成都市,29.203,54.95,10.817,18.608,0.573,90.192,0.345,0.14,300.178,65.591,92233.617,30.64,103.929
四川,攀枝花市,39.728,57.671,22.721,13.538,1.295,82.833,-1.614,0.202,294.491,69.574,80988.15,26.791,101.734
四川,泸州市,40.679,60.602,5.577,10.946,0.561,101.775,0.111,-0.82,300.128,71.767,92364.353,28.424,105.675
四川,甘孜藏族自治州,29.837,35.136,5.397,1.701,0.209,72.573,-1.439,1.704,280.72,84.563,61394.556,30.936,100.009
四川,眉山市,26.712,48.776,10.523,14.12,0.62,73.854,0.528,0.58,299.751,72.799,92673.487,29.912,103.766
四川,绵阳市,38.802,60.159,9.733,10.899,0.486,91.818,0.197,-0.362,296.975,66.554,87188.321,31.86,104.704
四川,自贡市,38.018,56.514,8.104,17.093,0.755,93.297,0.191,-1.185,301.936,69.694,95426.909,29.307,104.659
四川,资阳市,26.441,55.124,8.082,15.574,0.615,90.159,0.804,-1.401,302.261,68.346,95674.954,30.102,105.149
四川,达州市,39.792,58.513,11.418,18.47,0.528,87.165,-1.065,-1.661,301.966,56.604,92906.249,31.335,107.636
四川,遂宁市,31.594,59.507,8.197,19.095,0.638,87.397,0.934,-1.711,302.722,63.84,95887.013,30.642,105.457
四川,阿坝藏族羌族自治州,33.565,47.379,9.689,1.77,0.295,66.544,-1.008,1.581,282.588,87.223,65680.313,32.406,102.61
四川,雅安市,36.373,54.44,12.525,4.5,0.413,78.391,-0.518,-0.514,291.213,83.387,79649.936,29.932,102.689
天津,天津市,13.109,22.795,6.615,21.144,0.881,27.98,-4.628,-1.544,299.751,90.583,100467.377,39.315,117.308
宁夏,中卫市,23.165,47.384,10.806,6.132,0.537,90.337,-2.225,2.852,297.221,57.115,83157.529,37.018,105.509
宁夏,吴忠市,29.131,54.633,12.38,5.186,0.389,100.032,-3.137,2.464,297.571,59.232,84684.586,37.454,106.577
宁夏,固原市,25.614,49.132,9.638,10.482,0.48,81.705,-1.867,3.013,293.677,72.119,80738.252,35.905,106.183
宁夏,石嘴山市,29.832,59.187,12.579,15.367,0.677,99.796,-3.604,1.268,298.958,51.148,86304.749,39.013,106.499
宁夏,银川市,25.701,54.431,8.579,11.939,0.483,101.71,-3.521,0.394,299.157,53.051,86545.517,38.287,106.342
安徽,亳州市,17.169,33.338,10.169,11.84,0.514,72.093,-5.061,4.879,302.671,74.438,99663.009,33.44,116.162
安徽,六安市,18.79,36.73,6.982,11.367,0.468,82.673,-2.561,2.315,301.829,74.171,97402.522,31.617,116.209
安徽,合肥市,17.061,34.575,6.448,18.984,0.545,72.788,-5.932,3.851,303.092,69.19,99700.878,31.766,117.359
安徽,安庆市,19.955,37.574,6.865,11.737,0.524,78.526,-3.176,0.584,302.032,73.847,97806.548,30.557,116.473
安徽,宣城市,12.42,23.352,5.079,9.918,0.386,58.993,-6.937,3.111,301.463,74.706,97870.112,30.676,118.846
安徽,宿州市,15.911,29.873,9.983,15.573,0.504,75.304,-6.158,5.558,302.763,73.314,99797.697,33.844,117.23
安徽,池州市,14.526,26.886,5.379,9.749,0.418,57.97,-4.751,1.899,302.377,69.199,97969.775,30.296,117.379
安徽,淮北市,18.72,33.533,11.653,15.881,0.521,76.448,-6.24,5.231,302.748,73.407,99777.07,33.722,116.747
安徽,淮南市,18.687,37.861,8.877,17.492,0.543,82.294,-4.694,5.373,303.099,71.43,99812.645,32.463,116.746
安徽,滁州市,15.514,29.853,7.502,15.514,0.445,72.798,-6.789,5.501,302.565,73.295,99687.778,32.55,118.076
安徽,芜湖市,15.726,29.913,6.109,14.216,0.49,64.055,-6.727,2.543,302.95,69.814,99894.073,31.167,118.162
安徽,蚌埠市,18.286,31.779,9.915,17.664,0.475,78.645,-6.151,5.82,302.978,70.881,99853.747,33.121,117.263
安徽,铜陵市,16.266,33.286,7.685,18.698,0.521,64.146,-5.045,1.722,303.23,68.231,99695.761,30.883,117.531
安徽,阜阳市,16.392,35.174,9.896,11.0,0.499,68.979,-1.089,3.251,302.524,75.802,99619.151,32.937,115.723
安徽,马鞍山市,15.062,30.255,6.726,14.667,0.526,68.026,-7.428,3.614,302.618,73.255,99943.644,31.622,118.386
安徽,黄山市,12.201,24.045,5.05,8.671,0.402,44.865,-6.668,1.532,300.527,74.664,95919.66,29.869,118.09
山东,东营市,7.455,18.649,6.817,9.334,0.336,36.766,-4.994,3.723,301.893,80.197,100422.151,37.57,118.572
山东,临沂市,10.79,24.319,8.397,12.288,0.357,53.771,-6.033,4.904,300.945,81.97,98610.465,35.289,118.27
山东,威海市,4.482,15.186,3.412,2.789,0.128,30.39,-4.43,6.212,300.911,85.73,100116.785,37.148,122.028
山东,德州市,11.481,20.083,5.599,17.663,0.597,37.754,-5.746,-2.349,299.794,90.257,100184.893,37.233,116.679
山东,日照市,6.258,18.546,4.97,5.444,0.183,39.093,-6.495,5.543,300.377,87.628,98812.349,35.566,119.108
山东,枣庄市,13.695,28.802,10.036,14.844,0.443,66.366,-6.655,5.454,302.104,75.734,99172.833,34.925,117.383
山东,泰安市,13.415,23.393,6.211,13.422,0.5,57.796,-6.797,4.189,301.218,79.111,98405.256,35.993,117.04
山东,济南市,10.707,19.311,5.84,15.493,0.625,49.038,-5.621,1.43,300.649,82.068,98461.76,36.639,117.254
山东,济宁市,15.128,29.003,7.708,13.682,0.501,63.445,-6.443,5.38,302.141,76.58,99518.4,35.375,116.697
山东,淄博市,9.166,17.394,5.305,11.212,0.605,47.271,-5.753,3.703,300.684,81.59,97944.968,36.623,118.062
山东,滨州市,9.104,17.871,5.294,14.006,0.536,39.294,-4.423,0.393,301.27,82.427,100325.398,37.516,117.852
山东,潍坊市,7.175,20.561,5.328,6.548,0.305,35.956,-5.844,5.412,301.109,82.995,99384.387,36.53,119.092
山东,烟台市,4.837,19.173,3.146,3.5,0.179,27.22,-4.913,6.078,300.856,83.429,99543.916,37.25,120.789
山东,聊城市,14.452,25.782,7.636,20.517,0.718,46.568,-6.812,-2.516,300.117,88.223,99818.648,36.458,115.863
山东,菏泽市,16.04,31.558,7.303,12.277,0.673,66.666,-3.502,1.836,301.531,81.733,99544.001,35.134,115.69
山东,青岛市,6.6,26.123,4.059,4.588,0.212,28.899,-6.056,6.345,301.099,85.507,100008.633,36.46,120.172
山西,临汾市,50.603,72.242,12.664,14.984,1.033,115.767,-2.935,-3.345,297.613,69.055,89380.949,36.227,111.398
山西,吕梁市,46.094,67.177,11.514,23.138,0.977,81.751,-4.061,-0.877,296.216,71.663,87213.794,37.663,111.27
山西,大同市,37.7,63.042,11.725,10.554,0.695,92.09,-3.377,-1.447,294.836,74.467,86982.189,39.911,113.713
山西,太原市,42.566,62.071,8.542,22.399,0.865,87.034,-3.374,-2.332,294.587,82.381,87174.375,37.967,112.321
山西,忻州市,41.326,62.546,12.886,12.252,0.762,93.328,-3.503,-0.433,294.466,76.056,85804.112,38.877,112.391
山西,晋中市,42.422,58.346,7.183,15.713,0.711,100.929,-3.961,-4.897,294.601,85.666,87977.399,37.328,112.997
山西,晋城市,36.122,56.315,10.122,12.161,0.95,111.286,-2.322,-5.63,297.721,71.819,89651.592,35.625,112.752
山西,朔州市,36.994,65.482,13.168,13.955,0.917,86.934,-3.294,-0.713,294.82,72.411,86318.331,39.619,112.655
山西,运城市,46.747,73.407,14.065,17.584,1.262,126.915,-2.224,-3.032,301.131,58.685,93237.284,35.205,111.071
山西,长治市,35.75,53.089,8.206,11.571,0.819,105.279,-3.441,-5.109,295.601,80.087,88169.246,36.48,112.915
山西,阳泉市,45.256,63.86,8.662,18.433,0.711,96.675,-3.413,-3.568,294.154,95.853,89846.89,38.031,113.512
广东,东莞市,14.481,23.574,6.042,18.713,0.594,54.168,-5.858,-5.817,302.892,70.337,99146.142,22.931,113.81
广东,中山市,15.232,26.397,6.063,23.472,0.617,55.55,-4.141,-7.728,302.769,71.903,99115.812,22.5,113.383
广东,云浮市,32.057,46.93,9.01,15.455,0.664,69.707,0.248,-5.474,302.42,68.593,97366.943,22.776,111.818
广东,佛山市,21.235,36.416,7.205,29.924,0.733,54.023,-2.847,-6.007,303.768,65.616,99235.794,23.035,112.979
广东,广州市,16.508,25.699,5.513,17.931,0.545,57.582,-5.083,-5.314,303.024,66.787,98382.509,23.339,113.525
广东,惠州市,12.847,19.64,4.223,9.492,0.445,57.167,-7.143,-4.121,301.403,75.833,97448.716,23.244,114.485
广东,揭阳市,12.122,22.214,6.252,10.052,0.84,67.5,-7.36,-0.775,300.833,84.816,98139.379,23.323,116.123
广东,梅州市,13.395,21.699,5.072,10.096,0.689,58.522,-6.66,-0.535,300.472,77.62,96251.138,24.169,116.07
广东,汕头市,6.563,14.229,4.167,7.027,0.5,66.688,-7.533,0.364,301.317,86.716,99251.293,23.339,116.614
广东,汕尾市,10.873,18.647,3.755,6.881,0.533,62.763,-8.184,-2.006,300.771,84.537,97802.042,23.024,115.527
广东,江门市,22.626,34.293,7.519,24.216,0.62,62.311,-0.345,-7.888,302.85,70.476,98631.916,22.289,112.676
广东,河源市,15.866,24.626,5.158,11.262,0.547,57.994,-6.387,-2.884,300.692,75.687,96375.491,24.021,114.969
广东,深圳市,11.952,21.187,6.087,15.776,0.503,56.143,-7.793,-5.843,302.07,77.148,98637.798,22.667,114.143
广东,清远市,28.127,39.88,7.219,9.775,0.583,72.983,-3.584,-5.676,301.692,67.665,95930.93,24.295,112.871
广东,湛江市,16.353,30.971,8.657,6.905,0.562,89.065,7.223,-0.822,302.969,76.017,99334.218,21.091,110.163
广东,潮州市,8.681,15.971,3.785,7.648,0.58,58.711,-7.628,-0.545,300.554,84.041,97685.116,23.755,116.754
广东,珠海市,15.062,24.293,8.495,18.945,0.463,61.87,-3.068,-9.623,302.468,75.872,99133.085,22.095,113.317
广东,肇庆市,28.792,42.542,7.554,12.982,0.58,69.448,-2.402,-5.548,302.985,64.7,97463.572,23.505,112.199
广东,茂名市,34.12,49.314,12.35,10.787,0.732,80.298,2.859,-4.75,302.407,69.192,97507.71,22.013,110.952
广东,阳江市,35.602,46.442,9.152,11.108,0.567,78.837,2.172,-6.321,302.804,68.334,97915.931,22.042,111.786
广东,韶关市,26.979,36.845,6.368,8.986,0.814,75.314,-4.662,-4.142,300.981,69.828,95212.584,24.785,113.819
广西,北海市,18.789,38.898,11.756,11.188,0.81,83.705,4.567,-2.346,303.994,66.43,99385.383,21.674,109.37
广西,南宁市,32.557,53.467,9.413,13.012,0.709,72.223,0.329,-5.469,303.966,60.161,97667.265,23.051,108.469
广西,崇左市,26.452,48.753,9.302,7.16,0.582,73.667,1.609,-3.419,302.894,63.86,96518.304,22.483,107.291
广西,来宾市,39.029,57.298,10.613,9.938,0.699,73.978,-1.182,-6.626,302.733,63.509,96516.263,23.859,109.417
广西,柳州市,37.203,52.079,9.96,7.268,0.55,73.975,-1.259,-6.852,302.102,63.663,95992.675,24.956,109.372
广西,桂林市,35.601,48.485,11.482,6.873,0.505,79.085,-2.804,-6.377,300.774,69.045,94404.245,25.353,110.513
广西,梧州市,37.591,57.231,12.798,11.338,0.781,66.665,-0.613,-5.775,302.658,65.978,97181.225,23.484,110.996
广西,河池市,37.35,56.6,10.456,4.755,0.528,65.873,-1.391,-5.337,301.138,66.488,93851.136,24.628,107.843
广西,玉林市,34.202,54.888,14.472,13.735,0.98,76.096,1.988,-4.977,302.907,66.023,97619.99,22.452,110.164
广西,百色市,33.71,54.387,10.818,5.126,0.596,68.358,-0.044,-3.127,300.212,66.539,91929.019,23.981,106.292
广西,贵港市,38.574,58.832,12.636,12.2,0.873,74.211,-0.332,-5.57,303.666,62.193,98034.736,23.322,110.021
广西,贺州市,34.693,53.108,12.715,8.07,0.674,69.764,-2.464,-6.552,301.605,67.663,95467.288,24.364,111.394
广西,钦州市,25.245,46.585,10.517,13.867,0.856,73.714,2.57,-4.303,304.144,61.927,98707.082,22.173,109.01
广西,防城港市,29.886,49.08,9.242,8.254,0.717,73.277,3.95,-3.037,303.272,63.972,97270.952,21.88,108.002
新疆,乌鲁木齐市,13.392,17.534,2.59,8.349,0.198,73.435,2.827,-3.712,288.027,46.576,84387.216,43.746,87.818
新疆,五家渠市,16.61,20.453,3.45,13.023,0.21,60.977,2.717,-1.73,295.877,36.55,96369.227,44.363,87.517
新疆,伊犁哈萨克自治州,8.424,9.569,1.885,2.7,0.182,76.571,0.421,0.309,286.913,49.148,80583.855,43.438,82.146
新疆,克孜勒苏柯尔克孜自治州,14.912,27.821,0.62,1.608,0.164,91.125,-2.862,2.255,285.537,39.269,70819.311,39.661,75.949
新疆,克拉玛依市,7.106,11.46,2.871,3.881,0.313,65.949,-1.171,-2.145,294.709,33.597,97219.841,45.457,85.207
新疆,北屯市,3.946,4.246,7.428,2.328,0.426,61.772,3.854,-4.896,289.802,46.964,95448.502,47.27,87.868
新疆,博尔塔拉蒙古自治州,13.713,14.469,1.724,1.933,0.166,69.8,-0.119,0.022,288.53,45.267,86321.398,44.714,82.114
新疆,双河市,9.428,10.116,1.814,1.956,0.166,64.99,-1.592,-3.512,295.72,32.886,97630.9,44.87,82.474
新疆,可克达拉市,14.888,18.312,4.116,7.234,0.324,73.514,-1.398,0.822,296.464,35.842,94448.872,43.918,80.786
新疆,和田地区,26.87,28.834,0.4,0.535,0.119,73.906,-2.952,0.004,287.345,55.149,74020.566,37.059,80.934
新疆,哈密市,12.688,12.974,1.35,1.363,0.198,72.168,2.753,-3.665,292.125,45.928,88136.779,43.042,93.517
新疆,喀什地区,23.719,31.094,0.753,1.763,0.156,77.175,-4.34,0.652,289.977,40.34,76100.293,38.125,77.178
新疆,图木舒克市,19.557,20.802,1.222,0.962,0.132,73.145,-5.16,-0.637,300.228,23.053,88841.337,39.892,79.182
新疆,塔城地区,6.53,7.617,1.974,1.741,0.193,69.332,0.293,-1.791,288.766,45.951,89626.079,45.642,84.789
新疆,巴音郭楞蒙古自治州,23.584,24.447,0.828,0.41,0.119,70.495,-1.997,-1.126,288.673,58.319,79168.212,39.463,87.481
新疆,新星市,12.51,13.56,1.385,6.055,0.455,62.91,-2.62,2.925,297.355,41.14,92315.35,42.75,93.68
新疆,昆玉市,30.03,47.167,1.567,2.95,0.13,90.07,-4.46,2.237,299.56,27.307,86546.113,37.457,79.093
新疆,昌吉回族自治州,11.879,13.25,2.256,3.673,0.164,68.482,2.706,-1.919,290.959,45.457,89892.772,44.342,88.608
新疆,石河子市,13.65,19.44,7.555,13.26,0.24,69.385,1.83,-1.38,294.21,38.81,94580.12,44.245,86.035
新疆,胡杨河市,13.062,16.782,2.536,3.63,0.316,68.552,-2.492,-1.254,296.258,32.098,97658.724,44.852,84.772
新疆,铁门关市,15.38,33.307,2.8,3.207,0.17,86.253,-1.453,-2.163,299.503,19.937,91265.137,41.773,85.66
新疆,阿克苏地区,22.63,29.11,1.091,1.562,0.161,79.39,-1.126,-1.026,295.368,32.258,85115.871,40.965,81.578
新疆,阿勒泰地区,3.79,4.021,3.45,1.133,0.227,65.494,2.532,-2.872,285.788,56.213,88524.634,46.902,88.421
新疆,阿拉尔市,27.087,38.562,1.357,2.791,0.195,74.813,-3.74,-0.36,299.978,27.047,89699.714,40.629,80.998
江苏,南京市,12.617,26.498,6.553,12.833,0.449,62.309,-7.399,4.27,302.515,75.219,100047.003,31.899,118.876
江苏,南通市,6.345,18.309,4.297,6.67,0.229,30.639,-7.956,3.833,301.865,80.726,100391.52,32.201,120.979
江苏,宿迁市,13.526,29.601,9.178,13.344,0.431,65.037,-6.744,6.246,302.814,74.574,100168.149,33.765,118.495
江苏,常州市,10.345,25.318,6.128,13.278,0.442,50.811,-8.051,4.046,302.402,77.091,100155.851,31.613,119.666
江苏,徐州市,13.872,29.074,9.733,14.669,0.501,69.107,-6.154,5.646,302.703,74.168,99844.938,34.363,117.513
江苏,扬州市,13.502,29.481,7.231,13.831,0.479,51.524,-7.385,5.299,302.69,74.713,100278.062,32.709,119.486
江苏,无锡市,9.976,27.05,6.878,14.688,0.454,40.868,-8.283,3.81,302.126,78.961,100099.074,31.546,120.066
江苏,泰州市,11.693,25.781,6.58,12.186,0.428,39.389,-7.693,4.763,302.359,76.76,100295.42,32.605,120.048
江苏,淮安市,12.988,28.852,7.846,11.489,0.405,59.294,-6.971,5.901,302.746,74.45,100201.044,33.362,118.985
江苏,盐城市,6.092,18.321,4.092,5.172,0.209,35.301,-7.356,5.763,301.987,80.076,100388.348,33.529,120.156
江苏,苏州市,8.279,25.042,5.575,13.876,0.354,30.724,-8.508,3.252,301.94,80.781,100286.429,31.374,120.661
江苏,连云港市,9.412,23.077,6.394,8.373,0.258,44.07,-6.373,6.011,302.183,77.622,100157.262,34.519,119.133
江苏,镇江市,12.875,29.682,7.402,15.201,0.522,52.202,-7.758,4.645,302.456,76.956,100142.814,32.016,119.49
江西,上饶市,16.77,29.262,7.07,7.287,0.53,55.618,-5.457,-0.049,302.75,64.987,97742.152,28.778,117.47
江西,九江市,22.32,36.705,6.285,6.325,0.473,77.366,-2.76,-0.86,302.438,71.249,97698.009,29.313,115.444
江西,南昌市,19.497,33.923,8.11,9.404,0.617,70.474,-3.217,-1.071,304.166,63.065,99429.417,28.671,116.016
江西,吉安市,27.346,41.949,9.521,6.298,0.579,81.617,-3.503,-2.402,302.801,64.558,97199.52,26.954,114.831
江西,宜春市,24.827,40.779,9.113,7.807,0.511,79.302,-3.186,-2.129,302.705,68.656,97600.657,28.29,114.974
江西,抚州市,23.078,34.845,8.23,5.865,0.539,68.235,-4.124,-0.086,302.43,66.14,97257.854,27.514,116.42
江西,新余市,27.193,46.419,13.63,12.521,0.599,75.865,-3.001,-2.989,303.379,66.935,98444.329,27.847,114.836
江西,景德镇市,15.134,27.266,5.471,6.519,0.505,46.757,-5.478,-0.124,303.143,65.49,98554.207,29.287,117.24
江西,萍乡市,23.167,41.296,10.494,7.598,0.462,76.935,-3.99,-2.454,302.32,66.831,96298.305,27.505,113.908
江西,赣州市,27.039,39.362,8.517,8.219,0.96,73.369,-4.264,-1.935,300.97,71.334,95589.923,25.692,115.279
江西,鹰潭市,19.858,33.003,8.208,7.475,0.603,61.691,-4.421,-0.252,303.409,61.617,98181.538,28.222,117.094
河北,保定市,31.819,44.749,5.963,12.319,0.558,84.475,-3.806,-4.396,298.211,86.435,96921.287,39.018,115.159
河北,唐山市,16.616,28.825,12.096,23.464,0.846,24.629,-4.134,-1.604,298.948,93.132,100054.613,39.731,118.354
河北,廊坊市,18.482,24.703,4.129,19.554,0.842,36.165,-4.071,-2.562,299.79,90.16,100492.275,39.267,116.632
河北,张家口市,36.443,56.658,9.937,6.744,0.463,85.504,-2.008,-1.212,293.935,76.992,87504.866,40.877,115.042
河北,承德市,39.277,55.597,8.714,7.178,0.467,59.135,-0.874,-1.181,294.369,83.761,90695.847,41.339,117.578
河北,沧州市,13.309,20.898,5.385,14.957,0.431,39.104,-4.618,-1.27,300.002,88.316,100420.818,38.258,116.744
河北,石家庄市,32.412,47.242,6.712,13.984,0.617,90.52,-2.653,-4.546,298.356,88.215,97357.916,38.135,114.407
河北,秦皇岛市,18.742,30.432,9.912,16.082,0.383,37.082,-3.758,-1.947,297.397,94.48,97955.456,40.12,119.193
河北,衡水市,19.469,25.42,5.315,14.723,0.528,47.994,-5.24,-2.719,299.924,88.51,100219.446,37.755,115.813
河北,邢台市,24.04,36.674,6.339,15.056,0.656,73.081,-2.78,-6.087,299.249,88.248,98756.472,37.195,114.815
河北,邯郸市,25.064,40.344,7.993,17.046,0.827,74.283,-3.177,-7.556,299.256,87.295,98200.753,36.538,114.596
河南,三门峡市,41.101,63.618,10.662,14.677,0.833,107.125,-2.156,-2.675,299.783,60.87,90952.57,34.362,111.101
河南,信阳市,19.411,34.43,8.329,9.206,0.4,72.9,-0.011,-1.016,302.377,74.034,98785.165,32.091,114.907
河南,南阳市,27.032,44.127,7.422,9.806,0.566,101.769,-1.007,-3.16,303.074,59.375,96906.592,33.034,112.323
河南,周口市,19.435,37.267,8.577,11.892,0.636,73.84,-0.316,-3.95,302.18,76.142,99393.927,33.738,114.884
河南,商丘市,15.589,31.687,8.992,11.273,0.628,69.255,-3.592,1.085,301.92,78.737,99518.942,34.277,115.718
河南,安阳市,26.61,45.209,9.382,16.213,0.976,80.162,-1.295,-8.72,299.575,84.684,97754.581,35.888,114.318
河南,平顶山市,28.543,49.061,9.361,15.084,0.776,94.995,-1.206,-4.726,303.224,61.459,97501.089,33.8,113.025
河南,开封市,20.704,40.106,6.143,12.57,0.783,74.968,-0.783,-6.361,301.621,78.265,99259.081,34.594,114.514
河南,新乡市,25.838,44.221,8.304,15.56,0.913,83.771,-2.027,-8.454,301.361,75.621,98456.348,35.256,114.111
河南,洛阳市,36.015,59.05,10.957,15.859,0.82,105.173,-1.387,-2.743,300.633,62.968,93179.339,34.274,112.019
河南,济源市,33.253,56.475,11.055,15.908,1.031,111.51,-2.035,-3.863,302.358,57.926,94912.115,35.105,112.445
河南,漯河市,25.245,44.058,8.576,13.955,0.699,79.138,-0.863,-6.364,303.398,66.99,99342.909,33.652,113.945
河南,濮阳市,20.493,35.85,7.275,16.193,0.765,59.189,-4.103,-2.931,300.803,85.604,99569.904,35.809,115.283
河南,焦作市,28.17,48.616,8.028,17.104,0.919,97.719,-4.042,-2.6,303.644,59.291,98288.374,35.121,113.163
河南,许昌市,26.123,47.103,7.383,15.355,0.804,82.756,-1.679,-6.559,303.014,67.226,98743.159,34.075,113.707
河南,郑州市,27.779,50.889,6.813,17.421,0.911,89.155,-2.516,-5.487,302.104,68.341,97563.566,34.634,113.438
河南,驻马店市,21.454,37.03,8.56,10.658,0.519,80.015,0.049,-4.545,303.191,68.092,99036.299,32.925,114.174
河南,鹤壁市,27.367,45.921,10.317,17.507,1.033,77.842,-0.666,-9.688,300.344,82.53,98838.699,35.716,114.319
浙江,丽水市,11.249,19.349,4.363,7.59,0.331,44.436,-6.314,0.526,297.879,85.569,93359.381,28.194,119.51
浙江,台州市,4.455,13.543,2.736,4.834,0.227,29.708,-7.204,-0.423,299.65,90.861,97532.404,28.742,121.109
浙江,嘉兴市,4.831,17.793,2.561,7.709,0.228,32.176,-8.593,1.867,301.745,82.753,100243.596,30.635,120.754
浙江,宁波市,4.4,15.655,2.998,6.109,0.21,28.31,-8.533,0.987,300.753,87.119,99045.951,29.706,121.49
浙江,杭州市,12.047,23.643,5.564,11.622,0.459,45.555,-6.729,0.703,300.744,78.351,97356.196,29.891,119.464
浙江,温州市,7.475,15.743,4.191,7.955,0.354,32.087,-5.57,-1.782,298.766,93.029,96319.773,27.897,120.411
浙江,湖州市,9.105,20.46,4.622,10.548,0.371,45.859,-7.84,2.697,301.336,80.233,98980.331,30.757,119.871
浙江,绍兴市,6.568,15.31,3.574,7.95,0.351,32.664,-7.216,1.213,301.071,79.525,98184.603,29.709,120.64
浙江,舟山市,0.552,13.365,0.568,1.055,0.073,31.512,-10.36,0.825,301.385,86.68,100061.242,30.038,122.23
浙江,衢州市,12.546,22.594,5.662,10.214,0.378,49.519,-6.82,-0.17,301.335,69.918,96495.348,28.912,118.675
浙江,金华市,7.657,15.688,3.531,8.38,0.325,35.92,-6.79,0.898,300.467,79.133,96833.241,29.109,119.967
海南,万宁市,6.191,8.412,2.263,3.296,0.197,44.757,7.03,0.502,302.269,67.763,98512.091,18.842,110.294
海南,三亚市,4.6,11.344,1.867,4.719,0.336,41.254,8.581,-0.054,299.781,85.236,97488.569,18.413,109.407
海南,东方市,4.948,8.096,1.929,2.027,0.168,50.814,5.999,2.733,300.14,87.136,98095.37,18.971,108.838
海南,临高县,7.187,11.849,3.454,3.167,0.287,50.999,8.914,2.717,301.757,78.411,99060.731,19.821,109.733
海南,乐东黎族自治县,4.704,8.228,1.481,2.275,0.208,45.921,7.085,0.572,299.162,87.461,96636.164,18.659,109.072
海南,五指山市,5.962,8.204,1.65,2.256,0.184,43.316,7.316,0.916,297.09,91.226,93487.578,18.81,109.518
海南,儋州市,6.242,9.894,2.772,2.799,0.221,50.271,7.714,3.351,301.309,80.341,98784.743,19.568,109.399
海南,定安县,7.158,10.095,3.18,5.08,0.373,44.622,8.392,0.563,301.923,71.34,98744.618,19.47,110.28
海南,屯昌县,6.476,8.782,2.618,3.46,0.29,45.128,7.886,0.624,301.556,71.21,98015.546,19.342,110.076
海南,文昌市,10.026,14.418,4.646,6.064,0.369,48.961,8.99,0.473,302.368,71.415,99424.092,19.707,110.773
海南,昌江黎族自治县,5.868,8.987,2.489,2.593,0.176,50.114,5.94,3.518,299.519,88.348,97072.24,19.233,109.016
海南,海口市,8.601,13.859,4.852,6.957,0.41,47.551,9.097,1.212,302.132,73.87,99263.783,19.842,110.393
海南,澄迈县,7.156,10.871,3.499,4.399,0.363,46.996,8.619,1.607,301.84,74.501,98881.959,19.676,109.989
海南,琼中黎族苗族自治县,5.892,7.984,2.104,2.477,0.201,44.518,8.537,0.951,300.221,74.361,95939.325,19.087,109.847
海南,琼海市,7.003,9.255,2.808,4.373,0.278,44.378,7.142,-0.017,302.483,67.58,99273.66,19.22,110.43
海南,白沙黎族自治县,5.658,8.001,2.272,2.39,0.186,46.65,7.586,2.906,299.349,81.501,95716.088,19.2,109.388
海南,陵水黎族自治县,5.107,8.18,1.93,3.594,0.22,43.683,8.244,0.503,301.3,73.613,97931.819,18.581,109.913
湖北,仙桃市,13.725,27.698,5.743,7.232,0.52,73.498,-1.96,-3.762,303.724,66.226,99694.532,30.284,113.417
湖北,十堰市,29.714,43.074,7.574,4.647,0.37,93.383,-1.177,-0.627,300.055,62.045,92385.136,32.462,110.476
湖北,咸宁市,17.06,29.972,4.958,6.503,0.577,69.741,-1.863,-1.877,302.403,70.649,97898.95,29.621,114.178
湖北,天门市,14.905,31.575,7.033,6.922,0.521,76.474,-1.808,-4.003,304.277,61.645,99666.598,30.633,113.053
湖北,孝感市,16.251,29.438,6.383,6.011,0.426,75.639,-1.975,-3.28,303.503,66.92,99107.419,31.116,113.869
湖北,宜昌市,26.281,42.102,7.397,8.518,0.547,83.808,-1.502,-3.564,300.195,64.495,93084.958,30.746,111.129
湖北,恩施土家族苗族自治州,34.723,49.181,10.066,5.58,0.63,86.159,-1.909,-1.461,297.798,68.116,88803.947,30.195,109.552
湖北,武汉市,15.327,28.922,5.339,13.338,0.601,63.133,-1.706,-2.626,303.499,69.322,99590.834,30.606,114.349
湖北,潜江市,14.534,33.189,6.86,8.753,0.639,73.16,-1.619,-4.401,303.939,63.296,99673.468,30.33,112.77
湖北,神农架林区,31.208,39.825,6.555,1.812,0.258,85.322,-1.887,-3.938,293.275,76.337,82588.12,31.592,110.49
湖北,荆州市,17.119,34.76,7.132,10.646,0.685,71.835,-1.615,-4.892,303.764,63.772,99453.331,30.01,112.512
湖北,荆门市,19.94,38.322,8.663,9.801,0.55,78.182,-0.926,-4.946,303.78,61.41,98739.95,31.059,112.616
湖北,襄阳市,25.361,43.795,7.253,8.929,0.53,90.822,-0.227,-4.056,302.125,62.662,96218.777,31.919,111.96
湖北,鄂州市,17.554,35.269,6.769,15.327,0.761,65.967,-1.041,-1.173,303.736,68.124,99621.697,30.337,114.794
湖北,随州市,19.8,34.604,7.827,8.612,0.473,82.07,-1.257,-3.728,303.295,63.876,98068.505,31.809,113.43
湖北,黄冈市,20.988,37.564,7.162,7.32,0.545,76.557,-2.677,-0.122,302.559,71.878,98007.403,30.702,115.358
湖北,黄石市,22.083,40.476,7.45,13.09,0.776,72.525,-1.363,-0.545,302.851,70.805,98693.437,29.925,115.034
湖南,娄底市,22.491,37.437,8.419,7.56,0.801,74.821,-1.613,-6.324,301.26,70.667,95831.168,27.715,111.632
湖南,岳阳市,17.67,30.413,5.735,6.733,0.62,73.519,-2.388,-3.974,302.91,69.594,98545.964,29.081,113.275
湖南,常德市,21.357,38.831,10.653,10.389,0.727,74.462,-1.957,-5.468,303.046,62.155,97860.973,29.271,111.524
湖南,张家界市,26.055,42.356,10.092,8.025,0.711,77.006,-2.471,-3.737,300.659,64.569,94195.256,29.379,110.526
湖南,怀化市,26.929,47.641,10.532,6.719,0.72,71.765,-2.24,-4.885,300.861,66.631,95033.346,27.535,110.071
湖南,株洲市,22.881,38.021,9.0,7.132,0.474,76.166,-3.621,-3.112,302.288,66.654,96394.909,27.109,113.513
湖南,永州市,35.708,52.898,11.14,8.274,0.624,70.221,-2.261,-5.932,300.635,73.785,95067.989,25.748,111.723
湖南,湘潭市,16.405,32.233,6.416,13.422,0.752,73.21,-1.211,-5.571,302.943,70.178,98599.208,27.744,112.619
湖南,湘西土家族苗族自治州,29.572,48.049,8.744,6.849,0.749,64.952,-2.209,-2.924,300.625,66.194,94130.609,28.708,109.718
湖南,益阳市,20.784,36.285,7.695,7.571,0.798,72.512,-1.387,-5.481,301.914,69.988,97351.999,28.525,111.919
湖南,衡阳市,24.258,40.754,8.719,10.424,0.685,73.34,-1.638,-5.127,303.197,66.153,98083.665,26.781,112.565
湖南,邵阳市,28.895,43.952,9.98,7.297,0.587,72.429,-2.325,-6.016,300.12,70.58,93718.411,26.893,110.881
湖南,郴州市,29.18,43.996,8.085,8.148,0.962,76.096,-3.135,-4.535,300.686,68.818,94230.466,25.769,113.109
湖南,长沙市,19.228,34.297,6.785,8.188,0.611,75.087,-2.098,-3.948,302.752,70.116,98054.107,28.235,113.159
甘肃,临夏回族自治州,30.985,50.7,10.896,7.777,0.613,67.232,-0.821,-0.049,292.506,62.369,77313.898,35.617,103.291
甘肃,兰州市,29.579,52.306,13.099,14.707,0.664,69.803,-1.826,-0.985,294.106,59.106,78882.982,36.359,103.633
甘肃,嘉峪关市,26.993,108.022,8.067,13.547,0.277,101.578,3.908,-4.635,292.715,48.047,81573.31,39.798,98.145
甘肃,天水市,33.475,54.36,8.927,7.048,0.352,77.535,-2.257,2.51,294.689,68.479,82322.506,34.645,105.739
甘肃,定西市,33.391,55.188,10.386,6.693,0.411,72.432,-1.861,2.72,291.48,69.879,77123.262,35.124,104.432
甘肃,平凉市,30.125,54.628,8.401,10.285,0.501,85.047,-1.48,2.086,295.612,70.054,84103.752,35.304,106.644
甘肃,庆阳市,29.638,53.695,11.988,5.943,0.568,88.567,-2.473,1.609,296.503,67.787,85353.447,36.149,107.596
甘肃,张掖市,28.776,61.527,3.657,2.202,0.17,89.288,1.779,-1.978,288.906,58.943,74727.88,38.94,99.855
甘肃,武威市,39.304,79.713,10.095,3.184,0.278,90.526,-1.047,-0.258,295.855,52.367,81079.597,38.163,103.073
甘肃,甘南藏族自治州,39.76,52.556,10.317,1.935,0.354,73.61,-1.177,0.307,283.854,86.448,67877.848,34.331,102.768
甘肃,白银市,26.861,49.709,13.231,7.556,0.608,79.399,-1.776,2.589,295.675,59.296,81167.508,36.59,104.646
甘肃,酒泉市,20.145,27.014,1.58,0.894,0.127,75.454,0.859,-4.197,288.207,63.901,79132.209,40.236,96.062
甘肃,金昌市,32.885,91.691,6.601,3.593,0.204,83.171,3.092,-1.886,295.041,46.568,80372.244,38.44,102.048
甘肃,陇南市,33.219,50.905,12.332,3.663,0.339,77.98,-0.896,1.199,293.842,70.98,81860.842,33.599,105.224
福建,三明市,21.565,30.012,7.339,7.485,0.546,59.339,-5.226,0.048,298.922,79.912,93760.637,26.29,117.395
福建,南平市,17.302,25.768,5.127,5.07,0.363,56.747,-4.606,0.027,299.642,74.854,94559.743,27.324,118.143
福建,厦门市,14.697,24.39,6.13,13.733,0.443,51.067,-5.418,-1.385,300.357,88.777,98700.253,24.642,118.11
福建,宁德市,10.211,16.363,2.747,3.975,0.255,42.087,-4.981,-2.368,297.599,90.867,93982.954,26.968,119.474
福建,泉州市,15.888,24.112,5.15,8.871,0.403,56.576,-5.427,-0.337,298.349,90.633,95136.41,25.201,118.249
福建,漳州市,11.026,18.746,3.988,9.817,0.41,50.541,-6.044,-0.764,299.288,89.201,96575.687,24.372,117.444
福建,福州市,10.724,17.934,4.407,7.072,0.368,50.797,-4.549,-2.138,298.855,90.393,95930.236,26.083,119.206
福建,莆田市,13.111,21.575,5.778,8.004,0.436,61.587,-4.192,-1.092,299.133,90.119,96634.647,25.445,118.864
福建,龙岩市,19.096,27.521,6.803,10.557,0.512,56.613,-5.497,0.085,298.863,80.322,93662.004,25.256,116.739
西藏,山南市,17.603,18.992,1.066,1.514,0.154,90.015,-0.644,2.207,283.995,84.273,66074.251,28.295,92.274
西藏,拉萨市,15.597,18.868,2.035,2.42,0.172,100.973,-0.54,4.268,280.232,76.031,56774.699,30.043,91.093
西藏,日喀则市,20.143,21.812,2.236,0.607,0.207,111.451,3.879,2.29,278.985,78.011,55486.581,29.483,86.493
西藏,昌都市,15.0,17.226,0.963,1.052,0.141,82.17,-0.915,2.323,280.275,78.353,59333.479,30.753,97.044
西藏,林芝市,15.215,15.893,0.644,1.508,0.132,81.115,-0.764,1.304,283.393,87.667,66376.154,29.184,95.25
西藏,玉树藏族自治州,11.081,11.57,0.674,0.54,0.116,84.989,-3.008,3.594,280.317,60.335,57622.383,34.196,94.317
西藏,那曲市,11.636,12.478,0.75,0.286,0.136,86.476,-0.039,1.32,279.157,74.347,55637.787,32.709,89.262
西藏,阿里地区,12.102,12.365,0.622,0.338,0.142,77.35,0.108,-3.071,277.842,68.505,55073.897,33.013,82.553
贵州,六盘水市,39.351,65.32,7.356,13.206,0.581,85.223,-1.336,-1.809,294.03,75.01,82630.866,26.106,104.896
贵州,安顺市,42.167,70.263,4.769,12.561,0.497,82.232,-2.074,-3.242,297.453,69.3,87441.643,25.986,105.978
贵州,毕节市,43.067,65.295,5.894,9.924,0.507,85.171,-1.307,-1.099,293.907,78.827,82986.26,27.063,105.211
贵州,贵阳市,43.386,69.604,4.599,19.062,0.549,77.609,-0.776,-3.227,296.662,76.465,87503.483,26.845,106.71
贵州,遵义市,45.597,59.59,8.513,8.127,0.423,99.43,-0.469,-2.698,298.307,73.423,89590.644,28.167,107.102
贵州,铜仁市,31.685,58.355,11.905,5.86,0.51,76.05,-1.614,-2.404,299.437,70.321,91785.122,27.937,108.534
贵州,黔东南苗族侗族自治州,33.931,53.576,11.98,5.758,0.499,73.384,-1.468,-4.789,298.681,74.471,91640.103,26.495,108.574
贵州,黔南布依族苗族自治州,41.929,61.032,9.497,7.402,0.466,77.632,-1.513,-4.239,297.953,74.639,89505.624,26.0,107.265
贵州,黔西南布依族苗族自治州,34.326,59.638,8.49,7.433,0.528,84.305,-0.833,-2.539,297.762,67.354,87799.988,25.256,105.467
辽宁,丹东市,8.758,14.954,4.068,6.247,0.372,33.637,-0.008,3.307,297.753,93.133,98036.964,40.554,124.376
辽宁,大连市,7.206,18.378,4.135,6.251,0.287,31.877,-0.984,4.148,299.782,91.476,100026.774,39.591,122.22
辽宁,抚顺市,11.314,17.165,4.688,7.564,0.412,42.314,1.119,3.488,295.643,92.302,96397.886,41.841,124.65
辽宁,朝阳市,27.342,42.957,11.109,10.544,0.544,54.464,0.506,0.77,296.376,87.614,95861.753,41.545,120.053
辽宁,本溪市,11.328,17.555,4.797,7.669,0.475,37.536,-0.366,2.014,295.924,93.138,95795.933,41.232,124.544
辽宁,沈阳市,10.891,20.968,7.565,16.073,0.624,26.304,0.758,4.251,297.432,92.898,100249.852,42.081,123.159
辽宁,盘锦市,9.374,14.767,5.766,14.2,0.651,33.393,-0.867,1.118,297.553,95.411,100845.655,41.13,122.01
辽宁,营口市,7.901,13.585,3.703,10.241,0.478,30.499,-1.268,1.672,298.092,92.385,98747.83,40.395,122.478
辽宁,葫芦岛市,19.339,29.515,9.402,11.298,0.394,47.019,-1.089,-0.769,296.963,96.253,98431.142,40.66,120.215
辽宁,辽阳市,7.937,14.696,5.004,11.367,0.557,32.36,-1.23,1.707,297.192,92.904,98983.007,41.153,123.261
辽宁,铁岭市,13.928,22.721,6.913,15.506,0.583,32.211,2.556,5.098,296.894,92.329,98776.367,42.653,124.158
辽宁,锦州市,13.64,22.044,7.209,10.892,0.505,40.212,0.208,2.218,297.189,95.344,100069.363,41.502,121.659
辽宁,阜新市,19.462,31.121,9.141,9.46,0.443,45.568,1.422,2.955,297.349,90.116,98658.711,42.289,121.968
辽宁,鞍山市,7.378,13.235,3.476,9.416,0.458,32.259,-0.965,1.783,297.701,93.464,99036.15,40.731,123.007
重庆,重庆城区,44.346,65.366,12.27,18.494,0.582,98.06,-0.147,-1.095,302.011,63.152,93874.029,29.824,107.125
重庆,重庆郊县,40.01,54.569,12.247,7.111,0.441,89.046,-1.701,-1.303,299.497,63.109,90262.787,30.334,108.755
陕西,咸阳市,32.942,61.317,7.705,18.37,0.881,97.909,-2.701,-0.027,299.945,60.593,90658.213,34.779,108.367
陕西,商洛市,36.621,56.654,7.571,8.678,0.547,91.628,-1.118,-1.951,297.866,67.431,88659.725,33.64,109.889
陕西,安康市,36.284,52.544,8.443,4.511,0.436,86.874,-1.933,-0.753,298.243,65.917,89152.51,32.735,108.932
陕西,宝鸡市,37.879,64.522,5.789,11.566,0.596,86.427,-1.692,0.898,296.162,71.758,85845.389,34.386,107.193
陕西,延安市,31.348,59.903,12.432,11.371,0.904,78.043,-1.968,0.414,296.87,70.149,87049.847,36.432,109.316
陕西,榆林市,35.845,66.396,13.321,20.726,0.928,82.948,-2.969,0.482,298.096,62.052,87426.064,38.041,109.581
陕西,汉中市,35.077,52.916,9.414,5.576,0.436,78.695,-2.302,-0.311,298.113,66.712,88269.931,33.088,107.098
陕西,渭南市,39.144,70.544,11.279,22.144,1.104,100.515,-3.192,-1.366,301.545,56.619,92866.736,34.919,109.855
陕西,西安市,40.544,70.861,6.36,19.555,0.803,94.327,-0.951,-0.296,299.029,65.158,89765.93,34.12,108.77
陕西,铜川市,35.726,63.928,10.073,15.286,1.016,87.054,-3.362,-0.392,298.317,63.563,88532.328,35.198,109.058
青海,保亭黎族苗族自治县,5.292,9.664,2.026,4.342,0.266,41.346,9.358,-0.628,299.276,82.482,95881.392,18.566,109.618
青海,吐鲁番市,29.065,31.374,1.949,2.244,0.156,77.337,0.43,-2.697,295.22,31.746,90053.046,42.386,89.851
青海,果洛藏族自治州,34.434,36.515,4.849,0.864,0.187,77.183,-2.722,0.807,279.831,78.082,60394.941,34.127,99.404
青海,海东市,41.552,50.006,9.837,4.859,0.342,83.737,-2.606,-1.348,288.726,70.056,72854.306,36.347,102.34
青海,海北藏族自治州,32.307,37.468,4.49,1.509,0.181,79.257,-2.757,-0.714,281.686,81.202,65757.291,37.775,100.288
青海,海南藏族自治州,38.627,42.087,6.429,1.307,0.21,83.415,-3.123,0.86,284.222,72.161,66773.955,35.89,100.272
青海,海西蒙古族藏族自治州,21.12,21.841,1.237,0.388,0.126,77.553,-1.088,-0.119,283.753,57.484,64711.598,36.677,94.519
青海,西宁市,35.23,47.47,8.503,6.964,0.429,82.21,-2.418,-0.952,285.845,75.624,69804.688,36.842,101.423
青海,黄南藏族自治州,42.873,47.444,7.877,1.283,0.254,75.734,-2.179,0.519,282.814,85.076,66132.878,35.022,101.631
香港,香港特别行政区,11.625,19.875,4.53,10.62,0.32,64.385,-10.14,-6.82,301.755,83.295,98770.445,22.45,114.22
黑龙江,七台河市,13.416,27.448,4.547,9.915,0.437,50.898,-2.849,0.564,292.567,72.195,98024.695,45.87,130.943
黑龙江,伊春市,10.041,15.524,1.87,2.253,0.228,49.174,-3.293,-0.774,292.997,63.761,96686.009,47.772,129.184
黑龙江,佳木斯市,9.965,16.008,2.424,4.436,0.326,52.119,-2.473,-2.097,292.934,69.775,100006.262,47.207,132.11
黑龙江,双鸭山市,10.728,16.575,3.175,4.015,0.354,61.844,-0.822,-0.773,293.531,68.73,99572.498,46.722,132.643
黑龙江,哈尔滨市,17.109,25.061,5.365,6.042,0.342,55.969,-5.009,-0.793,294.599,76.954,98123.703,45.634,127.964
黑龙江,大兴安岭地区,9.641,10.349,1.103,1.333,0.163,60.093,-1.337,0.603,291.461,74.48,94927.542,52.286,124.212
黑龙江,大庆市,14.722,25.094,5.123,7.588,0.392,56.946,-3.834,-2.301,295.776,73.765,99360.897,46.327,124.687
黑龙江,牡丹江市,17.988,27.127,4.674,7.071,0.295,54.73,-3.417,0.054,291.657,92.245,95214.968,44.592,129.883
黑龙江,绥化市,11.322,16.107,2.995,4.143,0.297,58.455,-4.873,-1.052,294.952,65.856,98699.568,46.89,126.634
黑龙江,鸡西市,12.574,19.136,3.771,6.71,0.301,66.464,-1.551,-0.542,292.576,76.256,99262.844,45.626,132.289
黑龙江,鹤岗市,10.074,16.344,1.949,3.743,0.327,51.21,-1.934,-2.294,292.723,70.465,99069.274,47.661,130.778
黑龙江,黑河市,10.049,14.807,1.652,1.769,0.228,66.004,-2.353,-0.313,292.972,67.131,97067.651,49.268,127.004
黑龙江,齐齐哈尔市,11.088,16.279,3.045,4.337,0.267,61.458,-2.601,-2.134,294.255,68.826,98737.916,47.715,124.57
