province,city,PM2.5,PM10,SO2,NO2,CO,O3,U,V,TEMP,RH,PSFC,lat,lon
上海,上海市,9.294,20.508,4.827,13.038,0.388,47.216,-1.46,-12.128,301.272,85.842,99451.204,31.173,121.42
云南,临沧市,20.702,35.894,7.705,3.863,0.481,72.529,0.778,-1.515,295.296,76.161,83473.49,23.935,99.686
云南,丽江市,27.193,44.431,12.562,6.112,0.719,86.861,-4.15,-1.429,290.518,68.328,74650.862,26.96,100.515
云南,保山市,19.619,38.481,8.808,5.429,0.51,75.747,-0.733,-1.178,294.59,72.784,81547.73,24.953,98.962
云南,大理白族自治州,28.11,47.923,10.852,8.304,0.582,78.692,-4.359,-2.656,293.013,66.539,77937.605,25.726,100.053
云南,德宏傣族景颇族自治州,14.327,24.962,5.254,3.33,0.355,52.522,1.828,-1.503,294.89,87.869,85646.732,24.535,98.052
云南,怒江傈僳族自治州,35.353,49.628,9.837,3.09,0.468,80.005,-2.517,0.439,289.145,76.598,72813.538,26.916,98.885
云南,文山壮族苗族自治州,31.011,51.114,17.658,5.259,0.5,75.145,-2.663,-6.739,295.01,82.864,85834.42,23.696,104.735
云南,昆明市,32.197,54.052,14.154,12.621,0.569,78.725,-5.774,-5.609,292.156,75.216,78953.966,25.384,102.863
云南,昭通市,24.991,43.955,10.079,6.346,0.496,86.583,-0.357,-5.443,292.878,88.025,83827.65,27.667,103.985
云南,普洱市,19.989,37.04,9.615,4.919,0.5,69.518,0.361,-2.285,296.538,72.645,85404.976,23.159,100.718
云南,曲靖市,26.726,48.953,13.164,7.889,0.544,82.148,-4.049,-7.063,291.482,84.599,79729.189,25.737,103.929
云南,楚雄彝族自治州,36.125,55.128,15.889,9.871,0.595,78.426,-4.128,-4.285,294.478,65.004,80673.424,25.328,101.567
云南,玉溪市,34.08,58.755,17.176,12.812,0.56,81.854,-3.691,-3.353,295.361,70.323,82995.355,24.136,102.217
云南,红河哈尼族彝族自治州,32.057,53.752,21.019,7.267,0.526,84.054,-3.11,-4.105,295.745,72.871,84548.325,23.451,103.034
云南,西双版纳傣族自治州,11.452,23.053,6.461,6.058,0.441,50.489,2.648,-1.522,297.053,78.887,88270.643,21.939,100.912
云南,迪庆藏族自治州,28.689,41.171,7.778,4.404,0.367,93.182,-2.461,0.992,285.738,75.56,67499.079,27.957,99.459
内蒙古,乌兰察布市,21.267,30.863,8.517,8.44,0.318,79.914,-0.271,3.169,293.388,64.921,86254.006,41.691,112.44
内蒙古,乌海市,24.944,90.632,8.208,11.529,0.368,96.411,0.701,-2.45,297.136,52.661,87763.248,39.396,106.856
内蒙古,兴安盟,9.189,11.613,2.515,2.649,0.207,60.142,-1.53,0.092,290.464,66.86,95225.041,46.244,121.341
内蒙古,包头市,21.308,35.0,9.295,12.829,0.372,77.616,-0.284,1.691,294.377,58.45,86177.365,41.549,110.276
内蒙古,呼伦贝尔市,10.33,11.5,1.997,1.588,0.187,60.252,-0.714,5.261,291.141,67.564,93850.334,49.636,121.171
内蒙古,呼和浩特市,19.265,42.946,8.553,17.304,0.611,83.219,-3.113,2.313,294.49,62.268,86558.248,40.578,111.513
内蒙古,巴彦淖尔市,21.689,28.583,6.575,7.378,0.233,76.575,0.77,-0.981,294.352,57.993,87521.149,41.446,107.582
内蒙古,赤峰市,12.375,15.608,3.604,3.69,0.216,67.007,-3.567,-0.916,291.469,71.255,92310.928,43.226,118.892
内蒙古,通辽市,9.393,13.212,3.709,3.991,0.222,64.1,-3.421,-3.274,294.055,60.611,98092.318,43.814,121.591
内蒙古,鄂尔多斯市,26.996,47.866,10.961,10.269,0.436,90.546,-1.779,0.74,297.026,51.005,87117.613,39.407,108.63
内蒙古,锡林郭勒盟,18.844,21.036,5.072,2.196,0.187,72.493,-1.773,4.73,292.642,69.172,89323.381,44.179,115.482
内蒙古,阿拉善盟,12.777,16.389,1.587,1.272,0.13,89.182,0.681,-1.701,293.926,47.59,87807.953,40.473,102.467
北京,北京市,14.602,27.061,4.38,14.395,0.354,83.634,-3.279,-3.823,297.805,57.7,97729.986,40.158,116.395
台湾,台湾省,15.67,19.147,5.537,17.239,0.168,51.706,2.303,2.112,297.165,81.633,91876.056,23.757,120.975
吉林,吉林市,8.621,10.718,2.584,3.768,0.25,60.908,-3.915,-3.304,291.03,69.347,97318.98,43.573,126.859
吉林,四平市,9.428,16.841,3.183,6.548,0.33,54.896,-4.302,-4.644,293.059,69.339,99505.807,43.472,124.386
吉林,延边朝鲜族自治州,7.032,9.548,2.284,3.164,0.217,58.894,-1.663,-5.367,288.502,73.627,94398.491,43.141,129.147
吉林,松原市,8.135,14.543,3.518,4.653,0.285,56.065,-3.793,-2.668,293.285,64.127,99991.945,44.785,124.496
吉林,白城市,8.901,13.948,4.271,4.336,0.244,55.401,-2.642,-2.153,294.018,56.526,100131.008,45.35,123.031
吉林,白山市,10.686,13.707,3.335,3.596,0.272,61.22,-4.12,-4.378,289.373,73.615,92447.055,42.063,127.256
吉林,辽源市,11.048,16.997,3.762,6.734,0.338,56.761,-4.077,-4.404,291.56,75.97,97612.618,42.836,125.32
吉林,通化市,11.158,15.936,4.63,5.354,0.319,59.6,-4.184,-5.207,291.919,70.986,95741.795,41.939,125.927
吉林,长春市,8.286,14.763,2.362,5.804,0.315,52.788,-3.946,-3.811,291.941,69.337,99504.632,44.268,125.611
四川,乐山市,32.628,45.159,8.147,8.906,0.514,73.755,2.365,-4.879,297.451,71.596,89148.292,29.218,103.569
四川,内江市,23.181,37.452,7.146,11.975,0.634,73.899,-0.073,-4.171,301.937,68.175,95804.024,29.62,104.95
四川,凉山彝族自治州,28.971,41.324,9.824,3.384,0.469,95.744,-3.749,-5.132,288.741,74.045,74250.679,27.883,102.065
四川,南充市,29.901,48.447,10.715,16.033,0.653,77.619,-3.503,-3.071,303.198,53.777,95861.964,31.19,106.199
四川,宜宾市,24.424,40.803,8.3,14.503,0.668,69.38,2.634,-2.676,299.683,76.339,94262.404,28.573,104.621
四川,巴中市,30.05,46.96,11.877,10.12,0.562,80.858,-5.078,-3.348,300.577,58.77,91855.565,32.033,107.031
四川,广元市,23.979,43.039,14.838,7.056,0.562,84.622,-2.38,-3.144,299.845,63.203,91061.849,32.261,105.788
四川,广安市,37.812,55.726,8.29,18.715,0.677,82.063,-3.366,-2.133,303.322,53.29,95822.629,30.43,106.628
四川,德阳市,19.757,38.181,7.305,8.612,0.478,88.404,-2.402,-4.186,301.063,59.073,92528.16,31.13,104.436
四川,成都市,21.16,37.355,7.987,11.363,0.507,83.737,-1.716,-3.738,300.972,58.454,92664.404,30.64,103.929
四川,攀枝花市,33.637,52.98,27.197,13.094,0.971,80.835,-3.983,-3.96,295.186,58.092,81269.639,26.791,101.734
四川,泸州市,27.852,44.126,8.141,13.495,0.594,71.404,1.303,-0.943,298.801,79.082,92678.453,28.424,105.675
四川,甘孜藏族自治州,31.549,34.392,5.1,1.327,0.161,96.295,-1.822,1.607,281.174,78.101,61737.526,30.936,100.009
四川,眉山市,25.646,40.396,8.299,11.01,0.591,76.012,0.782,-3.116,300.163,65.437,93104.521,29.912,103.766
四川,绵阳市,27.358,43.551,9.637,5.563,0.413,88.578,-1.591,-3.774,297.449,66.551,87629.325,31.86,104.704
四川,自贡市,27.688,41.207,7.605,14.898,0.713,65.822,0.638,-4.247,301.609,69.994,95792.037,29.307,104.659
四川,资阳市,20.32,34.952,7.571,10.335,0.559,81.804,-1.529,-4.143,302.544,62.691,96044.615,30.102,105.149
四川,达州市,37.337,53.635,12.736,17.719,0.566,82.719,-4.475,-2.607,301.601,52.882,93310.563,31.335,107.636
四川,遂宁市,22.728,38.643,8.892,13.127,0.588,80.262,-2.714,-4.062,303.203,56.633,96280.871,30.642,105.457
四川,阿坝藏族羌族自治州,30.849,39.189,5.66,1.333,0.191,83.37,-1.97,0.906,282.316,84.28,66073.817,32.406,102.61
四川,雅安市,30.431,39.264,7.729,3.16,0.279,81.694,-0.103,-2.08,291.72,73.142,80088.079,29.932,102.689
天津,天津市,15.397,35.591,9.345,21.676,0.691,86.626,-6.44,-5.36,299.523,55.893,101134.842,39.315,117.308
宁夏,中卫市,26.877,55.248,7.685,4.237,0.299,83.764,1.233,-3.443,294.38,54.044,83812.036,37.018,105.509
宁夏,吴忠市,34.889,77.018,10.351,5.91,0.349,86.773,0.592,-1.376,295.721,63.107,85258.939,37.454,106.577
宁夏,固原市,27.097,73.8,9.58,7.411,0.403,86.984,-0.858,-3.069,292.702,68.946,81253.261,35.905,106.183
宁夏,石嘴山市,26.632,98.201,6.931,8.973,0.346,96.077,1.446,-4.221,296.55,55.252,86880.494,39.013,106.499
宁夏,银川市,31.476,106.275,7.975,12.394,0.414,86.982,-0.748,-1.116,297.103,58.181,87141.587,38.287,106.342
安徽,亳州市,18.693,37.046,11.309,14.469,0.591,72.267,-0.881,-6.31,300.292,72.936,100170.458,33.44,116.162
安徽,六安市,25.559,43.007,9.703,15.094,0.566,88.172,-0.287,-6.813,298.85,83.15,97685.042,31.617,116.209
安徽,合肥市,19.554,32.439,6.229,15.045,0.533,70.605,-0.876,-7.545,301.349,77.147,99818.816,31.766,117.359
安徽,安庆市,19.349,36.372,9.318,13.479,0.558,69.796,-1.556,-7.695,300.846,76.347,97935.435,30.557,116.473
安徽,宣城市,20.672,33.496,7.119,13.181,0.551,55.768,0.027,-6.228,299.838,83.293,97705.271,30.676,118.846
安徽,宿州市,21.188,37.305,11.055,18.848,0.615,68.29,-1.503,-5.916,300.319,75.356,100084.704,33.844,117.23
安徽,池州市,21.232,38.429,8.991,14.506,0.601,58.863,-1.411,-5.876,300.658,79.238,98029.854,30.296,117.379
安徽,淮北市,22.449,40.355,13.175,22.912,0.657,67.562,-1.216,-5.728,300.35,73.972,100154.041,33.722,116.747
安徽,淮南市,22.158,40.749,11.189,18.582,0.578,78.761,-1.164,-7.785,300.773,75.403,100100.489,32.463,116.746
安徽,滁州市,18.81,29.121,5.846,11.321,0.392,66.108,-1.762,-7.224,300.927,79.261,99728.99,32.55,118.076
安徽,芜湖市,23.485,39.987,8.898,19.409,0.701,58.564,-1.155,-6.46,301.842,76.468,99848.332,31.167,118.162
安徽,蚌埠市,22.126,35.823,10.247,17.053,0.535,75.037,-1.414,-7.13,300.493,75.984,100101.124,33.121,117.263
安徽,铜陵市,21.984,38.603,8.429,18.006,0.626,63.73,-0.892,-6.661,301.957,75.844,99745.345,30.883,117.531
安徽,阜阳市,15.936,37.926,12.165,12.304,0.575,73.483,-0.71,-6.908,300.288,72.362,100150.174,32.937,115.723
安徽,马鞍山市,20.249,34.15,7.085,16.011,0.583,55.334,-1.446,-6.951,301.627,77.376,99862.755,31.622,118.386
安徽,黄山市,16.509,30.423,8.073,9.349,0.509,55.687,-0.518,-5.732,299.471,79.617,95861.586,29.869,118.09
山东,东营市,16.059,34.042,7.373,7.027,0.41,88.36,-9.355,-7.267,299.901,78.382,100851.075,37.57,118.572
山东,临沂市,18.51,37.361,9.437,16.319,0.456,65.423,-4.187,-3.594,299.473,79.339,98790.575,35.289,118.27
山东,威海市,15.079,28.715,7.664,7.317,0.366,58.206,-6.676,-6.333,301.082,76.609,100100.967,37.148,122.028
山东,德州市,16.317,32.092,6.832,9.143,0.458,81.228,-7.749,-9.231,299.609,76.504,100689.893,37.233,116.679
山东,日照市,17.387,34.322,7.594,13.511,0.342,68.531,-5.152,-3.828,299.999,81.931,98928.991,35.566,119.108
山东,枣庄市,18.963,41.75,13.643,18.715,0.571,66.698,-2.702,-2.846,300.107,75.302,99444.858,34.925,117.383
山东,泰安市,15.134,30.441,6.192,13.07,0.491,66.394,-5.748,-4.894,299.321,78.222,98708.636,35.993,117.04
山东,济南市,16.693,32.571,6.437,13.067,0.556,68.343,-8.112,-6.492,298.997,80.272,98824.688,36.639,117.254
山东,济宁市,17.261,35.268,8.872,14.938,0.588,68.361,-2.402,-4.036,300.028,76.058,99886.313,35.375,116.697
山东,淄博市,18.462,34.833,7.383,13.867,0.642,68.764,-8.047,-4.614,298.524,83.592,98268.301,36.623,118.062
山东,滨州市,15.802,32.307,6.646,8.25,0.462,84.266,-9.172,-7.46,299.817,76.899,100791.138,37.516,117.852
山东,潍坊市,17.385,35.93,7.955,12.717,0.481,70.369,-6.711,-4.528,299.896,81.532,99620.945,36.53,119.092
山东,烟台市,14.499,33.061,8.01,9.359,0.421,62.928,-7.034,-6.36,300.031,80.332,99679.25,37.25,120.789
山东,聊城市,15.891,31.454,8.331,12.637,0.554,72.757,-4.912,-10.512,299.426,78.185,100357.056,36.458,115.863
山东,菏泽市,16.44,33.015,8.815,13.877,0.729,69.532,-1.289,-7.158,299.534,76.617,100077.528,35.134,115.69
山东,青岛市,14.696,33.689,6.623,11.489,0.404,64.204,-6.919,-5.107,300.994,78.457,100104.07,36.46,120.172
山西,临汾市,18.151,32.048,10.114,8.411,0.548,91.842,-5.233,-5.213,295.839,63.732,89928.064,36.227,111.398
山西,吕梁市,21.645,35.978,7.819,11.555,0.44,83.379,-6.078,-1.174,294.504,66.585,87759.857,37.663,111.27
山西,大同市,21.298,35.342,6.527,7.336,0.396,86.946,-3.565,0.435,292.662,72.197,87524.971,39.911,113.713
山西,太原市,19.461,40.4,5.486,13.896,0.452,78.591,-4.653,-2.413,292.635,77.202,87750.713,37.967,112.321
山西,忻州市,20.562,34.06,5.545,6.603,0.374,84.275,-3.915,0.825,292.6,73.092,86342.322,38.877,112.391
山西,晋中市,21.229,34.514,6.25,10.57,0.423,79.958,-5.589,-6.498,292.184,81.937,88549.717,37.328,112.997
山西,晋城市,15.631,32.043,9.263,10.179,0.736,80.387,-4.8,-9.014,294.734,72.428,90169.532,35.625,112.752
山西,朔州市,21.511,49.157,8.311,13.231,0.605,79.592,-2.869,1.318,292.911,72.285,86846.285,39.619,112.655
山西,运城市,22.469,41.037,11.777,10.196,0.713,102.997,-4.396,-3.801,299.085,56.537,93816.417,35.205,111.071
山西,长治市,16.577,30.614,7.705,9.356,0.558,77.401,-5.57,-7.293,292.993,78.347,88717.607,36.48,112.915
山西,阳泉市,21.202,36.049,6.199,12.399,0.418,80.385,-5.173,-4.128,292.462,83.4,90473.849,38.031,113.512
广东,东莞市,13.806,24.601,5.857,23.676,0.641,44.406,-6.884,-0.159,301.993,80.159,99477.651,22.931,113.81
广东,中山市,13.833,25.221,5.272,20.772,0.556,48.327,-8.024,-0.486,301.569,84.197,99420.509,22.5,113.383
广东,云浮市,17.272,28.534,7.775,19.465,0.567,50.428,-7.65,-4.491,301.164,77.985,97444.612,22.776,111.818
广东,佛山市,18.691,33.985,7.488,35.358,0.751,40.195,-7.052,-1.761,302.435,75.992,99472.874,23.035,112.979
广东,广州市,15.506,26.444,5.904,23.18,0.597,46.573,-6.668,-0.742,301.959,76.386,98662.282,23.339,113.525
广东,惠州市,9.852,17.507,3.339,9.864,0.436,49.692,-5.564,0.584,300.775,82.791,97793.353,23.244,114.485
广东,揭阳市,14.283,27.341,6.3,13.759,0.948,54.093,-2.763,1.922,300.666,86.23,98468.328,23.323,116.123
广东,梅州市,14.803,26.435,4.693,13.074,0.762,51.139,-2.978,1.251,300.235,80.635,96509.516,24.169,116.07
广东,汕头市,7.836,16.017,5.409,12.164,0.55,57.52,-2.151,2.938,301.228,86.019,99565.068,23.339,116.614
广东,汕尾市,8.544,17.229,2.48,7.143,0.557,51.356,-3.922,1.858,300.39,87.707,98180.065,23.024,115.527
广东,江门市,16.162,25.868,5.232,16.915,0.467,54.665,-8.752,-2.61,301.43,83.095,98792.81,22.289,112.676
广东,河源市,14.653,26.186,4.432,12.762,0.58,49.225,-3.891,-0.07,300.408,80.329,96658.019,24.021,114.969
广东,深圳市,10.384,20.604,5.557,21.074,0.531,45.21,-6.992,1.496,301.304,85.163,99026.797,22.667,114.143
广东,清远市,17.082,25.427,5.588,9.297,0.461,54.981,-4.87,-3.415,300.889,75.835,96147.005,24.295,112.871
广东,湛江市,12.074,23.381,7.546,6.353,0.482,72.96,-2.566,-6.648,302.117,78.681,99055.522,21.091,110.163
广东,潮州市,11.442,21.09,5.28,13.529,0.718,54.704,-2.801,1.959,300.426,85.318,97957.978,23.755,116.754
广东,珠海市,13.195,20.478,3.093,4.982,0.243,68.988,-8.537,0.475,301.448,87.053,99445.363,22.095,113.317
广东,肇庆市,17.983,28.003,5.212,14.466,0.487,52.272,-6.797,-3.384,301.831,73.881,97626.11,23.505,112.199
广东,茂名市,12.882,23.147,9.095,9.363,0.464,64.26,-7.174,-7.791,301.516,75.464,97361.447,22.013,110.952
广东,阳江市,14.852,24.598,8.748,14.566,0.422,54.065,-8.578,-6.664,301.028,81.989,97878.946,22.042,111.786
广东,韶关市,15.925,24.787,5.229,8.912,0.729,55.512,-3.938,-2.268,300.313,78.303,95441.241,24.785,113.819
广西,北海市,11.091,22.597,8.714,7.518,0.697,69.01,-2.564,-7.469,303.706,67.171,99217.905,21.674,109.37
广西,南宁市,18.902,29.465,9.181,8.342,0.627,61.293,-3.364,-7.51,302.898,68.926,97641.831,23.051,108.469
广西,崇左市,19.549,32.789,10.254,5.364,0.495,66.208,-1.569,-7.332,301.947,71.531,96473.176,22.483,107.291
广西,来宾市,21.162,30.943,9.769,6.629,0.57,57.733,-4.74,-7.498,302.223,70.141,96541.201,23.859,109.417
广西,柳州市,23.945,35.254,11.74,6.279,0.543,62.42,-3.98,-8.123,301.736,70.507,96084.197,24.956,109.372
广西,桂林市,21.791,32.775,10.792,7.638,0.474,63.941,-5.549,-7.57,300.284,75.443,94538.153,25.353,110.513
广西,梧州市,17.184,29.176,7.229,7.712,0.525,58.422,-6.289,-5.305,302.184,71.0,97246.743,23.484,110.996
广西,河池市,24.784,38.43,13.116,3.777,0.512,58.629,-4.177,-8.155,300.444,72.13,93909.755,24.628,107.843
广西,玉林市,15.156,26.521,8.418,7.652,0.606,73.539,-5.342,-7.4,302.426,70.178,97541.765,22.452,110.164
广西,百色市,27.908,44.613,14.405,4.567,0.562,59.955,-2.059,-6.776,299.136,74.942,91977.687,23.981,106.292
广西,贵港市,16.213,27.391,7.783,7.056,0.577,64.117,-5.394,-6.375,303.199,67.518,98051.214,23.322,110.021
广西,贺州市,17.358,28.559,9.13,6.645,0.411,56.284,-5.541,-5.928,301.169,73.388,95596.838,24.364,111.394
广西,钦州市,13.535,23.783,7.7,7.971,0.705,66.741,-2.782,-7.824,303.475,67.296,98608.005,22.173,109.01
广西,防城港市,19.853,30.714,8.982,7.413,0.652,66.098,-0.326,-7.769,302.062,72.95,97175.122,21.88,108.002
新疆,乌鲁木齐市,17.53,28.996,2.077,10.03,0.224,75.269,-1.331,1.755,294.325,31.242,84392.023,43.746,87.818
新疆,五家渠市,11.86,20.677,2.057,10.83,0.213,71.47,-4.797,0.347,301.267,21.59,96044.407,44.363,87.517
新疆,伊犁哈萨克自治州,15.196,18.533,1.379,4.036,0.201,81.471,0.144,1.779,293.38,38.076,80550.355,43.438,82.146
新疆,克孜勒苏柯尔克孜自治州,27.577,43.263,0.469,1.724,0.166,88.229,-1.786,3.022,286.759,36.757,71069.066,39.661,75.949
新疆,克拉玛依市,7.585,14.028,2.698,5.318,0.288,79.807,-3.771,-2.409,299.689,21.363,96926.035,45.457,85.207
新疆,北屯市,3.934,4.808,5.474,2.016,0.432,69.912,-2.31,0.998,296.81,18.89,95236.744,47.27,87.868
新疆,博尔塔拉蒙古自治州,19.714,24.954,3.538,4.02,0.196,85.07,-0.726,0.821,293.406,34.606,86214.647,44.714,82.114
新疆,双河市,21.134,28.378,4.872,5.222,0.192,88.132,-1.886,-0.384,299.868,23.592,97322.5,44.87,82.474
新疆,可克达拉市,19.89,35.022,4.072,14.616,0.476,80.5,-4.164,-0.042,302.654,26.244,94065.218,43.918,80.786
新疆,和田地区,29.094,32.182,0.347,1.196,0.112,85.435,-3.242,0.69,290.072,35.56,74295.598,37.059,80.934
新疆,哈密市,8.487,9.063,0.849,1.826,0.164,80.456,-0.732,1.342,297.184,25.286,88336.117,43.042,93.517
新疆,喀什地区,28.004,39.989,0.654,2.097,0.158,84.255,-2.69,1.959,291.643,35.945,76371.796,38.125,77.178
新疆,图木舒克市,26.845,27.97,1.313,1.082,0.123,73.178,-3.237,1.258,301.887,23.502,89078.957,39.892,79.182
新疆,塔城地区,10.821,14.436,2.972,3.982,0.227,79.634,-1.96,1.251,295.27,27.932,89455.692,45.642,84.789
新疆,巴音郭楞蒙古自治州,16.989,18.546,0.509,0.488,0.111,87.787,-2.856,0.377,292.678,29.03,79404.077,39.463,87.481
新疆,新星市,9.325,13.79,2.455,11.505,0.505,74.005,-2.005,-0.155,301.015,19.845,92557.415,42.75,93.68
新疆,昆玉市,32.883,68.943,1.62,9.067,0.15,82.147,-3.793,2.667,301.067,15.26,86834.57,37.457,79.093
新疆,昌吉回族自治州,9.349,12.843,1.317,4.893,0.162,77.912,-2.207,0.294,297.203,25.263,89759.523,44.342,88.608
新疆,石河子市,17.19,35.785,8.33,26.635,0.42,89.08,-3.225,0.195,299.835,23.715,94265.32,44.245,86.035
新疆,胡杨河市,9.722,14.602,2.088,4.93,0.278,78.008,-5.26,-1.926,300.572,19.282,97323.986,44.852,84.772
新疆,铁门关市,32.15,71.463,1.74,4.267,0.187,68.597,-0.853,-1.393,302.497,21.837,91430.963,41.773,85.66
新疆,阿克苏地区,34.195,42.729,0.949,1.724,0.174,76.236,0.732,0.325,298.185,28.573,85329.955,40.965,81.578
新疆,阿勒泰地区,4.671,5.063,2.235,1.215,0.194,75.959,-2.469,1.284,293.536,22.08,88521.048,46.902,88.421
新疆,阿拉尔市,31.103,46.999,1.186,2.65,0.234,75.208,-0.184,-1.518,302.19,24.707,89898.057,40.629,80.998
江苏,南京市,19.0,32.376,6.912,15.673,0.501,51.806,-1.973,-7.283,301.362,78.741,99887.409,31.899,118.876
江苏,南通市,7.929,16.38,2.29,4.044,0.173,55.786,-5.151,-11.322,301.573,83.192,99767.804,32.201,120.979
江苏,宿迁市,18.752,30.443,6.535,12.006,0.424,63.87,-3.136,-6.652,300.847,79.83,100242.248,33.765,118.495
江苏,常州市,19.161,33.032,7.087,16.122,0.543,51.458,-1.549,-9.162,301.332,81.119,99801.41,31.613,119.666
江苏,徐州市,19.586,38.858,11.385,19.197,0.62,64.434,-1.924,-4.833,300.342,75.273,100105.089,34.363,117.513
江苏,扬州市,17.483,28.481,4.287,8.752,0.311,57.778,-3.571,-7.923,301.279,80.24,100063.619,32.709,119.486
江苏,无锡市,18.784,33.556,8.242,17.73,0.58,48.671,-1.442,-9.935,301.29,82.03,99638.812,31.546,120.066
江苏,泰州市,15.093,24.369,3.943,7.862,0.286,56.941,-4.11,-9.114,301.48,79.999,99948.22,32.605,120.048
江苏,淮安市,17.325,26.823,3.981,8.027,0.29,62.048,-3.493,-6.154,301.164,81.413,100154.153,33.362,118.985
江苏,盐城市,11.509,19.958,2.571,4.31,0.186,67.249,-5.553,-7.905,301.486,82.417,100145.064,33.529,120.156
江苏,苏州市,14.714,27.476,5.982,15.192,0.426,50.191,-1.17,-11.37,301.395,83.334,99641.439,31.374,120.661
江苏,连云港市,15.114,26.785,4.617,8.839,0.275,73.369,-4.745,-5.601,300.584,84.627,100200.034,34.519,119.133
江苏,镇江市,19.286,32.676,6.713,14.466,0.47,51.323,-2.332,-8.616,301.172,80.369,99854.244,32.016,119.49
江西,上饶市,17.887,33.623,9.039,8.397,0.547,66.859,-1.522,-4.282,301.898,70.571,97796.768,28.778,117.47
江西,九江市,18.568,38.184,6.76,11.944,0.604,71.617,-1.95,-6.114,301.056,76.907,97886.393,29.313,115.444
江西,南昌市,15.989,35.767,6.395,10.617,0.673,74.314,-2.462,-6.166,303.505,68.579,99578.882,28.671,116.016
江西,吉安市,17.406,32.16,9.205,7.28,0.537,66.108,-2.516,-4.253,302.213,72.094,97383.077,26.954,114.831
江西,宜春市,17.419,36.399,7.495,10.205,0.574,67.952,-2.663,-5.946,301.987,72.703,97786.174,28.29,114.974
江西,抚州市,18.151,31.077,7.497,6.192,0.497,70.245,-1.798,-2.753,301.941,71.996,97379.657,27.514,116.42
江西,新余市,19.252,40.412,10.296,12.377,0.603,62.793,-2.767,-5.556,302.691,71.989,98639.748,27.847,114.836
江西,景德镇市,17.262,31.584,7.789,6.94,0.576,60.777,-1.597,-5.049,302.21,70.703,98612.629,29.287,117.24
江西,萍乡市,17.276,36.593,10.318,10.664,0.516,57.034,-3.864,-5.047,301.437,73.603,96509.119,27.505,113.908
江西,赣州市,16.476,26.791,6.269,6.641,0.822,60.058,-2.005,-1.524,300.619,77.806,95782.723,25.692,115.279
江西,鹰潭市,19.953,35.173,9.448,8.618,0.555,75.391,-2.437,-3.268,302.617,68.347,98281.59,28.222,117.094
河北,保定市,18.638,32.062,5.344,13.731,0.375,94.483,-4.636,-5.42,297.707,62.529,97612.716,39.018,115.159
河北,唐山市,15.251,28.847,11.538,18.69,0.538,77.437,-7.037,-5.985,298.966,53.702,100667.719,39.731,118.354
河北,廊坊市,15.325,35.477,5.851,21.62,0.597,88.58,-5.284,-5.356,299.69,56.298,101196.933,39.267,116.632
河北,张家口市,20.154,29.304,5.933,6.816,0.272,82.371,-3.26,1.387,291.927,71.269,88039.611,40.877,115.042
河北,承德市,15.157,21.122,5.112,6.859,0.251,68.901,-4.671,-2.916,292.377,69.46,91286.823,41.339,117.578
河北,沧州市,16.135,33.452,7.598,12.591,0.505,89.719,-7.415,-7.648,299.391,65.842,101053.18,38.258,116.744
河北,石家庄市,18.162,35.877,6.769,15.862,0.488,83.536,-3.395,-6.003,297.602,67.776,98082.787,38.135,114.407
河北,秦皇岛市,12.04,19.381,7.328,10.448,0.278,76.653,-7.212,-7.38,297.129,54.915,98515.915,40.12,119.193
河北,衡水市,16.221,32.6,8.853,13.667,0.518,86.241,-5.726,-9.021,299.597,64.235,100874.406,37.755,115.813
河北,邢台市,16.089,33.747,8.518,14.239,0.568,80.55,-2.491,-10.687,298.354,70.31,99443.177,37.195,114.815
河北,邯郸市,14.99,33.321,9.858,14.718,0.723,77.001,-2.518,-12.12,298.071,73.545,98863.215,36.538,114.596
河南,三门峡市,26.271,43.125,11.182,10.877,0.617,95.641,-4.078,-3.53,296.82,65.76,91485.46,34.362,111.101
河南,信阳市,20.492,38.764,11.883,10.518,0.515,81.627,-0.991,-7.448,299.349,75.088,99240.023,32.091,114.907
河南,南阳市,19.281,36.645,8.157,10.493,0.581,93.656,-3.606,-6.856,299.251,68.213,97463.661,33.034,112.323
河南,周口市,16.438,37.502,9.469,13.624,0.677,64.045,-0.592,-6.474,298.905,77.487,100054.632,33.738,114.884
河南,商丘市,19.015,36.527,9.591,13.853,0.699,68.242,-0.604,-5.774,299.572,75.619,100085.868,34.277,115.718
河南,安阳市,15.847,35.736,10.98,16.628,0.924,74.019,-1.459,-12.685,297.675,76.027,98407.762,35.888,114.318
河南,平顶山市,19.346,38.962,8.367,15.823,0.762,78.978,-2.424,-7.802,298.284,74.654,98122.364,33.8,113.025
河南,开封市,16.991,36.678,8.204,14.382,0.771,71.57,-1.773,-9.397,298.842,77.329,99872.261,34.594,114.514
河南,新乡市,16.306,34.768,9.465,15.276,0.849,74.542,-3.302,-12.612,298.66,73.068,99075.68,35.256,114.111
河南,洛阳市,23.92,43.521,11.162,15.23,0.777,87.783,-2.959,-4.775,296.52,74.348,93752.807,34.274,112.019
河南,济源市,14.43,35.355,11.169,16.712,0.946,82.807,-3.291,-5.234,298.827,61.114,95527.988,35.105,112.445
河南,漯河市,16.136,38.889,8.865,16.922,0.726,64.688,-1.349,-7.191,298.581,78.04,99975.793,33.652,113.945
河南,濮阳市,15.242,31.064,9.614,13.457,0.714,71.446,-2.223,-11.397,299.169,77.603,100179.629,35.809,115.283
河南,焦作市,14.944,36.151,8.462,18.288,0.886,74.129,-4.471,-4.594,299.859,63.199,98946.844,35.121,113.163
河南,许昌市,16.725,38.852,7.658,17.548,0.783,69.961,-2.511,-8.756,298.537,76.377,99370.494,34.075,113.707
河南,郑州市,17.649,39.522,7.408,19.208,0.865,73.896,-3.848,-8.654,298.062,75.128,98187.597,34.634,113.438
河南,驻马店市,18.107,38.695,10.01,13.057,0.606,70.864,-0.787,-7.257,298.391,77.971,99629.111,32.925,114.174
河南,鹤壁市,15.912,36.473,11.678,18.882,0.987,73.463,-1.363,-13.574,298.534,73.336,99494.939,35.716,114.319
浙江,丽水市,16.006,27.39,5.469,10.22,0.358,56.939,2.469,-3.934,298.281,78.828,93187.195,28.194,119.51
浙江,台州市,16.668,27.768,7.258,12.134,0.438,51.998,7.447,-4.776,300.333,77.866,96975.623,28.742,121.109
浙江,嘉兴市,15.127,26.953,5.545,16.529,0.506,46.785,2.493,-9.873,301.095,84.157,99539.608,30.635,120.754
浙江,宁波市,13.017,23.38,6.501,14.199,0.487,47.525,7.833,-7.392,300.461,85.884,98216.16,29.706,121.49
浙江,杭州市,16.809,28.808,6.028,11.516,0.508,52.751,2.349,-6.903,299.875,80.66,97040.616,29.891,119.464
浙江,温州市,16.647,28.019,5.709,12.745,0.424,51.166,5.168,-3.478,300.355,73.327,95995.261,27.897,120.411
浙江,湖州市,17.888,31.236,6.219,16.008,0.557,51.203,1.939,-8.431,300.369,84.567,98555.837,30.757,119.871
浙江,绍兴市,18.759,32.198,6.866,15.532,0.643,47.655,5.57,-6.712,299.692,86.753,97637.636,29.709,120.64
浙江,舟山市,3.175,15.013,2.3,3.328,0.15,47.73,6.152,-9.538,300.855,91.332,98912.882,30.038,122.23
浙江,衢州市,15.176,28.182,7.507,11.239,0.411,58.951,-0.031,-4.419,300.669,72.406,96403.679,28.912,118.675
浙江,金华市,17.706,30.675,6.743,13.556,0.497,52.692,3.863,-5.05,299.529,81.279,96510.348,29.109,119.967
海南,万宁市,18.299,24.907,6.402,3.29,0.264,63.877,9.954,1.859,302.099,72.934,98138.782,18.842,110.294
海南,三亚市,12.131,25.849,4.964,3.91,0.379,51.419,10.994,-0.209,299.641,87.816,97176.597,18.413,109.407
海南,东方市,23.795,31.805,6.74,2.83,0.252,67.996,8.907,-1.775,299.837,90.087,97803.381,18.971,108.838
海南,临高县,13.976,24.593,6.22,4.817,0.386,65.48,5.714,-4.557,300.894,87.56,98646.897,19.821,109.733
海南,乐东黎族自治县,17.971,27.974,5.672,2.713,0.272,58.012,9.912,-1.409,299.033,89.758,96325.408,18.659,109.072
海南,五指山市,19.79,28.634,6.45,2.948,0.27,59.3,9.818,-0.712,297.11,93.436,93147.696,18.81,109.518
海南,儋州市,19.276,27.894,6.481,4.099,0.304,71.945,8.544,-2.938,300.459,89.159,98419.286,19.568,109.399
海南,定安县,12.267,21.39,6.482,8.042,0.458,55.247,9.212,-0.548,300.853,85.025,98260.447,19.47,110.28
海南,屯昌县,14.682,22.694,6.41,5.642,0.372,60.446,9.99,-0.888,300.336,85.146,97582.702,19.342,110.076
海南,文昌市,15.347,25.02,7.032,5.674,0.434,60.227,4.071,3.762,301.32,84.898,98961.697,19.707,110.773
海南,昌江黎族自治县,24.867,33.227,7.3,3.172,0.268,72.106,8.813,-2.021,299.127,92.669,96757.593,19.233,109.016
海南,海口市,10.864,22.402,7.142,8.018,0.526,53.91,2.57,-1.088,301.118,87.338,98758.05,19.842,110.393
海南,澄迈县,11.423,21.519,6.4,7.249,0.45,56.723,6.996,-3.427,300.651,87.45,98421.704,19.676,109.989
海南,琼中黎族苗族自治县,18.727,26.319,6.673,3.403,0.293,64.135,10.965,-0.869,299.389,84.797,95567.899,19.087,109.847
海南,琼海市,16.043,23.313,6.78,4.905,0.347,62.823,9.698,1.068,301.963,77.092,98838.498,19.22,110.43
海南,白沙黎族自治县,21.345,29.384,7.109,3.41,0.286,68.472,9.246,-1.072,298.404,92.018,95384.089,19.2,109.388
海南,陵水黎族自治县,15.82,25.037,5.98,3.467,0.287,57.343,10.24,1.204,301.193,76.44,97594.187,18.581,109.913
湖北,仙桃市,18.921,35.034,7.376,6.072,0.648,97.68,-2.858,-8.454,302.21,64.777,100078.758,30.284,113.417
湖北,十堰市,23.337,36.294,9.793,6.272,0.456,87.69,-3.826,-2.462,298.359,64.635,92853.09,32.462,110.476
湖北,咸宁市,22.362,38.616,5.37,9.333,0.71,88.95,-1.999,-7.316,300.846,74.962,98192.076,29.621,114.178
湖北,天门市,18.123,35.568,9.678,7.811,0.64,95.667,-3.005,-8.232,302.23,62.536,100091.183,30.633,113.053
湖北,孝感市,19.162,33.973,7.905,7.375,0.572,92.4,-2.388,-8.543,300.876,67.666,99525.385,31.116,113.869
湖北,宜昌市,20.295,36.089,8.25,10.24,0.604,88.789,-3.67,-6.571,298.286,66.065,93466.144,30.746,111.129
湖北,恩施土家族苗族自治州,26.639,38.21,10.266,8.018,0.6,76.432,-5.31,-3.743,296.726,63.7,89111.101,30.195,109.552
湖北,武汉市,20.566,35.9,5.767,10.045,0.672,91.123,-2.162,-8.48,301.807,67.786,99943.768,30.606,114.349
湖北,潜江市,18.636,37.481,10.171,8.524,0.694,96.746,-3.009,-8.216,302.523,61.879,100083.82,30.33,112.77
湖北,神农架林区,24.864,32.642,8.814,2.637,0.331,89.845,-3.618,-7.644,290.787,81.705,82874.572,31.592,110.49
湖北,荆州市,18.791,37.138,8.792,8.646,0.725,96.035,-3.102,-8.634,302.514,62.303,99843.918,30.01,112.512
湖北,荆门市,17.702,36.594,10.78,9.26,0.633,93.163,-2.487,-8.432,301.253,64.169,99191.674,31.059,112.616
湖北,襄阳市,19.209,39.513,9.001,10.276,0.612,93.382,-2.535,-7.008,299.022,69.297,96710.563,31.919,111.96
湖北,鄂州市,23.066,39.127,6.517,11.107,0.694,91.301,-1.159,-8.049,302.114,69.637,99927.204,30.337,114.794
湖北,随州市,18.994,35.81,10.8,9.14,0.569,89.619,-2.568,-7.917,299.404,71.076,98551.549,31.809,113.43
湖北,黄冈市,22.655,38.127,7.904,11.907,0.576,83.81,-2.169,-7.068,300.915,72.298,98258.006,30.702,115.358
湖北,黄石市,23.158,42.272,6.14,13.888,0.712,83.436,-0.415,-6.29,301.474,74.435,98945.77,29.925,115.034
湖南,娄底市,21.145,36.551,6.276,7.955,0.852,79.354,-2.803,-8.662,299.743,77.257,96108.647,27.715,111.632
湖南,岳阳市,21.151,37.04,6.994,6.861,0.72,89.079,-2.942,-8.123,301.909,69.814,98850.425,29.081,113.275
湖南,常德市,18.311,36.321,9.385,10.38,0.743,89.674,-3.901,-8.488,301.77,63.067,98221.647,29.271,111.524
湖南,张家界市,19.985,35.526,8.943,12.204,0.726,77.513,-5.788,-6.154,299.576,63.976,94521.47,29.379,110.526
湖南,怀化市,18.289,35.734,8.204,7.529,0.817,71.019,-4.529,-7.105,299.808,72.646,95296.493,27.535,110.071
湖南,株洲市,16.557,32.188,9.327,9.646,0.517,61.131,-3.307,-5.428,301.648,72.026,96618.124,27.109,113.513
湖南,永州市,21.871,35.131,8.721,9.85,0.595,59.166,-3.944,-7.093,299.949,79.799,95262.337,25.748,111.723
湖南,湘潭市,20.342,38.378,5.487,13.338,0.795,76.874,-1.312,-8.552,301.997,72.16,98875.353,27.744,112.619
湖南,湘西土家族苗族自治州,20.29,36.659,6.591,9.256,0.837,60.151,-5.352,-4.697,299.805,64.988,94441.203,28.708,109.718
湖南,益阳市,19.973,37.113,6.535,7.067,0.847,87.617,-3.061,-8.234,300.735,73.004,97667.936,28.525,111.919
湖南,衡阳市,18.911,34.37,7.505,11.774,0.687,64.366,-2.006,-7.664,302.303,71.323,98326.384,26.781,112.565
湖南,邵阳市,23.148,37.29,8.462,7.916,0.667,74.329,-4.191,-7.722,298.741,79.98,93947.756,26.893,110.881
湖南,郴州市,13.155,23.819,6.555,7.519,0.831,57.615,-3.052,-4.739,300.122,77.531,94434.475,25.769,113.109
湖南,长沙市,20.655,37.424,6.796,10.284,0.7,75.69,-2.239,-7.942,301.931,70.843,98317.532,28.235,113.159
甘肃,临夏回族自治州,31.062,54.153,9.261,8.642,0.419,80.762,-2.872,0.052,290.183,64.305,77920.248,35.617,103.291
甘肃,兰州市,29.154,46.816,6.573,7.274,0.314,79.035,-3.202,-2.598,291.361,52.758,79524.536,36.359,103.633
甘肃,嘉峪关市,12.573,33.013,9.305,41.438,0.673,82.968,-4.232,1.48,290.292,50.383,82090.843,39.798,98.145
甘肃,天水市,40.718,74.809,8.961,6.99,0.381,86.25,-1.154,-1.603,293.935,68.174,82836.0,34.645,105.739
甘肃,定西市,34.341,60.977,9.232,4.629,0.304,87.749,-1.181,-1.603,289.766,68.681,77686.978,35.124,104.432
甘肃,平凉市,33.348,76.056,9.042,8.38,0.458,85.488,-1.211,-2.541,295.324,66.402,84603.313,35.304,106.644
甘肃,庆阳市,32.785,62.53,11.551,5.513,0.486,83.682,-2.198,-1.169,296.076,66.607,85846.073,36.149,107.596
甘肃,张掖市,20.527,23.703,2.715,3.762,0.167,80.582,-1.703,-0.286,285.383,72.384,75251.313,38.94,99.855
甘肃,武威市,25.195,29.064,2.903,1.737,0.152,80.56,0.48,-3.457,289.787,59.231,81865.01,38.163,103.073
甘肃,甘南藏族自治州,38.037,46.552,6.464,1.572,0.246,90.061,-2.225,1.505,283.57,87.502,68301.675,34.331,102.768
甘肃,白银市,26.727,45.745,6.704,3.53,0.255,82.07,-0.233,-5.341,293.029,50.198,81832.502,36.59,104.646
甘肃,酒泉市,7.427,8.543,1.29,2.186,0.133,91.625,-2.936,-0.038,290.201,38.636,79541.548,40.236,96.062
甘肃,金昌市,21.114,30.988,8.671,5.106,0.168,79.795,0.032,-1.344,287.621,65.501,81123.375,38.44,102.048
甘肃,陇南市,36.827,57.359,11.852,3.681,0.356,90.123,-1.178,-3.341,293.829,69.709,82339.18,33.599,105.224
福建,三明市,13.71,25.002,5.819,7.059,0.526,48.848,-0.697,-0.856,299.228,79.251,93857.459,26.29,117.395
福建,南平市,14.622,25.37,5.803,6.162,0.388,58.662,0.336,-2.062,299.812,76.126,94573.548,27.324,118.143
福建,厦门市,16.752,29.78,6.452,17.203,0.412,53.737,-0.043,1.7,300.212,87.123,98844.012,24.642,118.11
福建,宁德市,13.34,23.85,4.347,6.971,0.347,54.99,1.97,-1.347,299.401,76.641,93868.821,26.968,119.474
福建,泉州市,17.566,30.568,5.281,11.472,0.399,62.867,0.175,1.192,298.749,86.221,95227.917,25.201,118.249
福建,漳州市,12.27,21.581,3.558,9.525,0.379,49.489,-1.052,1.328,299.431,87.146,96764.495,24.372,117.444
福建,福州市,13.442,27.342,5.455,10.743,0.43,63.465,1.301,0.863,299.805,81.292,95903.449,26.083,119.206
福建,莆田市,16.542,30.095,6.098,11.434,0.415,76.193,0.84,1.398,299.478,86.448,96677.495,25.445,118.864
福建,龙岩市,16.595,29.092,5.347,8.898,0.482,48.884,-1.7,0.438,299.023,80.556,93843.896,25.256,116.739
西藏,山南市,9.765,10.76,0.46,1.467,0.119,73.636,-0.864,1.11,284.217,81.405,66428.878,28.295,92.274
西藏,拉萨市,8.886,13.185,0.554,2.727,0.132,89.326,0.119,3.414,280.068,74.575,57132.59,30.043,91.093
西藏,日喀则市,11.917,12.842,0.703,0.596,0.135,110.869,3.293,2.352,278.574,78.009,55834.302,29.483,86.493
西藏,昌都市,21.504,23.147,2.435,0.848,0.147,86.846,-0.439,2.706,280.421,78.068,59667.932,30.753,97.044
西藏,林芝市,15.629,16.286,1.341,1.458,0.121,78.354,-0.837,1.071,283.876,84.576,66724.029,29.184,95.25
西藏,玉树藏族自治州,8.906,9.354,0.384,0.444,0.107,81.437,-2.484,-0.907,277.585,78.932,58054.878,34.196,94.317
西藏,那曲市,8.374,8.844,0.405,0.283,0.118,100.977,-1.845,1.544,279.704,70.837,56030.655,32.709,89.262
西藏,阿里地区,6.723,7.079,0.484,0.326,0.134,89.523,-0.503,-1.857,279.299,65.382,55407.773,33.013,82.553
贵州,六盘水市,24.294,40.938,11.415,9.213,0.538,82.731,-3.107,-7.517,293.479,82.043,82797.01,26.106,104.896
贵州,安顺市,28.524,45.697,7.957,8.256,0.49,71.598,-3.776,-7.971,296.349,78.169,87599.757,25.986,105.978
贵州,毕节市,24.013,40.584,8.225,6.812,0.537,83.079,-1.422,-6.153,292.536,91.096,83213.882,27.063,105.211
贵州,贵阳市,29.171,44.281,5.117,12.842,0.535,56.649,-2.729,-6.376,295.197,85.365,87714.695,26.845,106.71
贵州,遵义市,30.634,42.387,11.18,7.647,0.442,64.417,-3.017,-3.503,297.21,76.869,89874.295,28.167,107.102
贵州,铜仁市,22.136,41.056,11.492,6.339,0.567,58.371,-4.909,-5.037,298.384,71.796,92059.81,27.937,108.534
贵州,黔东南苗族侗族自治州,24.832,40.361,13.839,5.833,0.525,67.574,-4.319,-7.609,297.602,81.025,91822.376,26.495,108.574
贵州,黔南布依族苗族自治州,25.928,38.939,9.214,5.698,0.44,65.731,-3.946,-7.703,297.022,79.542,89648.456,26.0,107.265
贵州,黔西南布依族苗族自治州,24.214,44.045,12.348,5.993,0.513,74.08,-3.064,-7.433,296.829,76.403,87929.864,25.256,105.467
辽宁,丹东市,12.253,18.646,5.533,6.195,0.307,69.054,-3.946,-6.013,296.166,62.1,98322.902,40.554,124.376
辽宁,大连市,18.349,28.425,7.024,10.359,0.516,83.078,-4.678,-6.802,298.573,60.463,100347.283,39.591,122.22
辽宁,抚顺市,11.395,16.839,4.222,6.399,0.303,64.544,-4.696,-4.988,292.657,72.3,96878.529,41.841,124.65
辽宁,朝阳市,11.038,18.832,5.404,7.883,0.306,70.824,-4.316,-5.588,295.138,57.713,96535.258,41.545,120.053
辽宁,本溪市,12.409,18.556,5.072,6.73,0.314,66.11,-3.599,-5.526,293.337,69.754,96166.538,41.232,124.544
辽宁,沈阳市,10.797,25.037,7.157,14.47,0.418,60.29,-3.77,-6.464,295.7,64.353,100923.808,42.081,123.159
辽宁,盘锦市,12.629,27.185,8.445,12.952,0.473,74.501,-4.149,-7.743,297.075,59.251,101430.591,41.13,122.01
辽宁,营口市,17.325,31.417,8.642,13.364,0.527,80.79,-3.963,-7.504,296.296,66.039,99160.199,40.395,122.478
辽宁,葫芦岛市,11.893,21.921,8.62,11.991,0.344,73.74,-4.952,-7.445,296.792,55.569,99027.45,40.66,120.215
辽宁,辽阳市,13.902,28.251,8.156,14.411,0.527,66.832,-3.565,-6.224,295.529,67.078,99467.956,41.153,123.261
辽宁,铁岭市,10.396,19.016,4.788,9.263,0.355,58.279,-4.46,-5.158,293.826,69.498,99492.228,42.653,124.158
辽宁,锦州市,10.398,20.451,6.183,9.358,0.354,70.522,-4.28,-7.06,296.96,55.382,100719.967,41.502,121.659
辽宁,阜新市,9.25,16.27,4.714,7.326,0.287,66.522,-4.085,-5.791,295.8,57.587,99409.417,42.289,121.968
辽宁,鞍山市,14.55,27.207,7.682,12.16,0.489,72.458,-3.588,-6.71,296.442,62.781,99462.605,40.731,123.007
重庆,重庆城区,34.066,48.401,11.311,15.818,0.542,82.986,-2.664,-1.523,301.432,60.362,94222.995,29.824,107.125
重庆,重庆郊县,29.93,40.58,12.527,7.403,0.457,74.362,-5.156,-3.218,298.57,60.165,90597.615,30.334,108.755
陕西,咸阳市,33.416,64.055,8.778,19.026,0.916,88.107,-3.757,-0.678,299.124,62.033,91178.028,34.779,108.367
陕西,商洛市,30.434,45.332,9.342,7.452,0.533,83.627,-3.413,-4.007,296.445,68.044,89123.848,33.64,109.889
陕西,安康市,30.756,44.442,11.71,6.748,0.525,72.493,-4.038,-2.058,296.982,69.752,89586.948,32.735,108.932
陕西,宝鸡市,37.399,73.378,6.085,12.572,0.566,80.817,-2.492,-1.476,295.658,71.553,86319.156,34.386,107.193
陕西,延安市,31.144,49.646,12.274,14.678,0.806,75.974,-3.756,0.219,296.148,61.983,87564.15,36.432,109.316
陕西,榆林市,27.956,48.196,12.97,20.847,0.697,82.799,-2.963,1.69,297.276,54.896,87953.737,38.041,109.581
陕西,汉中市,32.405,51.068,11.13,6.46,0.5,85.475,-3.255,-2.329,297.64,67.679,88720.05,33.088,107.098
陕西,渭南市,28.767,48.965,10.58,14.479,0.816,94.715,-5.456,-2.081,300.213,54.549,93423.924,34.919,109.855
陕西,西安市,36.128,64.027,7.617,17.724,0.816,86.229,-2.381,-1.896,297.904,66.491,90262.534,34.12,108.77
陕西,铜川市,33.709,53.591,10.122,13.523,0.974,86.87,-4.802,-1.428,297.359,62.832,89039.814,35.198,109.058
青海,保亭黎族苗族自治县,15.14,26.544,5.978,3.954,0.334,54.498,11.236,-0.518,299.152,85.082,95553.468,18.566,109.618
青海,吐鲁番市,12.191,15.943,1.348,2.49,0.14,79.448,0.048,1.54,299.792,23.779,90155.727,42.386,89.851
青海,果洛藏族自治州,29.697,31.405,3.967,0.783,0.155,80.353,-1.428,2.164,280.818,83.62,60719.84,34.127,99.404
青海,海东市,42.058,50.212,9.535,4.928,0.274,80.418,-5.535,1.531,286.822,74.053,73347.741,36.347,102.34
青海,海北藏族自治州,34.975,38.404,5.279,2.063,0.18,72.127,-3.058,1.408,281.008,91.801,66102.011,37.775,100.288
青海,海南藏族自治州,37.934,40.671,5.798,1.296,0.22,81.062,-3.536,1.078,284.488,81.42,67115.268,35.89,100.272
青海,海西蒙古族藏族自治州,8.718,9.008,0.673,0.452,0.111,89.615,-0.321,-1.121,282.331,58.479,65218.614,36.677,94.519
青海,西宁市,34.778,51.619,8.881,8.621,0.462,74.868,-4.461,2.449,284.336,85.929,70221.251,36.842,101.423
青海,黄南藏族自治州,39.735,43.13,5.961,1.103,0.211,90.56,-3.734,3.3,283.463,85.375,66503.85,35.022,101.631
香港,香港特别行政区,5.865,12.405,2.225,11.72,0.22,53.465,-7.305,2.195,301.165,87.74,99199.235,22.45,114.22
黑龙江,七台河市,7.203,14.222,2.99,5.994,0.28,44.305,-0.587,-5.254,288.904,69.129,98629.995,45.87,130.943
黑龙江,伊春市,7.677,12.082,1.435,2.174,0.217,42.266,-1.582,-1.667,289.489,71.041,97349.735,47.772,129.184
黑龙江,佳木斯市,4.796,8.063,1.766,3.701,0.278,46.266,-1.712,-5.326,289.727,67.506,100619.619,47.207,132.11
黑龙江,双鸭山市,4.488,6.713,1.502,2.766,0.261,48.452,-0.834,-6.239,289.005,70.775,100129.885,46.722,132.643
黑龙江,哈尔滨市,7.252,11.31,2.275,4.533,0.255,54.232,-2.731,-2.597,290.846,67.476,98988.172,45.634,127.964
黑龙江,大兴安岭地区,7.643,8.088,0.986,1.223,0.175,61.41,1.059,5.36,292.679,63.092,95298.245,52.286,124.212
黑龙江,大庆市,8.63,15.373,3.338,5.841,0.319,52.22,-2.563,-1.336,293.158,60.043,100305.88,46.327,124.687
黑龙江,牡丹江市,7.559,11.55,2.428,4.705,0.236,53.193,-1.329,-5.675,288.044,72.7,95838.393,44.592,129.883
黑龙江,绥化市,8.486,12.237,1.608,3.284,0.256,52.358,-1.903,-1.542,291.803,67.47,99551.982,46.89,126.634
黑龙江,鸡西市,5.669,8.506,1.924,3.721,0.235,49.369,0.048,-7.239,289.433,70.105,99749.531,45.626,132.289
黑龙江,鹤岗市,6.084,10.789,1.571,3.611,0.31,45.51,-1.311,-2.869,289.659,68.764,99726.489,47.661,130.778
黑龙江,黑河市,5.546,8.099,0.96,1.746,0.21,55.353,-1.392,-0.339,290.836,62.221,97744.7,49.268,127.004
黑龙江,齐齐哈尔市,7.085,9.743,1.84,3.645,0.237,56.705,-1.42,-0.842,292.298,58.428,99556.967,47.715,124.57
