province,city,PM2.5,PM10,SO2,NO2,CO,O3,U,V,TEMP,RH,PSFC,lat,lon
上海,上海市,16.828,28.031,5.261,20.96,0.465,69.756,-6.572,-7.931,299.889,83.569,100420.054,31.173,121.42
云南,临沧市,14.88,22.412,3.933,3.29,0.47,47.202,2.327,0.303,293.093,88.836,83388.96,23.935,99.686
云南,丽江市,34.713,57.543,15.068,5.7,0.682,73.427,0.802,2.108,289.53,82.865,74386.167,26.96,100.515
云南,保山市,17.54,29.086,6.303,4.402,0.466,56.367,1.687,0.368,292.18,89.394,81410.252,24.953,98.962
云南,大理白族自治州,22.071,45.563,9.584,4.686,0.5,70.533,1.091,1.305,291.102,82.89,77744.423,25.726,100.053
云南,德宏傣族景颇族自治州,16.427,19.533,6.315,3.54,0.322,45.056,1.666,0.374,293.415,93.001,85517.571,24.535,98.052
云南,怒江傈僳族自治州,32.684,44.904,8.215,1.863,0.333,68.104,1.378,0.127,287.09,91.884,72581.464,26.916,98.885
云南,文山壮族苗族自治州,35.154,51.08,11.488,4.577,0.467,80.446,-1.608,-0.225,293.751,87.53,85958.588,23.696,104.735
云南,昆明市,38.294,57.753,12.019,11.109,0.571,90.479,-2.233,2.393,290.941,84.257,78869.818,25.384,102.863
云南,昭通市,32.672,58.52,12.046,7.753,0.608,99.322,-1.34,1.022,294.154,71.666,83568.782,27.667,103.985
云南,普洱市,14.608,21.355,3.381,3.087,0.38,44.247,1.415,0.831,294.188,87.815,85384.047,23.159,100.718
云南,曲靖市,40.476,61.009,12.532,9.307,0.585,92.526,-1.43,1.821,290.923,81.714,79652.074,25.737,103.929
云南,楚雄彝族自治州,32.792,52.748,10.88,7.513,0.534,77.917,-0.631,2.403,293.002,79.67,80532.395,25.328,101.567
云南,玉溪市,25.232,41.201,6.871,5.108,0.362,74.989,-1.646,1.923,293.31,85.159,82957.28,24.136,102.217
云南,红河哈尼族彝族自治州,23.764,36.519,8.101,3.712,0.373,74.698,-1.567,1.179,293.527,87.738,84600.146,23.451,103.034
云南,西双版纳傣族自治州,9.423,14.506,2.752,3.583,0.392,30.216,2.427,1.8,295.029,89.318,88320.015,21.939,100.912
云南,迪庆藏族自治州,30.394,43.681,8.061,2.332,0.38,69.7,2.564,1.346,284.379,89.68,67217.316,27.957,99.459
内蒙古,乌兰察布市,24.293,39.162,10.372,11.302,0.461,81.174,1.478,1.953,292.964,56.79,85646.857,41.691,112.44
内蒙古,乌海市,26.789,51.956,22.604,26.303,0.716,94.58,-0.34,1.97,298.229,32.58,87186.595,39.396,106.856
内蒙古,兴安盟,9.5,11.4,2.531,2.476,0.208,62.963,-0.147,-5.795,289.298,81.486,94233.068,46.244,121.341
内蒙古,包头市,21.815,35.997,8.207,13.061,0.41,74.43,0.5,0.556,293.675,50.608,85604.799,41.549,110.276
内蒙古,呼伦贝尔市,8.945,11.058,1.957,2.168,0.209,61.763,-0.93,-0.27,290.98,70.688,93214.651,49.636,121.171
内蒙古,呼和浩特市,29.603,55.759,11.591,22.568,0.751,82.366,0.185,1.675,293.363,58.855,85988.886,40.578,111.513
内蒙古,巴彦淖尔市,18.223,25.853,6.635,9.49,0.276,66.324,-1.85,-0.173,295.246,43.113,86906.717,41.446,107.582
内蒙古,赤峰市,8.843,11.552,3.049,3.246,0.21,71.708,1.033,-3.849,290.948,66.484,91471.096,43.226,118.892
内蒙古,通辽市,10.285,13.15,4.035,3.166,0.205,70.577,2.635,-6.269,290.911,81.971,97017.918,43.814,121.591
内蒙古,鄂尔多斯市,26.716,41.224,11.199,11.498,0.454,86.664,0.759,2.255,296.405,40.984,86598.641,39.407,108.63
内蒙古,锡林郭勒盟,8.44,10.395,3.411,1.844,0.189,73.26,-1.716,-0.01,291.478,58.476,88720.715,44.179,115.482
内蒙古,阿拉善盟,20.2,23.05,3.491,2.486,0.168,81.699,0.331,-0.438,296.924,34.476,87049.736,40.473,102.467
北京,北京市,26.068,55.515,4.5,21.013,0.567,107.571,0.02,0.945,296.113,61.566,97157.466,40.158,116.395
台湾,台湾省,40.867,44.797,11.067,15.727,0.284,95.596,1.858,0.983,297.222,84.43,91698.508,23.757,120.975
吉林,吉林市,10.412,15.099,5.664,6.614,0.3,56.93,-0.569,2.377,290.939,90.726,96038.328,43.573,126.859
吉林,四平市,9.917,14.441,3.932,5.58,0.307,51.191,2.05,-0.309,290.985,92.747,98192.377,43.472,124.386
吉林,延边朝鲜族自治州,11.283,14.139,4.147,3.824,0.229,56.621,-0.551,0.342,290.333,89.808,93279.35,43.141,129.147
吉林,松原市,12.718,17.988,4.661,5.227,0.279,51.907,-1.911,-4.022,290.961,94.841,98544.736,44.785,124.496
吉林,白城市,12.354,15.72,4.583,3.688,0.224,63.721,-0.833,-7.882,290.818,90.791,98855.756,45.35,123.031
吉林,白山市,12.611,18.181,7.314,6.442,0.436,56.349,2.346,3.407,289.845,90.317,91496.405,42.063,127.256
吉林,辽源市,8.715,14.27,5.028,7.096,0.382,52.398,2.79,2.92,290.509,91.071,96419.556,42.836,125.32
吉林,通化市,11.123,18.822,8.319,8.756,0.518,52.907,2.906,3.153,290.44,90.194,94800.509,41.939,125.927
吉林,长春市,11.532,17.382,3.791,7.014,0.349,48.319,-1.478,-0.044,291.085,94.101,98073.335,44.268,125.611
四川,乐山市,43.488,62.554,8.862,12.736,0.617,87.959,-0.929,-0.246,295.951,77.631,88819.082,29.218,103.569
四川,内江市,32.866,58.23,10.56,22.12,0.755,91.175,-3.559,1.825,301.272,58.478,95594.034,29.62,104.95
四川,凉山彝族自治州,40.624,56.724,13.954,5.895,0.697,85.736,-0.376,2.5,288.589,82.54,73960.204,27.883,102.065
四川,南充市,41.678,66.708,10.276,23.617,0.791,82.2,-3.204,2.219,300.992,57.493,95718.177,31.19,106.199
四川,宜宾市,37.524,59.153,11.022,14.067,0.691,98.022,-1.5,0.327,300.464,59.475,93981.441,28.573,104.621
四川,巴中市,34.043,52.329,11.25,13.203,0.582,79.031,-3.057,1.904,297.939,62.754,91716.695,32.033,107.031
四川,广元市,30.898,54.319,15.137,12.426,0.72,66.161,-2.829,2.964,296.748,71.145,90834.41,32.261,105.788
四川,广安市,41.463,63.025,10.92,22.667,0.714,92.316,-2.732,3.342,301.514,52.751,95733.822,30.43,106.628
四川,德阳市,35.612,61.363,7.773,16.021,0.711,84.765,-1.012,-0.018,297.705,74.561,92268.997,31.13,104.436
四川,成都市,30.853,55.024,8.518,17.712,0.664,86.904,-1.315,-1.289,298.026,73.426,92389.175,30.64,103.929
四川,攀枝花市,45.46,67.281,25.569,18.606,1.06,81.891,-0.71,1.658,294.252,70.062,81032.972,26.791,101.734
四川,泸州市,32.489,50.857,10.64,14.209,0.531,88.968,-3.681,3.944,299.34,60.427,92498.7,28.424,105.675
四川,甘孜藏族自治州,24.178,27.595,4.221,1.467,0.185,82.674,1.057,1.355,281.121,81.835,61362.88,30.936,100.009
四川,眉山市,34.362,59.373,9.422,19.505,0.701,83.641,-1.736,-0.804,298.474,73.388,92798.649,29.912,103.766
四川,绵阳市,43.784,66.857,11.853,13.068,0.683,80.203,-1.645,2.83,294.284,82.098,87315.217,31.86,104.704
四川,自贡市,39.936,61.964,10.963,20.105,0.785,91.564,-3.179,0.539,301.141,59.563,95551.391,29.307,104.659
四川,资阳市,30.615,59.709,9.111,20.707,0.702,91.264,-3.434,2.465,301.417,58.446,95851.014,30.102,105.149
四川,达州市,37.893,56.278,12.614,22.568,0.58,88.655,-3.645,2.237,299.398,56.152,93236.161,31.335,107.636
四川,遂宁市,39.664,70.051,9.003,24.271,0.76,87.306,-3.37,2.879,301.557,57.563,96104.399,30.642,105.457
四川,阿坝藏族羌族自治州,30.645,40.752,8.177,2.078,0.284,78.706,0.605,3.725,282.601,86.944,65571.322,32.406,102.61
四川,雅安市,38.132,54.58,10.186,7.623,0.46,86.233,-1.981,-0.56,289.792,92.284,79681.196,29.932,102.689
天津,天津市,28.161,62.222,12.452,33.977,0.971,114.282,-0.806,1.262,298.093,56.722,100707.108,39.315,117.308
宁夏,中卫市,25.544,41.196,10.849,6.46,0.458,87.61,-2.067,2.373,292.388,69.878,83261.954,37.018,105.509
宁夏,吴忠市,27.233,44.894,11.203,6.54,0.385,86.692,-0.991,3.631,294.184,55.46,84782.969,37.454,106.577
宁夏,固原市,31.182,48.403,11.398,14.793,0.517,79.574,-2.147,4.821,289.3,86.369,80788.817,35.905,106.183
宁夏,石嘴山市,26.22,53.346,15.6,20.815,0.623,99.507,0.997,2.044,297.028,37.613,86332.248,39.013,106.499
宁夏,银川市,25.453,50.473,10.199,16.767,0.465,88.706,0.099,2.801,296.611,41.214,86626.028,38.287,106.342
安徽,亳州市,42.529,77.648,11.706,25.275,0.774,121.852,-3.558,-2.484,299.001,62.966,100463.22,33.44,116.162
安徽,六安市,31.551,53.791,8.994,22.261,0.573,118.6,-4.14,-3.291,297.439,68.277,97985.541,31.617,116.209
安徽,合肥市,28.322,48.818,8.082,22.861,0.598,103.231,-4.751,-4.058,298.921,67.859,100240.111,31.766,117.359
安徽,安庆市,28.32,45.041,10.128,13.48,0.619,117.568,-5.393,-6.733,298.355,66.395,98274.151,30.557,116.473
安徽,宣城市,29.831,47.334,8.038,19.107,0.76,73.422,-4.65,-5.915,297.151,83.718,98173.13,30.676,118.846
安徽,宿州市,44.32,76.454,11.143,31.605,0.829,123.59,-4.13,-2.216,298.518,66.077,100442.922,33.844,117.23
安徽,池州市,33.222,53.152,12.776,19.678,0.891,84.079,-4.743,-6.223,297.18,78.112,98384.959,30.296,117.379
安徽,淮北市,45.532,82.308,13.471,32.339,0.871,124.018,-3.844,-2.099,298.789,64.328,100476.328,33.722,116.747
安徽,淮南市,34.139,62.863,11.5,26.685,0.646,117.901,-4.52,-3.272,299.07,64.27,100460.555,32.463,116.746
安徽,滁州市,30.38,47.871,8.012,19.377,0.48,106.529,-4.955,-3.449,298.331,71.092,100195.348,32.55,118.076
安徽,芜湖市,32.987,54.035,10.699,25.848,0.916,78.914,-4.758,-5.323,298.413,77.827,100333.861,31.167,118.162
安徽,蚌埠市,38.258,61.892,9.821,26.86,0.628,119.236,-4.183,-2.484,298.625,66.23,100481.78,33.121,117.263
安徽,铜陵市,32.359,53.281,12.371,25.864,0.9,84.006,-4.758,-5.734,298.663,73.896,100177.21,30.883,117.531
安徽,阜阳市,35.491,76.803,12.413,24.659,0.773,119.582,-3.778,-2.71,299.094,62.475,100421.695,32.937,115.723
安徽,马鞍山市,30.692,50.885,9.04,22.971,0.736,88.456,-4.752,-5.024,298.235,77.641,100379.408,31.622,118.386
安徽,黄山市,29.135,45.254,10.228,11.724,0.778,87.57,-4.602,-7.098,296.444,80.423,96164.014,29.869,118.09
山东,东营市,25.904,52.642,11.108,17.809,0.538,110.804,-0.097,1.426,297.691,60.378,100848.633,37.57,118.572
山东,临沂市,33.705,68.671,9.133,20.243,0.623,116.5,-3.645,-1.773,296.305,71.215,99130.326,35.289,118.27
山东,威海市,14.186,27.95,8.0,10.335,0.359,99.697,1.58,-3.082,297.005,69.041,100231.442,37.148,122.028
山东,德州市,28.606,64.613,10.456,27.081,0.862,130.482,-1.898,1.868,298.588,54.723,100697.46,37.233,116.679
山东,日照市,23.111,47.421,6.552,14.277,0.423,102.87,-3.075,-1.93,295.836,74.454,99254.213,35.566,119.108
山东,枣庄市,41.569,86.94,12.442,28.557,0.786,132.995,-4.656,-1.373,298.03,64.742,99791.234,34.925,117.383
山东,泰安市,32.12,70.581,10.222,26.6,0.871,117.503,-3.703,-0.165,297.775,55.402,99022.119,35.993,117.04
山东,济南市,26.692,64.713,10.688,30.801,0.85,108.118,-3.012,0.755,298.097,52.089,99001.799,36.639,117.254
山东,济宁市,38.152,79.722,11.373,30.312,0.879,126.618,-3.789,-0.489,298.589,59.2,100220.433,35.375,116.697
山东,淄博市,27.465,59.557,11.619,26.674,0.83,97.164,-2.563,1.052,296.709,60.622,98434.838,36.623,118.062
山东,滨州市,24.871,53.223,11.05,21.066,0.683,116.488,-0.634,1.884,298.006,58.278,100788.198,37.516,117.852
山东,潍坊市,24.82,51.678,8.37,21.902,0.536,94.132,-0.842,0.408,296.483,67.74,99821.355,36.53,119.092
山东,烟台市,17.496,37.635,8.106,15.294,0.418,99.104,0.765,-1.799,296.543,70.542,99778.927,37.25,120.789
山东,聊城市,33.979,76.234,11.401,34.374,0.983,124.708,-1.94,1.668,298.966,57.807,100481.628,36.458,115.863
山东,菏泽市,42.428,86.988,10.919,36.658,0.956,122.809,-2.821,-0.891,298.96,61.016,100353.165,35.134,115.69
山东,青岛市,17.067,40.859,6.537,17.876,0.426,91.892,-0.225,-0.965,296.456,71.573,100343.838,36.46,120.172
山西,临汾市,50.654,76.758,10.681,16.67,1.062,135.187,-0.773,3.798,295.524,64.231,89673.423,36.227,111.398
山西,吕梁市,46.063,64.957,14.035,20.981,0.894,88.642,0.917,4.189,294.513,61.478,87371.017,37.663,111.27
山西,大同市,37.558,67.229,12.469,17.47,0.789,91.497,1.442,3.34,292.452,69.617,86954.404,39.911,113.713
山西,太原市,46.695,82.214,12.052,29.804,0.995,91.852,0.78,2.694,293.482,68.624,87296.851,37.967,112.321
山西,忻州市,38.391,61.731,12.165,15.67,0.682,89.861,0.934,3.944,292.712,67.118,85856.901,38.877,112.391
山西,晋中市,49.531,78.955,10.651,25.549,1.09,112.774,0.568,3.053,293.7,70.666,88206.289,37.328,112.997
山西,晋城市,54.729,90.114,9.244,20.807,0.99,158.156,-1.46,3.49,294.61,72.906,90098.048,35.625,112.752
山西,朔州市,34.884,65.367,13.445,21.813,0.86,76.575,1.977,4.089,293.149,64.53,86282.686,39.619,112.655
山西,运城市,47.328,75.162,9.061,12.745,0.911,161.352,-3.885,3.013,298.971,54.169,93602.152,35.205,111.071
山西,长治市,50.215,79.458,9.333,19.452,1.155,136.779,0.563,2.763,293.873,72.467,88500.107,36.48,112.915
山西,阳泉市,45.622,81.042,14.343,25.99,1.087,95.707,-0.328,2.071,294.274,70.217,89999.692,38.031,113.512
广东,东莞市,40.651,65.174,9.961,33.743,0.844,103.38,1.316,-2.954,303.262,63.462,99791.13,22.931,113.81
广东,中山市,37.913,58.616,10.697,23.296,0.799,126.872,1.959,-1.391,302.477,73.148,99819.297,22.5,113.383
广东,云浮市,33.851,51.348,11.221,12.055,0.754,80.864,0.73,-2.181,301.623,71.179,97927.408,22.776,111.818
广东,佛山市,37.867,57.54,11.177,30.348,0.767,98.417,0.415,-3.533,303.086,63.101,99860.357,23.035,112.979
广东,广州市,35.594,54.421,9.243,25.487,0.684,95.691,-0.076,-4.334,302.631,59.802,98983.421,23.339,113.525
广东,惠州市,36.188,55.406,8.57,15.294,0.655,104.925,1.155,-4.838,301.791,61.796,98017.419,23.244,114.485
广东,揭阳市,27.054,45.55,8.625,12.094,0.927,93.28,3.693,-5.16,302.517,62.134,98457.38,23.323,116.123
广东,梅州市,24.611,39.856,8.775,10.32,0.752,86.575,2.494,-6.014,299.993,69.568,96533.429,24.169,116.07
广东,汕头市,26.966,46.099,11.396,16.513,1.031,89.176,3.626,-3.818,302.896,65.17,99496.196,23.339,116.614
广东,汕尾市,31.805,49.978,7.583,10.153,0.727,105.791,3.546,-5.046,302.278,61.769,98255.473,23.024,115.527
广东,江门市,35.381,51.973,9.945,12.894,0.698,105.489,1.947,-1.423,301.963,76.204,99301.942,22.289,112.676
广东,河源市,29.201,44.998,9.592,9.302,0.617,103.25,1.131,-6.667,300.37,63.478,96811.605,24.021,114.969
广东,深圳市,45.067,69.551,10.122,31.886,0.86,119.227,2.593,-1.762,302.28,70.244,99326.809,22.667,114.143
广东,清远市,34.83,48.199,9.89,10.196,0.636,95.722,-1.297,-5.579,300.516,61.528,96454.188,24.295,112.871
广东,湛江市,15.887,29.001,9.035,7.406,0.578,73.526,1.846,0.284,301.779,82.017,99781.47,21.091,110.163
广东,潮州市,23.878,40.628,9.648,12.579,0.915,82.304,3.441,-5.796,301.272,69.799,97864.913,23.755,116.754
广东,珠海市,42.627,61.542,12.54,16.128,0.708,145.257,2.943,-0.228,301.803,80.84,99915.45,22.095,113.317
广东,肇庆市,37.308,51.647,9.612,12.58,0.653,83.522,-1.304,-3.625,301.928,64.482,98024.081,23.505,112.199
广东,茂名市,29.602,45.576,13.185,9.734,0.77,74.933,0.704,-1.193,301.03,80.344,98032.554,22.013,110.952
广东,阳江市,30.667,46.583,11.092,9.414,0.737,76.191,1.728,-1.173,301.524,77.428,98510.92,22.042,111.786
广东,韶关市,29.727,42.865,10.305,7.834,0.87,108.885,-1.014,-6.02,299.785,58.441,95679.353,24.785,113.819
广西,北海市,18.918,35.009,11.807,8.942,0.82,74.006,1.187,-1.13,302.416,78.389,99814.211,21.674,109.37
广西,南宁市,35.52,50.921,9.939,8.539,0.792,76.532,-1.193,-3.613,302.034,66.506,98075.689,23.051,108.469
广西,崇左市,29.319,45.993,10.96,5.409,0.647,78.899,-0.245,-2.572,300.811,73.809,96870.682,22.483,107.291
广西,来宾市,46.531,60.975,11.678,6.865,0.758,84.922,-2.386,-4.626,301.376,63.624,96947.774,23.859,109.417
广西,柳州市,45.514,58.287,13.102,5.669,0.681,94.91,-2.238,-4.991,300.379,63.458,96419.159,24.956,109.372
广西,桂林市,52.047,65.243,13.7,6.918,0.726,112.063,-3.34,-4.594,299.058,66.695,94848.876,25.353,110.513
广西,梧州市,41.772,58.528,12.333,9.941,0.831,76.619,-1.329,-3.492,301.618,66.868,97690.773,23.484,110.996
广西,河池市,33.613,48.633,12.38,4.019,0.588,69.84,-2.486,-3.904,298.744,70.732,94205.33,24.628,107.843
广西,玉林市,33.013,50.329,13.272,10.002,0.877,76.395,-0.25,-2.256,301.774,72.501,98094.071,22.452,110.164
广西,百色市,33.3,49.094,12.322,4.216,0.588,72.594,-1.561,-1.864,297.78,77.14,92213.553,23.981,106.292
广西,贵港市,44.197,61.882,11.781,9.64,0.856,78.709,-1.712,-3.218,302.52,63.958,98511.712,23.322,110.021
广西,贺州市,45.063,57.709,12.093,7.378,0.864,88.981,-2.645,-5.31,300.21,66.22,95964.62,24.364,111.394
广西,钦州市,25.623,40.765,10.037,9.216,0.864,74.859,0.323,-2.359,302.405,73.4,99129.721,22.173,109.01
广西,防城港市,29.265,43.505,10.054,6.298,0.72,81.268,1.482,-2.536,301.174,75.856,97641.334,21.88,108.002
新疆,乌鲁木齐市,21.465,32.58,2.382,12.261,0.264,66.181,0.752,0.243,291.338,38.154,83941.136,43.746,87.818
新疆,五家渠市,16.587,28.153,3.153,14.467,0.29,63.747,-0.28,-1.56,299.42,24.003,95651.037,44.363,87.517
新疆,伊犁哈萨克自治州,8.145,12.176,2.009,3.095,0.226,74.681,0.679,0.948,286.468,61.685,80275.37,43.438,82.146
新疆,克孜勒苏柯尔克孜自治州,12.267,18.537,0.452,0.87,0.163,82.273,0.946,-2.805,282.653,48.474,70555.763,39.661,75.949
新疆,克拉玛依市,13.542,22.237,2.623,7.306,0.338,77.935,-1.468,-0.458,299.399,27.299,96447.572,45.457,85.207
新疆,北屯市,9.534,10.544,2.67,2.582,0.548,65.796,-1.018,1.608,296.286,30.078,94715.128,47.27,87.868
新疆,博尔塔拉蒙古自治州,13.161,16.602,2.386,2.435,0.182,72.02,1.967,1.243,291.812,42.787,85778.566,44.714,82.114
新疆,双河市,20.266,25.594,3.29,3.544,0.178,71.64,-1.332,-2.2,299.948,27.054,96851.65,44.87,82.474
新疆,可克达拉市,14.5,28.366,4.724,8.178,0.422,76.552,-1.638,0.246,297.33,37.464,94079.606,43.918,80.786
新疆,和田地区,135.291,142.404,0.434,0.586,0.123,58.489,-1.08,-1.798,287.659,51.252,73818.62,37.059,80.934
新疆,哈密市,14.998,15.631,0.743,2.866,0.151,70.027,-1.723,-1.05,296.032,22.785,87719.969,43.042,93.517
新疆,喀什地区,78.59,85.109,0.679,1.47,0.154,62.295,-0.36,0.078,288.184,48.861,75921.339,38.125,77.178
新疆,图木舒克市,37.647,38.055,1.383,1.14,0.14,63.215,-0.13,-0.02,298.328,30.397,88568.082,39.892,79.182
新疆,塔城地区,13.145,16.109,2.059,3.203,0.213,71.515,0.575,1.154,293.899,36.651,89029.123,45.642,84.789
新疆,巴音郭楞蒙古自治州,60.147,61.02,0.736,0.625,0.123,67.039,-2.99,-0.757,291.034,41.781,78798.398,39.463,87.481
新疆,新星市,16.845,20.665,1.545,13.48,0.29,61.03,-3.785,-0.68,300.635,17.04,91862.715,42.75,93.68
新疆,昆玉市,186.71,226.757,0.983,1.83,0.143,60.97,-2.08,-0.47,297.827,33.137,86432.98,37.457,79.093
新疆,昌吉回族自治州,13.261,16.335,1.556,5.181,0.177,70.039,-0.487,0.265,294.97,31.97,89324.664,44.342,88.608
新疆,石河子市,12.165,19.31,4.565,15.165,0.255,69.735,1.375,1.09,297.18,37.505,93926.81,44.245,86.035
新疆,胡杨河市,14.878,22.046,3.09,7.334,0.372,78.64,-0.906,0.506,299.926,28.898,96886.196,44.852,84.772
新疆,铁门关市,36.957,62.783,4.417,10.39,0.3,75.747,-4.027,-0.677,301.383,19.787,90830.433,41.773,85.66
新疆,阿克苏地区,48.674,50.059,1.135,1.422,0.163,65.964,0.043,-2.013,294.503,37.398,84769.785,40.965,81.578
新疆,阿勒泰地区,8.419,8.92,1.572,1.395,0.22,67.867,-0.885,0.438,292.683,31.992,88033.415,46.902,88.421
新疆,阿拉尔市,32.253,34.953,1.207,2.578,0.208,67.973,0.159,-2.301,298.085,33.622,89384.474,40.629,80.998
江苏,南京市,29.478,49.176,8.449,23.547,0.658,87.198,-4.624,-4.809,298.065,79.432,100447.213,31.899,118.876
江苏,南通市,15.512,22.199,4.465,6.556,0.29,86.384,-5.611,-5.579,299.073,79.397,100577.968,32.201,120.979
江苏,宿迁市,40.297,60.416,8.872,22.533,0.646,116.643,-4.276,-3.219,298.388,70.389,100686.6,33.765,118.495
江苏,常州市,25.051,41.675,8.298,24.247,0.684,79.196,-5.132,-5.876,298.826,80.278,100445.592,31.613,119.666
江苏,徐州市,45.419,85.695,12.066,32.971,0.902,126.638,-4.114,-1.903,298.1,67.902,100469.196,34.363,117.513
江苏,扬州市,29.402,46.579,7.724,15.698,0.551,97.313,-4.281,-4.275,297.83,78.751,100657.494,32.709,119.486
江苏,无锡市,22.11,39.54,8.916,24.868,0.694,75.758,-5.348,-6.081,298.946,79.815,100339.46,31.546,120.066
江苏,泰州市,24.542,37.44,7.121,13.302,0.503,90.78,-4.137,-4.719,298.023,80.235,100602.18,32.605,120.048
江苏,淮安市,36.058,53.243,8.26,17.618,0.546,108.829,-4.304,-3.364,298.217,72.698,100654.414,33.362,118.985
江苏,盐城市,23.629,33.533,6.79,7.442,0.359,106.976,-3.947,-3.951,298.531,76.221,100711.695,33.529,120.156
江苏,苏州市,19.373,33.216,6.448,22.817,0.53,74.458,-5.948,-7.167,299.358,80.2,100445.593,31.374,120.661
江苏,连云港市,29.01,44.598,7.549,12.304,0.437,114.29,-3.927,-3.698,297.94,74.204,100622.297,34.519,119.133
江苏,镇江市,27.587,44.892,7.766,21.719,0.632,84.966,-4.291,-5.286,297.964,81.732,100480.276,32.016,119.49
江西,上饶市,34.306,49.475,11.356,9.927,0.794,103.828,-3.593,-6.045,298.224,72.543,98015.224,28.778,117.47
江西,九江市,31.113,48.611,9.452,9.62,0.678,124.735,-4.335,-6.232,298.868,64.065,98156.948,29.313,115.444
江西,南昌市,30.281,50.532,9.517,11.838,0.917,131.887,-3.579,-7.458,300.758,61.543,99850.152,28.671,116.016
江西,吉安市,35.206,55.914,14.455,8.982,0.872,138.73,-1.709,-6.734,299.715,61.893,97619.383,26.954,114.831
江西,宜春市,30.318,49.88,10.043,9.808,0.787,126.815,-3.31,-6.463,299.719,60.634,98037.142,28.29,114.974
江西,抚州市,33.543,47.115,11.448,9.321,0.789,115.314,-1.77,-7.072,297.677,74.271,97562.727,27.514,116.42
江西,新余市,33.081,56.443,13.903,12.573,0.875,133.334,-2.549,-6.687,300.399,60.06,98899.023,27.847,114.836
江西,景德镇市,29.856,45.658,10.977,8.199,0.76,104.251,-3.709,-6.581,298.569,70.014,98883.516,29.287,117.24
江西,萍乡市,31.093,54.316,12.395,10.203,0.671,115.606,-3.661,-5.028,299.465,59.369,96757.653,27.505,113.908
江西,赣州市,31.801,45.571,11.954,6.846,1.102,125.023,0.053,-7.46,298.373,68.337,95933.11,25.692,115.279
江西,鹰潭市,37.191,52.511,12.581,11.402,0.847,107.621,-2.85,-5.857,297.717,75.545,98490.663,28.222,117.094
河北,保定市,42.231,71.921,8.758,21.371,0.575,124.165,0.502,1.233,296.897,64.667,97122.547,39.018,115.159
河北,唐山市,25.366,55.908,18.398,33.87,1.052,101.965,-0.752,0.53,296.577,63.635,100238.634,39.731,118.354
河北,廊坊市,29.945,65.003,9.045,30.971,0.724,111.047,-0.044,1.843,298.223,57.241,100733.599,39.267,116.632
河北,张家口市,26.116,47.689,7.993,9.234,0.428,104.981,0.848,2.929,291.826,67.679,87410.718,40.877,115.042
河北,承德市,16.251,30.443,5.675,10.996,0.376,81.989,1.97,-0.175,291.555,66.714,90632.503,41.339,117.578
河北,沧州市,29.576,54.994,11.881,21.242,0.687,134.333,-0.007,2.546,298.65,55.454,100781.95,38.258,116.744
河北,石家庄市,49.179,83.188,12.272,26.739,0.845,116.879,-0.859,1.741,297.868,64.167,97620.56,38.135,114.407
河北,秦皇岛市,20.231,38.906,9.915,21.109,0.564,95.084,1.412,0.128,294.855,67.826,98047.996,40.12,119.193
河北,衡水市,29.784,57.322,10.974,20.206,0.806,139.813,-1.143,3.389,299.062,56.791,100636.485,37.755,115.813
河北,邢台市,41.403,80.076,12.872,28.895,1.042,126.004,-0.627,2.931,298.971,62.711,99194.523,37.195,114.815
河北,邯郸市,45.496,90.182,13.241,36.641,1.204,118.708,-1.069,2.187,298.765,64.732,98748.373,36.538,114.596
河南,三门峡市,47.427,70.924,10.417,9.191,0.755,147.79,-2.287,4.128,297.017,58.088,91336.278,34.362,111.101
河南,信阳市,33.1,60.284,10.866,20.676,0.597,119.273,-4.809,-2.907,298.826,61.059,99454.266,32.091,114.907
河南,南阳市,36.495,61.458,9.535,13.45,0.775,144.429,-3.916,-0.472,299.347,55.994,97514.846,33.034,112.323
河南,周口市,43.636,89.663,13.472,30.113,0.905,120.751,-3.403,-2.082,299.334,62.626,100255.627,33.738,114.884
河南,商丘市,47.392,90.674,11.931,33.62,0.92,120.493,-3.454,-1.978,299.071,62.226,100348.773,34.277,115.718
河南,安阳市,41.901,82.587,11.019,32.882,1.076,125.74,-0.777,1.875,298.891,64.181,98371.433,35.888,114.318
河南,平顶山市,45.567,79.023,13.33,26.089,0.928,143.669,-2.831,0.31,299.138,60.086,98165.505,33.8,113.025
河南,开封市,45.577,89.443,12.424,34.591,0.956,125.797,-2.473,-0.593,299.151,64.346,100039.814,34.594,114.514
河南,新乡市,41.829,81.405,11.77,35.207,1.005,130.906,-1.52,0.748,299.221,63.955,99156.174,35.256,114.111
河南,洛阳市,49.19,76.335,10.879,14.133,0.854,161.801,-2.452,2.363,297.425,60.838,93676.106,34.274,112.019
河南,济源市,53.095,91.993,10.681,23.442,1.015,152.774,-3.05,1.001,298.472,62.708,95474.247,35.105,112.445
河南,漯河市,46.239,88.205,15.92,33.539,0.91,125.788,-3.122,-1.281,299.478,62.573,100105.111,33.652,113.945
河南,濮阳市,39.912,85.588,11.005,37.751,1.038,121.014,-2.166,0.756,299.047,62.803,100346.339,35.809,115.283
河南,焦作市,46.581,86.299,10.083,31.855,1.023,142.578,-2.704,0.352,300.12,59.862,98945.3,35.121,113.163
河南,许昌市,45.947,87.839,12.495,37.856,0.988,125.243,-2.764,-0.5,299.339,62.664,99472.463,34.075,113.707
河南,郑州市,44.528,85.965,10.189,38.823,1.016,133.277,-2.371,1.421,299.238,61.712,98219.028,34.634,113.438
河南,驻马店市,37.76,74.905,12.838,24.227,0.756,125.362,-3.884,-1.876,299.589,59.488,99775.331,32.925,114.174
河南,鹤壁市,38.95,78.227,11.11,33.973,1.039,123.15,-0.922,1.493,299.516,63.372,99495.393,35.716,114.319
浙江,丽水市,29.566,36.285,7.589,13.85,0.618,78.161,-4.263,-7.264,296.164,89.772,93244.758,28.194,119.51
浙江,台州市,12.35,17.991,3.353,8.571,0.297,51.95,-7.036,-5.387,299.339,91.467,97392.219,28.742,121.109
浙江,嘉兴市,20.961,34.775,5.779,27.303,0.635,65.396,-5.583,-7.731,299.869,82.692,100320.49,30.635,120.754
浙江,宁波市,12.218,21.154,3.664,10.966,0.322,57.082,-6.535,-5.472,299.904,90.426,98987.493,29.706,121.49
浙江,杭州市,29.092,45.128,7.611,20.645,0.771,80.489,-4.517,-8.187,297.607,84.462,97479.395,29.891,119.464
浙江,温州市,18.259,24.415,6.566,13.316,0.51,54.895,-6.329,-7.088,298.533,91.814,96041.432,27.897,120.411
浙江,湖州市,23.447,39.215,6.412,22.507,0.649,73.791,-4.801,-6.85,298.28,83.967,99179.693,30.757,119.871
浙江,绍兴市,21.063,30.888,5.404,18.354,0.581,67.41,-5.03,-6.914,299.028,88.601,98192.781,29.709,120.64
浙江,舟山市,4.688,15.24,1.07,1.495,0.122,54.342,-7.852,-5.135,300.648,90.165,99988.018,30.038,122.23
浙江,衢州市,33.992,48.292,9.981,16.702,0.813,97.812,-4.988,-7.756,297.626,79.898,96606.285,28.912,118.675
浙江,金华市,27.378,37.514,6.392,18.706,0.659,77.382,-4.699,-7.848,298.343,85.923,96819.036,29.109,119.967
海南,万宁市,6.398,9.838,2.377,3.641,0.221,48.227,5.234,2.072,301.251,75.453,98875.412,18.842,110.294
海南,三亚市,7.596,15.069,2.091,5.356,0.373,42.697,6.934,0.841,299.237,87.543,97768.114,18.413,109.407
海南,东方市,9.181,12.87,2.827,2.338,0.206,61.628,5.24,2.45,299.986,85.775,98359.75,18.971,108.838
海南,临高县,12.084,22.294,5.511,4.119,0.349,57.301,5.306,0.83,300.797,82.326,99412.173,19.821,109.733
海南,乐东黎族自治县,7.568,10.949,1.792,2.427,0.229,51.292,6.021,1.003,298.902,87.627,96896.036,18.659,109.072
海南,五指山市,8.012,10.614,1.84,2.618,0.208,47.554,6.486,1.808,296.776,91.644,93743.256,18.81,109.518
海南,儋州市,11.996,20.862,4.914,3.294,0.306,62.301,5.556,1.631,300.679,82.407,99096.968,19.568,109.399
海南,定安县,7.632,16.083,4.265,7.303,0.385,38.255,4.303,-0.262,300.895,78.0,99126.037,19.47,110.28
海南,屯昌县,7.566,14.282,3.74,4.238,0.31,43.684,5.09,-0.036,300.644,77.774,98369.614,19.342,110.076
海南,文昌市,7.844,15.086,3.82,9.145,0.33,35.325,2.329,0.824,300.573,82.84,99868.853,19.707,110.773
海南,昌江黎族自治县,11.348,17.321,4.034,2.952,0.241,63.966,5.28,2.738,299.23,87.84,97340.046,19.233,109.016
海南,海口市,8.613,18.464,5.502,10.812,0.409,35.624,3.74,0.178,300.861,80.828,99674.101,19.842,110.393
海南,澄迈县,8.866,18.234,4.977,6.047,0.38,45.249,5.047,0.231,300.889,79.529,99244.809,19.676,109.989
海南,琼中黎族苗族自治县,7.287,11.479,2.765,2.769,0.237,47.99,6.541,1.232,299.581,78.515,96252.967,19.087,109.847
海南,琼海市,7.527,13.727,3.528,5.815,0.297,41.387,3.482,-0.06,301.453,75.235,99666.185,19.22,110.43
海南,白沙黎族自治县,8.364,13.618,3.459,2.638,0.239,56.472,6.536,2.559,298.962,82.906,95994.322,19.2,109.388
海南,陵水黎族自治县,6.793,10.404,2.011,4.119,0.253,46.449,6.391,2.049,300.414,78.894,98254.34,18.581,109.913
湖北,仙桃市,28.626,50.297,7.983,13.733,0.788,141.233,-4.315,-4.567,300.707,53.786,100265.013,30.284,113.417
湖北,十堰市,36.294,53.187,11.133,6.691,0.699,112.432,-3.632,0.981,297.114,57.39,92799.714,32.462,110.476
湖北,咸宁市,33.873,52.725,8.518,11.649,0.749,132.915,-3.702,-3.291,299.529,58.043,98416.365,29.621,114.178
湖北,天门市,28.668,50.693,9.04,12.115,0.714,132.246,-4.746,-4.563,300.668,52.066,100255.973,30.633,113.053
湖北,孝感市,30.224,46.63,7.696,11.745,0.599,128.737,-5.094,-4.57,300.064,53.508,99710.522,31.116,113.869
湖北,宜昌市,34.143,54.473,10.78,10.371,0.725,117.58,-2.696,-2.448,297.105,58.24,93533.761,30.746,111.129
湖北,恩施土家族苗族自治州,34.843,51.584,12.852,6.206,0.702,90.031,-3.556,0.201,294.498,64.592,89144.659,30.195,109.552
湖北,武汉市,29.257,46.727,7.829,17.386,0.753,133.897,-3.957,-4.346,300.574,53.421,100166.806,30.606,114.349
湖北,潜江市,28.794,54.704,9.764,15.251,0.866,132.074,-4.481,-4.37,300.567,54.001,100245.459,30.33,112.77
湖北,神农架林区,37.078,49.142,10.577,2.378,0.478,113.195,-2.883,0.173,290.582,69.342,82848.201,31.592,110.49
湖北,荆州市,30.049,55.661,9.646,14.995,0.915,133.949,-3.304,-4.399,300.576,55.012,100005.036,30.01,112.512
湖北,荆门市,29.396,50.342,10.793,12.901,0.726,127.59,-4.248,-3.317,300.431,51.731,99319.029,31.059,112.616
湖北,襄阳市,33.623,55.345,10.559,11.221,0.748,131.007,-3.084,-0.714,298.987,54.802,96758.188,31.919,111.96
湖北,鄂州市,32.351,50.839,8.59,16.361,0.781,135.264,-3.033,-3.329,300.666,52.309,100183.923,30.337,114.794
湖北,随州市,30.798,49.426,9.327,13.004,0.622,128.036,-5.139,-2.757,299.652,54.772,98690.826,31.809,113.43
湖北,黄冈市,27.565,41.626,8.552,11.413,0.547,128.935,-5.316,-4.559,299.511,55.949,98526.158,30.702,115.358
湖北,黄石市,32.658,51.242,9.122,14.85,0.789,133.656,-3.592,-3.19,299.936,57.664,99219.205,29.925,115.034
湖南,娄底市,37.09,59.221,10.229,10.65,1.069,126.685,-2.499,-5.134,299.061,58.523,96301.43,27.715,111.632
湖南,岳阳市,34.431,56.975,9.418,10.588,0.814,138.647,-3.435,-4.363,300.37,56.005,99062.278,29.081,113.275
湖南,常德市,29.781,53.888,11.953,12.434,0.902,122.931,-2.335,-4.635,299.762,55.544,98367.745,29.271,111.524
湖南,张家界市,30.572,49.268,11.631,9.274,0.723,109.011,-3.568,-3.542,297.5,59.646,94631.313,29.379,110.526
湖南,怀化市,36.679,59.81,12.924,8.965,0.97,105.204,-3.212,-3.769,298.369,61.567,95460.386,27.535,110.071
湖南,株洲市,32.214,53.409,11.845,9.95,0.655,116.888,-3.017,-5.055,299.798,56.899,96868.701,27.109,113.513
湖南,永州市,53.047,70.55,12.358,9.101,0.799,110.729,-2.265,-5.062,298.997,66.898,95547.082,25.748,111.723
湖南,湘潭市,35.805,65.73,9.72,17.679,0.99,143.78,-1.517,-5.301,300.627,55.73,99115.495,27.744,112.619
湖南,湘西土家族苗族自治州,33.842,53.596,9.998,8.519,0.828,90.518,-3.892,-2.81,297.623,60.864,94547.285,28.708,109.718
湖南,益阳市,33.841,59.3,9.751,10.249,1.022,130.389,-2.085,-4.311,299.291,59.691,97845.313,28.525,111.919
湖南,衡阳市,39.829,63.118,11.723,13.24,0.866,120.592,-1.821,-5.156,300.966,55.006,98598.584,26.781,112.565
湖南,邵阳市,47.021,67.004,13.463,10.504,0.917,114.671,-3.006,-4.29,297.88,63.85,94149.711,26.893,110.881
湖南,郴州市,35.524,52.521,10.995,8.454,0.973,110.498,-1.495,-5.539,298.68,60.262,94691.581,25.769,113.109
湖南,长沙市,32.192,56.24,9.138,11.384,0.785,131.319,-2.544,-5.116,300.431,55.779,98551.809,28.235,113.159
甘肃,临夏回族自治州,31.519,48.033,11.768,9.656,0.594,83.195,-1.969,-0.946,288.227,84.667,77246.036,35.617,103.291
甘肃,兰州市,26.531,41.952,10.851,8.6,0.513,89.164,-4.607,-2.109,289.249,79.643,78875.042,36.359,103.633
甘肃,嘉峪关市,18.845,99.553,8.533,25.703,0.57,99.782,-5.1,2.39,292.715,40.922,81394.948,39.798,98.145
甘肃,天水市,35.998,51.404,11.552,7.846,0.424,81.525,-2.951,5.413,290.381,87.177,82381.746,34.645,105.739
甘肃,定西市,38.545,59.618,14.059,5.504,0.48,85.318,-3.402,4.809,287.684,91.723,77042.851,35.124,104.432
甘肃,平凉市,31.658,49.902,9.008,12.163,0.503,83.888,-1.651,3.775,291.891,76.38,84211.313,35.304,106.644
甘肃,庆阳市,27.851,49.313,11.094,9.882,0.545,90.581,-1.167,3.519,293.335,62.611,85489.678,36.149,107.596
甘肃,张掖市,18.971,29.372,3.385,3.252,0.209,89.322,-2.113,0.388,286.937,61.825,74646.429,38.94,99.855
甘肃,武威市,20.971,27.356,6.679,2.464,0.233,99.246,0.505,-0.502,291.253,60.868,81182.886,38.163,103.073
甘肃,甘南藏族自治州,30.784,38.353,9.425,2.137,0.317,80.257,-0.147,0.192,282.866,88.177,67709.841,34.331,102.768
甘肃,白银市,26.298,41.06,11.548,5.1,0.449,90.633,-2.973,0.609,290.255,79.856,81232.76,36.59,104.646
甘肃,酒泉市,21.965,26.825,1.489,1.643,0.143,76.003,-4.097,-0.346,291.309,36.889,78873.871,40.236,96.062
甘肃,金昌市,16.961,28.294,7.236,4.965,0.232,102.223,-1.008,0.866,290.513,61.34,80450.297,38.44,102.048
甘肃,陇南市,37.651,56.79,17.385,6.04,0.576,85.406,-2.663,6.128,290.163,89.667,81908.128,33.599,105.224
福建,三明市,21.557,34.109,11.19,11.928,0.782,63.214,1.13,-5.517,295.521,82.415,93824.856,26.29,117.395
福建,南平市,22.352,33.52,10.835,9.909,0.646,73.924,-1.296,-6.209,297.136,77.936,94548.735,27.324,118.143
福建,厦门市,17.06,29.17,8.027,21.92,0.633,52.772,1.438,-2.68,300.158,74.223,98641.908,24.642,118.11
福建,宁德市,15.949,25.179,6.93,9.097,0.535,57.902,-1.018,-5.766,296.986,88.733,93685.249,26.968,119.474
福建,泉州市,16.875,28.072,8.729,13.898,0.634,58.521,2.238,-4.598,297.19,80.748,95045.097,25.201,118.249
福建,漳州市,18.43,31.391,9.197,12.986,0.642,66.019,2.764,-4.577,299.344,75.401,96612.886,24.372,117.444
福建,福州市,15.511,26.862,6.763,12.431,0.635,61.53,0.583,-2.985,297.939,83.408,95730.892,26.083,119.206
福建,莆田市,13.801,24.58,8.323,11.442,0.593,68.109,1.331,-3.7,298.264,79.499,96463.822,25.445,118.864
福建,龙岩市,20.137,33.522,10.206,9.852,0.69,67.736,1.258,-6.246,296.485,80.623,93808.055,25.256,116.739
西藏,山南市,23.858,25.282,2.075,1.585,0.173,86.89,0.463,2.831,283.616,86.898,66150.842,28.295,92.274
西藏,拉萨市,15.573,17.784,1.71,2.489,0.164,99.522,2.427,5.628,279.018,83.452,56803.462,30.043,91.093
西藏,日喀则市,18.508,19.731,1.731,0.601,0.181,112.446,4.647,2.89,278.736,78.622,55536.244,29.483,86.493
西藏,昌都市,18.702,19.396,1.944,0.729,0.148,89.174,1.844,1.912,279.935,79.048,59351.179,30.753,97.044
西藏,林芝市,25.208,26.4,2.868,1.718,0.164,79.584,-0.234,2.165,283.04,90.594,66443.963,29.184,95.25
西藏,玉树藏族自治州,12.184,12.559,0.403,0.454,0.114,83.825,-2.986,1.894,277.912,71.433,57650.449,34.196,94.317
西藏,那曲市,11.426,11.965,0.587,0.291,0.128,87.406,0.349,2.128,279.216,75.063,55635.839,32.709,89.262
西藏,阿里地区,17.599,17.95,0.608,0.387,0.144,79.955,3.696,-1.585,279.392,59.113,55043.802,33.013,82.553
贵州,六盘水市,38.193,62.715,10.078,11.996,0.631,89.342,-0.751,1.403,292.331,79.572,82750.617,26.106,104.896
贵州,安顺市,38.07,56.279,7.598,6.515,0.46,89.865,-2.46,-0.03,294.362,80.043,87659.008,25.986,105.978
贵州,毕节市,38.137,61.59,8.763,10.728,0.575,92.641,-1.669,2.463,292.589,77.219,83089.088,27.063,105.211
贵州,贵阳市,34.129,55.092,6.031,14.243,0.549,87.947,-2.977,0.674,293.639,80.247,87730.223,26.845,106.71
贵州,遵义市,36.225,49.237,10.679,8.029,0.437,92.135,-4.124,2.138,295.319,72.913,89847.21,28.167,107.102
贵州,铜仁市,32.039,55.435,12.54,6.284,0.575,88.31,-4.048,-1.545,296.579,64.126,92134.542,27.937,108.534
贵州,黔东南苗族侗族自治州,36.535,54.047,15.095,5.696,0.571,91.669,-2.911,-3.466,296.204,70.531,91981.921,26.495,108.574
贵州,黔南布依族苗族自治州,36.97,50.806,11.357,5.12,0.463,85.548,-3.084,-2.249,295.193,76.748,89786.616,26.0,107.265
贵州,黔西南布依族苗族自治州,35.742,53.666,10.844,5.206,0.521,82.282,-1.881,-0.278,295.26,78.163,88009.992,25.256,105.467
辽宁,丹东市,14.401,20.94,7.812,7.919,0.47,68.374,4.293,-0.594,292.572,80.289,97736.89,40.554,124.376
辽宁,大连市,12.362,22.098,6.314,7.186,0.385,94.754,4.309,-2.072,294.886,69.571,100012.562,39.591,122.22
辽宁,抚顺市,12.345,20.906,7.418,13.141,0.466,53.456,4.485,1.733,290.171,91.465,95974.131,41.841,124.65
辽宁,朝阳市,12.015,21.745,6.377,9.872,0.378,78.343,3.478,-3.075,294.363,61.327,95737.445,41.545,120.053
辽宁,本溪市,14.613,23.286,8.336,12.029,0.566,59.966,4.677,0.698,290.609,87.96,95414.018,41.232,124.544
辽宁,沈阳市,8.688,16.237,5.374,9.669,0.315,60.33,4.299,-2.223,293.12,78.402,99971.56,42.081,123.159
辽宁,盘锦市,9.209,19.42,6.564,9.661,0.391,89.929,4.586,-0.365,295.742,66.845,100681.747,41.13,122.01
辽宁,营口市,11.07,20.782,6.273,8.181,0.387,94.933,4.803,-0.841,293.37,75.116,98626.313,40.395,122.478
辽宁,葫芦岛市,15.409,27.711,8.068,13.71,0.476,88.465,4.119,-0.697,295.402,62.588,98384.224,40.66,120.215
辽宁,辽阳市,12.127,23.788,8.701,14.555,0.658,71.268,4.453,-0.018,292.867,79.939,98747.863,41.153,123.261
辽宁,铁岭市,9.177,15.595,4.679,7.692,0.329,52.544,3.962,0.506,291.152,89.706,98381.122,42.653,124.158
辽宁,锦州市,9.257,17.699,5.631,8.623,0.34,81.428,3.683,-2.652,295.909,62.257,99880.107,41.502,121.659
辽宁,阜新市,8.469,12.846,3.847,5.127,0.22,73.565,3.897,-5.311,293.631,69.344,98439.549,42.289,121.968
辽宁,鞍山市,11.444,20.899,6.946,9.504,0.495,83.139,4.8,-1.015,293.608,74.421,98834.066,40.731,123.007
重庆,重庆城区,35.282,51.8,12.587,17.972,0.561,93.478,-4.081,2.869,299.92,56.248,94155.984,29.824,107.125
重庆,重庆郊县,35.418,50.051,14.603,7.296,0.538,89.68,-3.882,1.05,296.452,60.764,90594.445,30.334,108.755
陕西,咸阳市,32.699,61.03,7.468,21.577,0.863,104.259,-3.358,1.152,297.941,48.809,90872.989,34.779,108.367
陕西,商洛市,39.799,61.407,10.825,8.321,0.709,103.272,-2.626,3.011,294.809,63.326,88996.45,33.64,109.889
陕西,安康市,34.771,49.294,11.997,5.283,0.585,93.765,-3.475,1.547,295.684,60.384,89453.558,32.735,108.932
陕西,宝鸡市,31.116,49.206,6.237,12.002,0.543,83.844,-2.06,2.992,293.706,67.984,85987.695,34.386,107.193
陕西,延安市,32.784,57.406,13.011,15.826,0.824,82.509,-0.606,3.908,294.558,57.619,87221.212,36.432,109.316
陕西,榆林市,32.266,52.289,15.097,15.961,0.72,84.846,1.137,4.984,295.994,49.29,87517.58,38.041,109.581
陕西,汉中市,31.197,46.529,11.292,6.665,0.505,79.735,-3.329,2.204,295.381,66.546,88494.725,33.088,107.098
陕西,渭南市,39.611,67.731,9.249,18.531,0.877,115.117,-2.615,1.361,299.8,47.371,93141.82,34.919,109.855
陕西,西安市,36.424,59.72,7.823,16.067,0.754,93.478,-1.392,4.646,297.528,54.511,89977.422,34.12,108.77
陕西,铜川市,35.852,62.258,10.677,16.847,0.904,102.913,-2.821,2.229,296.376,51.331,88740.518,35.198,109.058
青海,保亭黎族苗族自治县,7.936,13.07,2.248,5.168,0.306,43.508,7.636,1.0,298.736,84.584,96172.806,18.566,109.618
青海,吐鲁番市,15.798,18.525,1.323,2.169,0.161,72.769,-2.002,-1.497,297.986,20.747,89586.998,42.386,89.851
青海,果洛藏族自治州,12.858,13.279,1.343,0.659,0.121,75.384,-0.008,-2.485,278.497,78.936,60325.921,34.127,99.404
青海,海东市,34.027,39.526,10.613,4.53,0.358,87.642,-3.737,-1.831,285.392,83.054,72756.409,36.347,102.34
青海,海北藏族自治州,21.815,23.795,3.646,1.035,0.168,85.413,-1.301,-0.922,279.95,80.064,65644.53,37.775,100.288
青海,海南藏族自治州,21.769,23.61,4.185,1.195,0.175,81.03,-0.48,-2.431,281.948,78.933,66697.111,35.89,100.272
青海,海西蒙古族藏族自治州,18.132,18.526,0.788,0.434,0.116,80.324,-1.703,0.258,283.114,54.555,64687.79,36.677,94.519
青海,西宁市,25.633,31.986,7.342,5.457,0.429,90.894,-1.818,-2.238,283.59,79.367,69702.901,36.842,101.423
青海,黄南藏族自治州,28.464,31.035,6.748,1.566,0.233,78.133,0.589,-2.837,281.683,86.592,65977.563,35.022,101.631
香港,香港特别行政区,45.785,66.45,10.455,27.625,0.735,143.705,3.245,-1.245,301.975,74.155,99508.325,22.45,114.22
黑龙江,七台河市,10.769,15.619,3.729,5.613,0.245,41.948,-4.33,-2.942,288.984,93.17,97516.366,45.87,130.943
黑龙江,伊春市,12.576,18.003,2.366,2.724,0.21,35.118,-4.493,-2.447,289.514,91.015,96312.86,47.772,129.184
黑龙江,佳木斯市,12.09,15.001,2.434,3.613,0.21,45.823,-3.739,-3.156,290.267,88.862,99615.017,47.207,132.11
黑龙江,双鸭山市,10.727,13.181,2.181,2.94,0.182,47.811,-3.9,-2.932,289.613,88.389,99159.125,46.722,132.643
黑龙江,哈尔滨市,12.396,15.823,3.918,5.382,0.244,50.735,-6.031,-2.753,290.451,90.225,97669.3,45.634,127.964
黑龙江,大兴安岭地区,7.263,7.799,1.006,1.56,0.188,62.757,0.224,1.997,292.74,64.862,94746.777,52.286,124.212
黑龙江,大庆市,10.86,17.087,4.045,4.337,0.276,55.366,-4.735,-5.72,290.989,89.729,99012.217,46.327,124.687
黑龙江,牡丹江市,12.576,16.275,3.441,4.577,0.219,47.035,-3.926,-2.056,288.574,94.652,94665.541,44.592,129.883
黑龙江,绥化市,12.073,15.383,2.62,3.791,0.237,49.798,-6.1,-3.781,290.718,86.775,98341.112,46.89,126.634
黑龙江,鸡西市,9.597,12.885,3.457,4.104,0.199,46.401,-4.234,-3.892,289.164,88.418,98743.195,45.626,132.289
黑龙江,鹤岗市,11.688,17.471,2.532,3.44,0.255,41.605,-3.172,-2.832,290.202,93.734,98704.499,47.661,130.778
黑龙江,黑河市,11.646,16.59,1.801,2.512,0.232,50.305,-2.523,-2.07,290.665,84.571,96829.467,49.268,127.004
黑龙江,齐齐哈尔市,12.364,15.918,2.182,3.877,0.231,50.302,-2.986,-4.711,291.054,86.568,98499.63,47.715,124.57
