province,city,PM2.5,PM10,SO2,NO2,CO,O3,U,V,TEMP,RH,PSFC,lat,lon
上海,上海市,19.899,32.269,5.68,14.5,0.46,74.496,-2.146,-6.989,301.618,80.772,100153.148,31.173,121.42
云南,临沧市,9.472,12.719,2.564,3.053,0.359,42.071,4.443,1.046,292.69,87.752,83412.31,23.935,99.686
云南,丽江市,10.859,17.343,4.054,3.904,0.41,43.178,3.579,0.799,289.9,77.218,74276.782,26.96,100.515
云南,保山市,9.526,16.877,4.365,4.311,0.371,42.879,3.47,1.326,291.457,91.503,81422.337,24.953,98.962
云南,大理白族自治州,8.867,16.04,3.388,3.918,0.37,44.291,4.693,0.716,290.746,83.886,77694.899,25.726,100.053
云南,德宏傣族景颇族自治州,11.281,15.554,5.475,3.32,0.202,43.982,2.317,1.253,293.133,92.525,85547.289,24.535,98.052
云南,怒江傈僳族自治州,10.058,15.234,1.529,1.669,0.262,41.649,3.16,0.168,286.309,95.734,72548.395,26.916,98.885
云南,文山壮族苗族自治州,15.527,22.445,5.55,5.505,0.354,44.396,2.107,0.756,294.87,84.718,85816.009,23.696,104.735
云南,昆明市,16.122,24.986,6.361,10.596,0.482,38.487,3.299,1.604,291.938,82.261,78744.232,25.384,102.863
云南,昭通市,20.114,32.731,7.837,7.272,0.493,62.202,-0.459,0.836,294.765,79.596,83371.308,27.667,103.985
云南,普洱市,7.983,11.316,2.164,2.819,0.29,39.736,3.59,1.3,293.973,85.115,85413.093,23.159,100.718
云南,曲靖市,21.302,30.146,7.737,10.335,0.462,48.239,0.667,2.2,292.015,84.725,79501.545,25.737,103.929
云南,楚雄彝族自治州,10.098,14.622,3.365,3.501,0.363,44.244,4.607,1.555,293.288,76.634,80437.67,25.328,101.567
云南,玉溪市,9.904,14.81,3.246,4.891,0.282,42.37,4.149,0.93,293.813,81.62,82903.048,24.136,102.217
云南,红河哈尼族彝族自治州,10.379,15.593,4.165,4.507,0.267,41.073,3.466,1.0,293.991,85.187,84541.338,23.451,103.034
云南,西双版纳傣族自治州,7.935,14.356,2.713,3.403,0.306,34.747,3.079,1.97,294.712,87.745,88376.669,21.939,100.912
云南,迪庆藏族自治州,9.264,15.566,1.803,1.93,0.424,43.411,4.67,0.582,283.938,90.297,67157.448,27.957,99.459
内蒙古,乌兰察布市,42.801,58.94,17.03,7.046,0.51,111.235,1.088,7.228,298.132,59.149,85638.466,41.691,112.44
内蒙古,乌海市,24.539,43.184,15.801,9.362,0.534,83.642,-3.089,9.845,300.112,53.478,86874.004,39.396,106.856
内蒙古,兴安盟,17.502,22.181,5.501,2.92,0.225,85.274,-0.982,4.882,297.964,61.417,94109.825,46.244,121.341
内蒙古,包头市,41.845,59.785,15.375,8.872,0.549,106.789,0.567,8.824,299.16,53.709,85475.322,41.549,110.276
内蒙古,呼伦贝尔市,12.374,14.474,2.937,1.919,0.179,66.478,-1.86,0.182,293.253,66.949,92967.331,49.636,121.171
内蒙古,呼和浩特市,37.803,64.231,11.352,12.275,0.859,111.539,-0.989,6.114,297.613,63.359,85988.293,40.578,111.513
内蒙古,巴彦淖尔市,30.166,36.913,11.953,3.754,0.305,91.72,-0.526,9.306,300.772,49.552,86553.84,41.446,107.582
内蒙古,赤峰市,34.656,49.172,9.35,4.398,0.409,95.527,1.325,4.117,300.437,57.026,91417.249,43.226,118.892
内蒙古,通辽市,17.743,28.005,7.068,6.401,0.298,95.892,-1.946,4.01,302.327,47.835,97048.692,43.814,121.591
内蒙古,鄂尔多斯市,30.09,48.53,13.063,4.395,0.495,102.243,-2.018,8.683,299.165,57.061,86432.811,39.407,108.63
内蒙古,锡林郭勒盟,41.751,51.794,15.231,2.956,0.303,101.806,2.129,6.762,300.489,52.153,88517.341,44.179,115.482
内蒙古,阿拉善盟,25.665,28.646,6.432,2.146,0.192,78.933,1.101,2.255,301.217,42.273,86458.034,40.473,102.467
北京,北京市,67.469,93.262,5.036,18.287,1.161,135.892,-0.89,1.461,302.003,66.307,97023.275,40.158,116.395
台湾,台湾省,24.921,28.106,7.458,17.838,0.178,76.361,2.679,0.833,297.692,76.671,92173.047,23.757,120.975
吉林,吉林市,9.721,13.507,2.47,6.103,0.262,82.036,-2.037,-0.882,296.631,59.985,96563.73,43.573,126.859
吉林,四平市,11.509,23.317,2.645,11.581,0.327,90.224,-3.536,0.452,299.447,51.697,98631.08,43.472,124.386
吉林,延边朝鲜族自治州,10.627,15.037,2.427,4.426,0.257,82.653,-0.917,0.036,295.127,66.27,93809.628,43.141,129.147
吉林,松原市,9.562,20.553,2.638,6.662,0.293,82.717,-3.335,2.683,299.247,48.868,99004.73,44.785,124.496
吉林,白城市,11.866,21.477,5.811,4.878,0.242,82.784,-2.778,4.139,300.827,49.666,98994.047,45.35,123.031
吉林,白山市,13.663,19.451,4.571,6.862,0.404,87.251,-0.63,-0.529,296.384,67.836,91936.925,42.063,127.256
吉林,辽源市,12.045,21.18,3.491,13.989,0.378,85.503,-2.412,-0.628,297.525,58.445,96881.602,42.836,125.32
吉林,通化市,13.295,22.016,5.546,10.082,0.477,86.244,-1.394,-1.287,297.72,64.299,95157.395,41.939,125.927
吉林,长春市,10.767,22.345,2.401,11.271,0.325,82.309,-2.865,0.209,297.44,55.249,98620.133,44.268,125.611
四川,乐山市,24.443,33.306,6.193,8.499,0.468,67.978,0.318,-2.128,295.8,88.779,88604.366,29.218,103.569
四川,内江市,13.979,23.771,6.85,11.215,0.486,70.943,-1.804,-0.537,301.115,75.383,95298.956,29.62,104.95
四川,凉山彝族自治州,20.563,26.451,7.502,5.823,0.586,50.568,0.722,1.789,289.353,82.143,73817.325,27.883,102.065
四川,南充市,14.211,27.217,7.992,16.214,0.537,57.867,-4.334,1.071,301.257,69.292,95445.617,31.19,106.199
四川,宜宾市,18.795,29.469,5.439,10.085,0.58,70.013,1.412,-1.601,299.952,78.799,93738.568,28.573,104.621
四川,巴中市,16.694,29.45,7.511,10.081,0.416,52.016,-3.828,1.743,298.799,71.369,91485.685,32.033,107.031
四川,广元市,16.212,28.649,10.621,8.384,0.437,52.906,-3.59,1.701,297.029,81.736,90615.74,32.261,105.788
四川,广安市,14.138,25.192,6.761,13.05,0.488,64.836,-3.711,3.284,302.413,62.819,95441.98,30.43,106.628
四川,德阳市,13.357,25.993,7.616,13.502,0.487,54.818,-2.295,-2.635,297.544,84.503,92027.872,31.13,104.436
四川,成都市,14.31,25.001,8.604,13.73,0.472,58.444,-2.0,-3.104,297.708,83.18,92145.293,30.64,103.929
四川,攀枝花市,20.956,35.146,21.771,16.418,1.062,44.745,0.608,1.735,295.003,67.872,80863.673,26.791,101.734
四川,泸州市,15.19,27.201,8.868,9.712,0.425,70.941,-1.963,3.704,300.557,68.08,92219.585,28.424,105.675
四川,甘孜藏族自治州,10.312,12.217,1.806,1.332,0.147,68.274,2.559,2.022,281.181,83.403,61268.345,30.936,100.009
四川,眉山市,16.992,26.149,7.931,11.639,0.469,61.789,0.046,-2.448,297.752,87.65,92561.692,29.912,103.766
四川,绵阳市,22.26,33.209,10.193,9.357,0.421,60.808,-2.325,0.38,294.599,88.499,87121.041,31.86,104.704
四川,自贡市,16.042,23.877,5.282,12.031,0.563,67.199,-0.163,-2.038,300.608,79.785,95271.766,29.307,104.659
四川,资阳市,14.689,26.591,7.323,10.201,0.44,69.278,-2.994,0.246,301.437,72.65,95555.109,30.102,105.149
四川,达州市,17.275,31.898,9.205,16.17,0.425,68.278,-4.208,2.673,300.649,64.704,92983.09,31.335,107.636
四川,遂宁市,13.963,26.596,7.291,13.27,0.463,64.836,-4.026,0.763,301.642,70.893,95810.409,30.642,105.457
四川,阿坝藏族羌族自治州,22.727,28.995,8.628,1.737,0.259,58.111,-0.612,5.782,283.701,87.161,65468.862,32.406,102.61
四川,雅安市,25.212,34.638,10.368,4.827,0.342,77.697,-1.347,-0.969,290.425,93.316,79516.804,29.932,102.689
天津,天津市,56.19,82.809,10.363,30.189,1.284,127.383,-2.161,0.927,303.026,64.911,100473.251,39.315,117.308
宁夏,中卫市,17.997,28.047,8.291,3.111,0.336,77.786,-2.295,9.932,296.369,61.557,82908.127,37.018,105.509
宁夏,吴忠市,22.406,34.28,9.889,3.556,0.276,86.095,-3.222,9.588,297.205,62.71,84484.272,37.454,106.577
宁夏,固原市,21.46,30.805,7.542,6.316,0.319,76.241,-2.931,8.586,292.279,80.8,80590.364,35.905,106.183
宁夏,石嘴山市,21.744,40.443,11.238,8.245,0.473,84.817,-1.449,8.567,298.875,58.286,86012.288,39.013,106.499
宁夏,银川市,20.143,37.622,8.778,7.068,0.36,86.478,-2.685,8.476,299.184,57.058,86288.737,38.287,106.342
安徽,亳州市,30.873,52.623,6.657,16.561,0.534,97.554,-3.321,-0.619,303.871,63.364,100119.268,33.44,116.162
安徽,六安市,28.914,48.941,5.772,16.719,0.531,114.745,-3.042,-0.639,302.29,66.096,97733.134,31.617,116.209
安徽,合肥市,25.771,44.197,5.588,19.341,0.524,95.468,-3.447,-1.456,303.514,63.991,99959.986,31.766,117.359
安徽,安庆市,28.372,48.094,6.729,14.511,0.521,111.336,-3.525,-2.461,302.299,66.409,98107.332,30.557,116.473
安徽,宣城市,21.985,35.921,5.755,12.32,0.517,80.375,-2.141,-2.817,300.644,75.663,98032.888,30.676,118.846
安徽,宿州市,32.632,53.178,7.0,20.479,0.591,98.199,-3.597,-0.9,303.429,66.01,100097.355,33.844,117.23
安徽,池州市,23.179,38.166,6.688,10.135,0.482,95.066,-3.517,-1.859,302.076,67.004,98245.774,30.296,117.379
安徽,淮北市,35.039,57.905,8.861,21.928,0.63,100.635,-3.383,-0.698,303.582,64.861,100133.808,33.722,116.747
安徽,淮南市,30.094,53.024,9.001,22.931,0.607,104.296,-3.64,-0.672,303.708,63.356,100137.343,32.463,116.746
安徽,滁州市,21.719,34.435,5.225,15.075,0.341,82.2,-3.409,-1.973,302.771,67.628,99891.623,32.55,118.076
安徽,芜湖市,24.454,43.399,8.151,17.382,0.636,97.222,-3.355,-2.106,302.698,69.05,100104.542,31.167,118.162
安徽,蚌埠市,28.158,43.972,6.552,21.063,0.45,90.946,-3.604,-0.998,303.5,64.723,100144.062,33.121,117.263
安徽,铜陵市,29.27,49.642,8.692,19.293,0.598,108.372,-3.666,-1.655,303.015,66.176,99956.536,30.883,117.531
安徽,阜阳市,27.748,56.171,7.919,17.517,0.586,99.943,-3.826,-0.762,304.076,63.096,100076.939,32.937,115.723
安徽,马鞍山市,21.012,38.535,6.716,16.723,0.597,92.386,-3.258,-2.645,302.648,69.008,100120.279,31.622,118.386
安徽,黄山市,19.185,33.02,6.393,7.841,0.487,70.12,-2.556,-2.714,300.361,71.758,96143.963,29.869,118.09
山东,东营市,33.396,57.817,9.558,9.136,0.552,128.729,-2.67,-1.856,302.83,68.929,100512.415,37.57,118.572
山东,临沂市,32.718,70.029,10.219,22.109,0.656,105.79,-2.828,-1.216,302.091,72.901,98775.88,35.289,118.27
山东,威海市,36.592,60.426,8.242,11.431,0.685,103.671,-1.659,-0.43,302.114,78.365,99883.165,37.148,122.028
山东,德州市,46.123,78.188,10.237,24.569,0.776,120.456,-3.697,-0.108,305.026,53.794,100333.894,37.233,116.679
山东,日照市,27.197,59.633,7.732,18.933,0.473,84.304,-2.34,-1.116,301.598,77.243,98889.372,35.566,119.108
山东,枣庄市,40.357,78.58,13.68,24.676,0.75,121.511,-4.043,-0.288,303.511,62.871,99431.748,34.925,117.383
山东,泰安市,40.74,77.056,11.911,21.324,0.829,131.773,-3.022,0.323,303.841,62.69,98668.31,35.993,117.04
山东,济南市,40.844,78.125,12.58,27.82,0.867,124.347,-3.158,0.09,303.964,59.16,98662.054,36.639,117.254
山东,济宁市,43.323,78.466,13.333,21.383,0.831,126.892,-3.285,0.613,304.736,58.367,99840.183,35.375,116.697
山东,淄博市,39.581,75.518,14.417,26.288,1.008,115.589,-2.892,-0.717,302.567,64.493,98112.973,36.623,118.062
山东,滨州市,39.123,67.037,9.962,17.884,0.755,117.787,-3.145,-1.146,303.63,61.916,100447.048,37.516,117.852
山东,潍坊市,36.971,67.555,10.911,20.056,0.693,103.149,-1.643,-1.716,302.259,71.395,99453.867,36.53,119.092
山东,烟台市,37.053,69.323,10.415,15.369,0.693,110.109,-1.187,-1.258,301.961,75.135,99426.106,37.25,120.789
山东,聊城市,51.532,85.694,9.45,29.628,0.883,129.482,-2.753,0.746,305.604,54.817,100089.963,36.458,115.863
山东,菏泽市,48.549,82.848,9.055,21.409,0.91,115.395,-2.538,0.769,304.926,58.652,99962.115,35.134,115.69
山东,青岛市,31.678,64.921,8.491,20.567,0.583,83.386,-1.76,-0.689,302.317,74.865,99957.008,36.46,120.172
山西,临汾市,48.416,71.517,9.19,13.197,0.898,105.404,-3.662,2.872,297.97,72.072,89535.933,36.227,111.398
山西,吕梁市,53.23,72.336,14.572,17.076,0.887,105.127,-3.026,4.146,297.5,67.655,87288.387,37.663,111.27
山西,大同市,43.171,63.598,8.907,6.816,0.555,129.141,-1.267,4.583,297.004,67.789,87002.359,39.911,113.713
山西,太原市,51.496,72.745,6.778,19.585,0.731,111.781,-3.412,2.371,296.874,70.793,87261.482,37.967,112.321
山西,忻州市,44.76,65.258,9.596,8.912,0.584,123.02,-2.834,4.583,296.336,69.395,85862.467,38.877,112.391
山西,晋中市,47.796,68.318,6.157,13.359,0.703,117.259,-3.084,2.381,297.551,68.513,88135.718,37.328,112.997
山西,晋城市,56.074,84.807,7.688,17.767,1.018,112.409,-3.323,1.567,297.588,76.759,89947.202,35.625,112.752
山西,朔州市,36.611,59.189,9.489,9.052,0.662,122.82,-1.707,5.302,296.947,66.506,86323.007,39.619,112.655
山西,运城市,41.735,65.432,6.953,11.332,0.83,119.365,-5.199,2.322,301.145,64.056,93397.053,35.205,111.071
山西,长治市,53.642,79.551,7.305,17.583,1.006,112.448,-3.041,1.375,297.016,73.941,88403.479,36.48,112.915
山西,阳泉市,50.145,76.941,8.557,15.274,0.671,114.478,-3.05,1.338,298.493,67.836,89949.419,38.031,113.512
广东,东莞市,18.324,34.892,5.768,29.738,0.68,55.297,2.298,1.939,302.139,78.098,100088.631,22.931,113.81
广东,中山市,13.006,23.227,5.05,11.762,0.477,50.381,1.818,2.376,301.794,80.142,100102.997,22.5,113.383
广东,云浮市,17.695,32.962,4.932,10.368,0.553,42.22,1.308,2.832,301.434,75.027,98117.451,22.776,111.818
广东,佛山市,19.517,34.113,6.683,22.831,0.61,49.327,1.661,1.939,302.653,72.48,100103.841,23.035,112.979
广东,广州市,23.826,39.454,6.479,31.311,0.692,48.699,1.568,1.508,301.969,76.215,99244.982,23.339,113.525
广东,惠州市,21.152,33.902,5.985,21.494,0.591,53.498,2.574,1.488,300.99,81.457,98322.774,23.244,114.485
广东,揭阳市,17.112,30.34,8.206,11.306,0.636,63.1,3.459,1.372,301.923,76.754,98876.56,23.323,116.123
广东,梅州市,21.349,34.744,7.518,14.472,0.687,47.614,2.176,0.512,301.131,75.532,96903.879,24.169,116.07
广东,汕头市,17.501,30.669,10.412,12.584,0.623,66.89,3.41,2.303,302.416,76.923,99950.993,23.339,116.614
广东,汕尾市,14.35,25.105,6.415,9.589,0.457,62.219,3.687,1.303,301.231,81.226,98646.937,23.024,115.527
广东,江门市,12.929,21.7,3.517,6.907,0.38,53.943,1.992,2.778,301.764,78.8,99552.669,22.289,112.676
广东,河源市,24.859,38.233,6.55,15.031,0.623,49.443,2.31,1.324,300.856,78.378,97099.782,24.021,114.969
广东,深圳市,14.108,27.847,7.08,26.288,0.566,47.789,2.898,2.304,301.558,81.763,99641.057,22.667,114.143
广东,清远市,24.19,35.9,5.231,14.073,0.572,54.43,1.037,1.592,300.672,75.052,96622.025,24.295,112.871
广东,湛江市,11.462,20.454,3.915,7.119,0.369,51.826,3.0,3.675,301.685,80.016,99964.703,21.091,110.163
广东,潮州市,19.266,34.099,10.117,15.523,0.751,53.303,2.521,0.727,301.816,75.603,98320.292,23.755,116.754
广东,珠海市,7.775,11.875,2.865,4.862,0.233,60.53,2.363,2.925,301.945,81.157,100194.195,22.095,113.317
广东,肇庆市,21.204,35.82,6.218,12.227,0.567,45.516,1.287,1.997,301.699,72.727,98208.57,23.505,112.199
广东,茂名市,17.774,30.743,7.319,10.911,0.505,45.971,1.484,3.459,300.874,80.661,98217.359,22.013,110.952
广东,阳江市,14.966,24.887,4.254,6.916,0.408,51.097,2.076,3.028,301.256,79.818,98731.828,22.042,111.786
广东,韶关市,25.362,38.037,7.553,13.683,0.79,57.719,1.525,0.926,300.314,75.778,95858.395,24.785,113.819
广西,北海市,10.562,19.666,4.159,5.624,0.468,49.3,2.571,4.378,301.674,81.287,99955.113,21.674,109.37
广西,南宁市,14.863,28.339,5.792,10.47,0.614,35.764,-0.167,3.245,300.799,81.806,98085.927,23.051,108.469
广西,崇左市,15.495,27.14,6.154,6.276,0.485,39.918,0.974,2.883,300.418,80.336,96823.01,22.483,107.291
广西,来宾市,18.356,32.621,6.933,8.016,0.583,38.588,-0.451,3.418,300.247,81.78,96973.534,23.859,109.417
广西,柳州市,17.196,30.353,6.904,6.474,0.509,48.989,-1.044,2.305,300.01,80.43,96375.099,24.956,109.372
广西,桂林市,20.309,30.747,7.811,6.182,0.472,55.858,-0.172,2.183,299.504,78.194,94837.89,25.353,110.513
广西,梧州市,19.889,40.805,8.336,10.459,0.699,38.535,1.099,3.117,301.069,77.214,97820.023,23.484,110.996
广西,河池市,15.088,28.229,6.803,5.708,0.541,35.968,-1.549,2.064,298.476,85.253,94100.265,24.628,107.843
广西,玉林市,18.72,31.697,7.802,10.447,0.628,39.376,0.927,4.197,300.605,82.987,98234.762,22.452,110.164
广西,百色市,20.784,32.8,6.802,5.823,0.547,48.032,-0.971,1.813,297.752,85.004,92068.442,23.981,106.292
广西,贵港市,21.456,41.813,9.657,11.962,0.775,34.022,0.394,3.11,301.168,79.819,98607.86,23.322,110.021
广西,贺州市,20.682,34.988,7.652,6.916,0.578,48.56,0.642,2.382,300.227,76.838,96062.804,24.364,111.394
广西,钦州市,13.485,25.024,5.462,9.544,0.663,38.38,1.07,4.083,301.002,84.557,99225.155,22.173,109.01
广西,防城港市,11.159,20.026,4.87,5.731,0.572,38.232,1.608,3.582,300.161,85.244,97670.184,21.88,108.002
新疆,乌鲁木齐市,24.943,40.428,2.97,10.501,0.274,80.039,-0.484,-0.115,294.39,38.657,83644.801,43.746,87.818
新疆,五家渠市,27.853,57.357,4.84,19.637,0.387,80.82,0.207,-0.727,302.65,27.1,95208.593,44.363,87.517
新疆,伊犁哈萨克自治州,12.877,16.098,2.132,3.193,0.188,83.033,1.042,0.319,288.958,54.069,80021.111,43.438,82.146
新疆,克孜勒苏柯尔克孜自治州,4.571,6.829,0.431,0.697,0.196,90.058,1.337,-2.148,283.582,51.537,70401.216,39.661,75.949
新疆,克拉玛依市,22.957,27.895,3.559,3.269,0.258,83.278,-2.336,-2.031,301.797,27.647,96066.544,45.457,85.207
新疆,北屯市,13.182,14.766,3.67,2.622,0.224,67.332,3.176,-5.6,297.448,33.852,94408.382,47.27,87.868
新疆,博尔塔拉蒙古自治州,21.181,25.128,1.969,2.354,0.156,84.16,1.173,-0.559,293.018,42.602,85542.834,44.714,82.114
新疆,双河市,27.302,33.66,2.2,3.148,0.152,81.85,0.134,-4.738,301.792,23.808,96531.728,44.87,82.474
新疆,可克达拉市,15.584,23.068,3.812,6.006,0.284,92.594,2.49,-0.382,299.41,35.796,93713.072,43.918,80.786
新疆,和田地区,24.074,28.856,0.438,0.717,0.116,62.449,-0.689,-0.718,289.422,48.197,73626.71,37.059,80.934
新疆,哈密市,19.643,20.026,1.242,1.513,0.179,69.854,1.778,-2.047,297.322,38.621,87362.64,43.042,93.517
新疆,喀什地区,18.641,21.594,0.78,1.414,0.183,73.439,0.757,0.007,289.977,42.439,75710.382,38.125,77.178
新疆,图木舒克市,31.6,32.073,1.17,1.0,0.122,60.75,-1.548,1.467,300.312,29.658,88273.832,39.892,79.182
新疆,塔城地区,17.437,20.022,2.654,2.145,0.194,76.861,-0.534,-1.135,295.396,37.994,88753.125,45.642,84.789
新疆,巴音郭楞蒙古自治州,21.914,23.006,0.694,0.447,0.105,70.544,-1.327,-0.481,292.051,53.635,78641.903,39.463,87.481
新疆,新星市,19.275,21.485,2.5,8.245,0.525,54.92,-1.06,1.095,299.79,43.69,91543.15,42.75,93.68
新疆,昆玉市,36.413,61.52,1.057,2.74,0.157,55.607,-0.303,-1.503,299.413,31.277,86099.577,37.457,79.093
新疆,昌吉回族自治州,20.776,25.53,2.143,4.699,0.18,78.853,0.2,-0.749,298.226,31.696,88953.822,44.342,88.608
新疆,石河子市,25.46,39.22,7.275,18.06,0.33,89.725,2.365,0.055,301.045,29.9,93500.915,44.245,86.035
新疆,胡杨河市,25.446,30.37,2.992,3.296,0.262,87.362,0.266,-1.728,302.352,27.652,96492.524,44.852,84.772
新疆,铁门关市,29.243,58.307,3.513,4.55,0.23,70.29,-0.94,-1.0,301.723,30.737,90561.677,41.773,85.66
新疆,阿克苏地区,26.002,27.635,0.915,1.143,0.15,72.474,0.065,-0.106,296.107,40.1,84532.041,40.965,81.578
新疆,阿勒泰地区,13.053,13.807,2.695,1.343,0.158,70.22,1.539,-3.144,294.088,37.051,87729.94,46.902,88.421
新疆,阿拉尔市,25.349,28.457,0.929,1.874,0.188,80.627,-0.105,-0.999,300.495,31.298,89083.335,40.629,80.998
江苏,南京市,19.435,35.07,7.835,18.454,0.536,82.5,-2.743,-3.31,302.114,72.31,100175.993,31.899,118.876
江苏,南通市,17.589,26.349,3.759,5.06,0.258,80.38,-3.25,-6.1,301.839,80.247,100248.499,32.201,120.979
江苏,宿迁市,25.648,41.198,5.467,14.793,0.443,87.393,-3.311,-1.847,302.375,72.591,100341.369,33.765,118.495
江苏,常州市,22.137,38.146,8.853,22.315,0.676,81.3,-2.388,-4.867,301.764,78.624,100188.401,31.613,119.666
江苏,徐州市,35.458,63.45,9.465,22.932,0.703,105.115,-3.726,-0.869,303.069,66.817,100111.371,34.363,117.513
江苏,扬州市,20.837,35.079,6.165,11.057,0.417,75.604,-2.649,-3.908,301.646,76.816,100336.864,32.709,119.486
江苏,无锡市,21.819,39.291,10.438,22.953,0.722,76.238,-2.246,-5.428,301.63,80.17,100078.575,31.546,120.066
江苏,泰州市,19.89,32.666,5.743,9.911,0.416,74.03,-2.7,-4.816,301.64,78.947,100278.243,32.605,120.048
江苏,淮安市,23.588,36.672,5.021,10.854,0.366,80.674,-2.906,-2.554,301.882,74.668,100322.601,33.362,118.985
江苏,盐城市,21.453,31.294,3.6,4.982,0.273,85.018,-2.992,-3.948,301.745,79.162,100367.896,33.529,120.156
江苏,苏州市,19.922,34.705,7.644,17.968,0.52,75.343,-2.038,-6.23,301.637,81.478,100184.508,31.374,120.661
江苏,连云港市,27.045,43.841,5.184,10.759,0.379,85.395,-2.767,-2.044,301.612,78.824,100260.937,34.519,119.133
江苏,镇江市,20.919,36.412,8.984,20.579,0.576,78.746,-2.466,-4.444,301.612,77.15,100195.33,32.016,119.49
江西,上饶市,24.34,39.119,9.863,8.078,0.641,76.784,-1.857,-1.84,302.493,65.879,98056.754,28.778,117.47
江西,九江市,28.932,48.152,8.202,7.938,0.564,90.351,-2.384,-1.974,302.599,66.32,98043.095,29.313,115.444
江西,南昌市,22.787,41.086,8.285,11.161,0.694,80.683,-1.552,-2.96,304.557,61.082,99783.133,28.671,116.016
江西,吉安市,20.333,32.938,8.066,4.653,0.566,72.41,-0.161,0.084,302.657,65.181,97661.105,26.954,114.831
江西,宜春市,27.741,47.469,9.386,7.597,0.584,77.158,-1.516,-1.842,303.202,62.477,97986.022,28.29,114.974
江西,抚州市,30.424,46.433,8.722,4.583,0.564,85.493,0.235,-0.111,302.534,65.301,97661.722,27.514,116.42
江西,新余市,28.426,50.431,13.057,10.738,0.627,70.521,-1.067,-1.267,303.601,62.317,98857.631,27.847,114.836
江西,景德镇市,22.394,36.305,8.66,6.92,0.63,69.549,-2.68,-2.28,302.932,64.797,98853.762,29.287,117.24
江西,萍乡市,16.312,35.287,9.524,8.295,0.657,62.746,-1.757,0.203,302.386,64.407,96722.246,27.505,113.908
江西,赣州市,25.796,35.484,8.453,6.523,0.789,68.288,0.869,0.613,300.992,71.965,96134.214,25.692,115.279
江西,鹰潭市,29.275,45.214,9.73,7.446,0.639,83.972,-1.565,-0.519,303.271,62.393,98538.587,28.222,117.094
河北,保定市,63.169,89.88,8.12,15.021,0.884,139.697,-2.487,-0.096,302.652,61.479,96946.285,39.018,115.159
河北,唐山市,31.131,69.007,21.927,41.027,1.203,107.29,-0.94,-0.076,303.007,61.971,100006.643,39.731,118.354
河北,廊坊市,72.117,99.313,7.585,24.484,1.323,129.449,-2.683,1.008,303.713,61.501,100494.385,39.267,116.632
河北,张家口市,49.739,74.672,8.225,7.573,0.606,142.279,-0.806,4.515,296.818,70.472,87484.525,40.877,115.042
河北,承德市,49.915,77.299,7.887,11.18,0.794,99.602,1.947,2.517,298.247,73.719,90668.907,41.339,117.578
河北,沧州市,50.645,76.373,8.543,19.678,0.76,119.545,-3.709,-0.003,304.022,58.488,100486.12,38.258,116.744
河北,石家庄市,49.884,79.988,8.206,18.477,0.684,117.93,-2.422,-0.229,303.956,55.503,97394.081,38.135,114.407
河北,秦皇岛市,25.802,53.827,13.138,26.268,0.643,107.017,-0.449,-0.239,302.35,60.376,97885.682,40.12,119.193
河北,衡水市,51.378,74.394,9.254,20.539,0.72,116.551,-3.927,0.693,305.733,49.626,100306.082,37.755,115.813
河北,邢台市,46.043,76.953,7.497,20.772,0.724,125.327,-2.023,0.349,305.1,52.412,98886.646,37.195,114.815
河北,邯郸市,52.372,91.368,8.108,26.92,1.047,121.983,-2.017,-0.393,304.357,57.179,98431.543,36.538,114.596
河南,三门峡市,42.042,64.432,8.001,8.852,0.675,104.512,-4.023,3.478,299.227,69.032,91137.459,34.362,111.101
河南,信阳市,27.511,46.434,7.768,11.906,0.489,105.527,-3.594,-0.269,303.663,63.128,99138.531,32.091,114.907
河南,南阳市,32.3,53.691,6.166,10.044,0.677,101.761,-3.598,-0.617,302.525,65.914,97203.369,33.034,112.323
河南,周口市,31.203,56.016,6.507,14.063,0.665,99.501,-3.342,0.051,304.49,61.782,99886.101,33.738,114.884
河南,商丘市,40.959,69.223,8.002,17.198,0.748,101.55,-3.023,0.41,304.355,61.876,99980.524,34.277,115.718
河南,安阳市,54.058,91.388,8.218,23.749,1.125,120.892,-1.163,-1.262,303.839,59.952,98049.513,35.888,114.318
河南,平顶山市,42.699,67.704,7.533,19.309,0.959,102.198,-2.503,-0.644,302.951,66.006,97837.263,33.8,113.025
河南,开封市,48.038,77.624,6.399,16.536,0.881,118.001,-2.064,-0.491,304.392,63.026,99659.345,34.594,114.514
河南,新乡市,49.602,79.126,7.165,20.367,0.982,118.647,-1.693,-1.582,304.005,62.082,98804.416,35.256,114.111
河南,洛阳市,48.316,73.144,7.432,15.69,0.945,111.454,-3.245,1.298,299.846,72.592,93448.213,34.274,112.019
河南,济源市,53.47,88.875,8.085,28.047,1.297,105.33,-3.829,-0.118,301.321,68.735,95227.633,35.105,112.445
河南,漯河市,34.582,58.115,9.116,17.007,0.733,98.121,-2.919,-0.138,304.47,61.431,99728.252,33.652,113.945
河南,濮阳市,54.917,91.968,8.33,24.506,1.073,124.801,-2.655,0.278,305.229,57.282,99950.039,35.809,115.283
河南,焦作市,49.558,81.271,6.904,27.393,1.097,105.651,-3.027,-0.939,303.924,61.706,98624.269,35.121,113.163
河南,许昌市,42.845,71.368,7.891,24.067,0.95,97.168,-2.571,-0.935,303.899,64.081,99109.555,34.075,113.707
河南,郑州市,46.61,77.239,4.995,29.626,1.072,100.891,-2.59,-0.675,302.935,67.462,97899.247,34.634,113.438
河南,驻马店市,26.763,48.773,7.54,13.015,0.555,99.323,-3.475,-0.068,304.231,61.774,99423.361,32.925,114.174
河南,鹤壁市,50.922,87.266,8.308,22.954,1.148,120.534,-0.883,-1.968,304.587,58.766,99139.927,35.716,114.319
浙江,丽水市,22.403,36.946,6.414,10.874,0.469,72.545,0.649,-3.083,298.524,77.649,93536.806,28.194,119.51
浙江,台州市,22.112,34.731,6.826,14.269,0.51,65.982,2.61,-5.384,300.242,77.377,97487.479,28.742,121.109
浙江,嘉兴市,21.664,35.361,5.751,18.622,0.617,75.095,-0.445,-5.404,301.291,82.249,100149.975,30.635,120.754
浙江,宁波市,20.092,30.609,6.062,12.726,0.496,69.236,1.946,-6.532,300.361,84.455,98901.929,29.706,121.49
浙江,杭州市,21.938,35.199,5.563,13.465,0.552,74.197,-0.565,-4.404,300.273,77.569,97449.884,29.891,119.464
浙江,温州市,20.617,35.43,6.288,15.541,0.499,63.544,2.447,-3.572,300.413,73.647,96394.232,27.897,120.411
浙江,湖州市,21.449,35.749,6.308,17.866,0.605,82.554,-0.644,-4.54,300.769,80.852,99011.457,30.757,119.871
浙江,绍兴市,26.665,40.034,5.927,18.101,0.732,72.033,1.197,-4.617,299.821,84.511,98180.266,29.709,120.64
浙江,舟山市,17.658,27.415,1.782,1.63,0.152,82.322,0.815,-9.505,300.928,86.168,99778.257,30.038,122.23
浙江,衢州市,20.337,34.26,7.967,13.833,0.515,70.42,-1.656,-2.706,301.145,69.794,96721.604,28.912,118.675
浙江,金华市,26.997,41.231,6.334,18.682,0.616,73.39,0.275,-4.356,299.948,78.428,96926.969,29.109,119.967
海南,万宁市,6.982,9.872,1.699,3.411,0.197,49.079,3.39,3.459,301.504,76.517,99060.378,18.842,110.294
海南,三亚市,7.974,16.537,2.0,7.819,0.381,38.287,4.02,1.366,300.031,84.274,97918.537,18.413,109.407
海南,东方市,6.203,7.818,1.687,1.972,0.166,52.247,2.423,4.045,300.841,77.221,98495.285,18.971,108.838
海南,临高县,7.374,12.044,2.127,3.607,0.241,51.647,3.964,2.147,301.897,70.17,99581.949,19.821,109.733
海南,乐东黎族自治县,7.774,10.491,1.322,3.341,0.227,44.124,2.5,1.717,299.404,84.251,97045.718,18.659,109.072
海南,五指山市,8.482,10.152,1.284,3.13,0.196,40.728,3.884,2.27,298.006,83.55,93914.862,18.81,109.518
海南,儋州市,6.629,9.468,1.974,2.834,0.191,52.776,4.272,2.8,301.915,69.734,99254.377,19.568,109.399
海南,定安县,8.108,13.667,2.24,5.463,0.312,47.023,2.075,1.38,302.072,71.508,99305.085,19.47,110.28
海南,屯昌县,6.968,10.216,1.668,3.53,0.234,47.836,2.606,1.422,301.846,70.016,98547.564,19.342,110.076
海南,文昌市,8.855,15.302,2.581,5.522,0.306,51.909,1.504,2.156,301.768,79.608,100061.505,19.707,110.773
海南,昌江黎族自治县,6.794,8.612,2.058,2.677,0.169,52.392,3.487,4.324,300.361,76.214,97485.281,19.233,109.016
海南,海口市,9.895,18.472,3.614,8.253,0.388,46.761,1.949,1.139,301.858,74.874,99859.79,19.842,110.393
海南,澄迈县,7.724,13.039,2.47,5.043,0.29,47.941,2.801,1.549,302.127,69.406,99418.76,19.676,109.989
海南,琼中黎族苗族自治县,6.821,8.679,1.343,2.807,0.188,45.541,3.689,2.311,300.645,71.783,96434.093,19.087,109.847
海南,琼海市,7.612,11.848,2.052,4.52,0.245,48.868,1.815,2.055,302.063,74.482,99851.555,19.22,110.43
海南,白沙黎族自治县,6.609,8.174,1.524,2.324,0.174,48.46,4.297,3.428,300.344,72.036,96154.854,19.2,109.388
海南,陵水黎族自治县,7.786,11.613,1.773,6.074,0.256,41.556,4.096,2.207,301.077,77.154,98424.643,18.581,109.913
湖北,仙桃市,27.13,51.375,5.197,12.676,0.746,107.965,-2.502,-0.516,304.31,61.673,99998.553,30.284,113.417
湖北,十堰市,28.877,46.116,7.971,5.105,0.525,82.639,-3.798,1.388,299.525,69.164,92546.122,32.462,110.476
湖北,咸宁市,29.328,47.726,7.146,6.835,0.687,101.057,-2.817,0.274,303.398,62.093,98232.372,29.621,114.178
湖北,天门市,26.898,54.837,6.69,15.874,0.793,96.959,-2.466,-0.785,304.088,63.226,99962.38,30.633,113.053
湖北,孝感市,23.923,45.2,6.497,11.456,0.62,92.343,-3.115,-0.402,304.197,61.373,99424.019,31.116,113.869
湖北,宜昌市,26.062,44.549,6.185,7.06,0.606,79.046,-1.555,-0.442,299.419,74.456,93314.791,30.746,111.129
湖北,恩施土家族苗族自治州,22.526,36.856,8.876,4.656,0.575,54.164,-3.454,2.039,296.072,83.331,88973.272,30.195,109.552
湖北,武汉市,28.179,51.58,7.898,19.961,0.789,99.491,-2.712,-0.103,304.262,62.034,99920.1,30.606,114.349
湖北,潜江市,28.106,52.664,7.141,16.662,0.877,94.03,-2.167,-1.162,304.081,63.41,99956.938,30.33,112.77
湖北,神农架林区,31.317,42.238,5.725,1.655,0.35,84.791,-1.915,4.285,292.484,86.713,82728.793,31.592,110.49
湖北,荆州市,25.763,44.262,6.679,11.094,0.787,88.514,-1.938,-1.439,304.09,62.938,99728.776,30.01,112.512
湖北,荆门市,29.522,53.221,7.893,13.102,0.77,81.965,-2.132,-0.86,303.689,63.596,99016.466,31.059,112.616
湖北,襄阳市,29.186,48.498,6.177,9.102,0.641,88.102,-2.026,0.47,302.082,66.17,96459.098,31.919,111.96
湖北,鄂州市,28.691,52.201,9.684,20.167,0.849,98.274,-2.471,-0.123,304.127,62.961,99966.461,30.337,114.794
湖北,随州市,26.289,41.675,6.753,7.231,0.552,87.062,-3.661,-0.038,303.684,61.441,98383.433,31.809,113.43
湖北,黄冈市,23.466,42.551,7.945,12.094,0.567,95.712,-3.563,-0.972,303.152,62.893,98341.216,30.702,115.358
湖北,黄石市,34.286,56.879,10.127,15.871,0.774,101.993,-2.516,-0.141,303.234,65.493,99041.361,29.925,115.034
湖南,娄底市,18.645,30.796,10.788,8.917,1.051,68.94,-1.436,-0.142,301.956,65.593,96143.699,27.715,111.632
湖南,岳阳市,24.447,38.628,6.266,6.771,0.556,83.335,-2.644,0.147,304.069,60.57,98871.299,29.081,113.275
湖南,常德市,19.541,34.747,7.504,7.914,0.708,72.718,-1.367,-1.787,302.786,66.785,98122.255,29.271,111.524
湖南,张家界市,18.636,35.24,7.918,5.943,0.702,60.806,-2.877,-1.615,299.819,75.142,94425.215,29.379,110.526
湖南,怀化市,16.596,31.717,7.334,4.924,0.782,57.306,-1.589,0.714,300.293,74.492,95283.166,27.535,110.071
湖南,株洲市,16.655,30.161,8.731,8.057,0.593,63.289,-1.174,1.057,302.254,65.673,96839.324,27.109,113.513
湖南,永州市,20.747,28.769,5.812,6.034,0.509,53.125,0.663,2.111,300.823,70.802,95526.628,25.748,111.723
湖南,湘潭市,16.943,28.078,8.073,11.54,0.819,76.427,-1.352,0.142,304.07,60.804,98957.563,27.744,112.619
湖南,湘西土家族苗族自治州,14.804,29.18,6.954,5.34,0.851,42.773,-3.358,-0.387,299.52,77.119,94333.179,28.708,109.718
湖南,益阳市,18.566,30.258,5.805,6.34,0.772,75.48,-1.572,-0.28,302.933,64.702,97636.841,28.525,111.919
湖南,衡阳市,15.986,29.102,8.315,10.019,0.613,54.663,-0.342,1.196,303.493,62.934,98511.261,26.781,112.565
湖南,邵阳市,22.855,32.915,7.845,5.959,0.615,61.882,-0.724,0.981,300.071,71.773,94031.965,26.893,110.881
湖南,郴州市,17.398,33.07,7.686,11.268,0.928,45.097,0.489,1.627,300.16,72.529,94758.833,25.769,113.109
湖南,长沙市,19.617,34.622,6.732,10.285,0.649,72.742,-2.309,-0.032,303.791,60.981,98410.507,28.235,113.159
甘肃,临夏回族自治州,23.918,33.911,8.921,6.461,0.453,57.484,-2.895,3.489,292.293,68.595,76899.962,35.617,103.291
甘肃,兰州市,22.036,35.103,9.648,12.391,0.478,58.937,-4.442,3.841,292.924,69.76,78533.09,36.359,103.633
甘肃,嘉峪关市,11.738,27.273,7.8,8.927,0.423,85.793,4.852,-3.632,293.612,52.282,81094.305,39.798,98.145
甘肃,天水市,24.92,31.77,7.599,4.065,0.252,70.809,-3.46,6.869,292.49,85.624,82210.458,34.645,105.739
甘肃,定西市,27.1,36.99,10.125,2.978,0.323,71.788,-4.683,9.518,290.153,82.979,76850.802,35.124,104.432
甘肃,平凉市,22.885,35.517,6.747,7.798,0.345,72.273,-2.426,6.398,294.466,77.345,84014.292,35.304,106.644
甘肃,庆阳市,25.367,40.959,10.815,6.063,0.412,82.594,-3.343,6.457,296.129,71.486,85278.539,36.149,107.596
甘肃,张掖市,23.399,28.097,3.447,2.402,0.202,72.985,1.186,-1.328,289.431,70.346,74368.402,38.94,99.855
甘肃,武威市,25.599,31.71,7.601,2.453,0.231,77.397,0.264,0.067,296.133,57.761,80663.062,38.163,103.073
甘肃,甘南藏族自治州,23.22,28.106,7.727,1.657,0.259,68.213,-0.977,5.165,285.077,85.116,67543.754,34.331,102.768
甘肃,白银市,20.235,31.304,9.802,4.063,0.381,71.365,-3.234,9.253,294.221,68.715,80886.947,36.59,104.646
甘肃,酒泉市,19.184,20.38,1.327,0.838,0.121,70.872,1.951,-2.043,291.864,56.389,78611.836,40.236,96.062
甘肃,金昌市,23.288,33.47,4.317,3.025,0.183,74.369,3.831,-3.605,295.45,55.711,79967.829,38.44,102.048
甘肃,陇南市,26.003,35.514,11.723,4.086,0.305,71.213,-2.951,5.795,291.389,93.008,81757.855,33.599,105.224
福建,三明市,23.961,38.257,7.909,8.088,0.845,55.942,1.395,-0.342,299.725,73.062,94180.859,26.29,117.395
福建,南平市,27.204,43.859,10.219,5.456,0.602,81.796,0.427,-1.242,300.107,72.08,94886.737,27.324,118.143
福建,厦门市,24.898,45.34,10.842,26.297,0.622,51.568,0.792,1.443,302.025,76.563,99133.637,24.642,118.11
福建,宁德市,22.639,39.969,9.431,6.162,0.5,71.385,1.719,-1.726,299.444,75.844,94206.971,26.968,119.474
福建,泉州市,21.316,38.009,6.627,13.106,0.61,62.181,1.734,0.196,300.345,75.174,95531.988,25.201,118.249
福建,漳州市,20.191,35.919,7.866,14.817,0.563,46.615,2.316,0.528,301.221,75.349,97079.58,24.372,117.444
福建,福州市,21.724,40.133,7.857,10.438,0.587,77.208,2.766,0.199,300.726,74.098,96220.704,26.083,119.206
福建,莆田市,19.173,36.471,6.915,11.125,0.589,79.634,1.94,0.544,300.994,74.899,96977.524,25.445,118.864
福建,龙岩市,21.794,35.344,6.348,10.193,0.572,41.751,0.757,-0.284,299.701,74.356,94189.803,25.256,116.739
西藏,山南市,14.956,15.802,1.531,1.863,0.152,73.227,0.828,3.018,283.09,86.82,66108.751,28.295,92.274
西藏,拉萨市,13.487,15.479,1.827,3.16,0.171,92.203,3.583,5.271,279.118,79.66,56749.163,30.043,91.093
西藏,日喀则市,17.466,18.556,1.968,0.626,0.173,111.818,4.329,2.598,277.863,81.386,55492.6,29.483,86.493
西藏,昌都市,8.571,10.795,0.776,0.72,0.145,77.011,3.088,3.661,279.915,79.554,59252.932,30.753,97.044
西藏,林芝市,11.763,12.265,1.075,1.637,0.137,63.489,0.677,3.187,282.63,93.008,66388.017,29.184,95.25
西藏,玉树藏族自治州,12.047,12.976,0.67,0.44,0.106,83.417,-2.112,0.805,279.336,78.285,57532.769,34.196,94.317
西藏,那曲市,12.275,12.759,0.821,0.324,0.133,93.653,0.585,1.52,279.874,74.234,55592.435,32.709,89.262
西藏,阿里地区,6.584,6.874,0.564,0.393,0.135,91.767,2.774,-2.036,280.069,55.277,55022.364,33.013,82.553
贵州,六盘水市,19.33,32.923,6.557,10.417,0.434,59.114,-0.351,2.395,292.788,89.983,82587.111,26.106,104.896
贵州,安顺市,14.118,27.514,4.58,5.063,0.357,59.605,-1.83,2.572,295.049,89.117,87478.592,25.986,105.978
贵州,毕节市,17.202,30.646,6.846,8.906,0.402,58.835,-0.363,4.221,293.88,83.403,82896.956,27.063,105.211
贵州,贵阳市,11.544,28.541,3.836,14.018,0.467,49.694,-1.259,4.071,295.454,85.761,87522.616,26.845,106.71
贵州,遵义市,18.041,27.626,6.791,5.564,0.359,64.805,-3.809,3.89,296.782,83.442,89615.218,28.167,107.102
贵州,铜仁市,16.247,28.861,7.957,4.262,0.531,55.025,-2.487,1.554,297.784,82.47,91932.453,27.937,108.534
贵州,黔东南苗族侗族自治州,16.111,29.804,8.787,4.105,0.49,53.037,-1.341,1.856,297.127,86.264,91826.648,26.495,108.574
贵州,黔南布依族苗族自治州,13.926,25.629,6.205,4.591,0.405,49.286,-1.811,2.151,295.864,89.343,89621.99,26.0,107.265
贵州,黔西南布依族苗族自治州,16.636,28.347,5.168,3.907,0.382,65.282,-1.257,1.454,295.575,87.098,87833.933,25.256,105.467
辽宁,丹东市,24.442,36.423,6.674,8.379,0.539,92.824,-1.121,-0.091,300.879,70.79,97789.351,40.554,124.376
辽宁,大连市,24.703,41.371,7.193,13.043,0.638,121.497,-1.922,-0.542,302.799,63.749,99795.365,39.591,122.22
辽宁,抚顺市,12.452,20.615,4.487,8.838,0.402,91.903,-3.311,-0.921,298.819,58.298,96246.645,41.841,124.65
辽宁,朝阳市,23.845,44.104,10.132,12.597,0.506,99.151,0.251,2.758,302.416,53.934,95741.075,41.545,120.053
辽宁,本溪市,15.754,25.17,5.701,9.36,0.457,92.266,-1.778,-0.751,299.473,61.638,95605.207,41.232,124.544
辽宁,沈阳市,15.757,40.236,9.923,22.354,0.579,109.559,-3.361,-0.627,301.938,49.805,100086.007,42.081,123.159
辽宁,盘锦市,20.124,49.672,14.213,26.509,0.769,119.207,-2.761,-1.787,302.909,51.047,100629.755,41.13,122.01
辽宁,营口市,21.837,39.397,8.199,15.32,0.674,112.902,-2.569,-0.964,302.543,54.632,98527.564,40.395,122.478
辽宁,葫芦岛市,20.1,41.058,12.198,18.689,0.506,108.54,-0.135,-0.044,303.024,52.161,98294.165,40.66,120.215
辽宁,辽阳市,19.386,41.017,9.234,20.361,0.728,106.564,-2.819,-0.781,301.557,54.613,98769.022,41.153,123.261
辽宁,铁岭市,11.9,24.35,3.974,13.892,0.409,94.953,-3.71,-0.124,300.31,51.266,98685.907,42.653,124.158
辽宁,锦州市,17.296,40.75,12.309,19.912,0.596,112.9,-1.951,-0.124,303.451,46.282,99884.628,41.502,121.659
辽宁,阜新市,16.077,34.333,10.367,14.907,0.465,106.038,-2.081,1.723,303.057,45.033,98531.794,42.289,121.968
辽宁,鞍山市,22.617,43.399,9.017,18.454,0.728,107.209,-2.217,-0.811,301.836,58.365,98810.677,40.731,123.007
重庆,重庆城区,17.993,28.56,8.554,11.064,0.418,67.146,-4.415,3.599,301.253,66.069,93874.201,29.824,107.125
重庆,重庆郊县,20.797,32.062,10.165,5.325,0.423,62.079,-4.141,2.301,297.919,75.188,90381.555,30.334,108.755
陕西,咸阳市,22.328,43.208,6.584,14.459,0.614,78.771,-4.417,2.879,300.303,60.254,90638.083,34.779,108.367
陕西,商洛市,32.449,52.349,8.986,4.594,0.537,79.333,-3.756,3.09,296.746,77.907,88802.685,33.64,109.889
陕西,安康市,24.213,38.71,9.454,3.887,0.378,69.828,-3.79,1.843,297.372,73.762,89236.823,32.735,108.932
陕西,宝鸡市,23.272,38.158,5.008,10.164,0.379,65.816,-2.838,3.97,295.564,75.355,85792.542,34.386,107.193
陕西,延安市,37.576,62.561,13.71,11.391,0.825,82.618,-3.957,5.778,297.115,69.706,87061.223,36.432,109.316
陕西,榆林市,34.625,57.46,14.755,8.963,0.771,100.497,-2.437,7.393,298.693,60.966,87395.067,38.041,109.581
陕西,汉中市,19.289,30.122,7.641,5.405,0.322,57.555,-3.877,2.403,296.481,77.508,88293.259,33.088,107.098
陕西,渭南市,28.676,50.085,7.699,10.024,0.689,94.767,-4.673,2.494,302.057,56.642,92911.618,34.919,109.855
陕西,西安市,22.322,39.463,6.174,7.366,0.533,76.545,-3.074,5.705,299.511,63.784,89750.607,34.12,108.77
陕西,铜川市,29.842,50.629,9.732,9.988,0.757,88.146,-4.911,2.791,298.499,65.245,88548.673,35.198,109.058
青海,保亭黎族苗族自治县,8.564,14.434,2.14,8.396,0.308,37.528,4.956,1.396,299.922,78.722,96341.99,18.566,109.618
青海,吐鲁番市,22.787,25.481,1.692,2.12,0.167,71.394,-0.895,-0.438,299.892,32.326,89267.563,42.386,89.851
青海,果洛藏族自治州,13.061,13.514,1.234,0.859,0.114,66.101,1.529,-0.284,280.171,84.63,60152.274,34.127,99.404
青海,海东市,30.042,35.337,10.199,5.45,0.317,67.511,-4.621,-1.017,287.847,84.94,72479.107,36.347,102.34
青海,海北藏族自治州,28.83,30.923,5.072,1.328,0.177,70.518,-3.711,-0.652,282.931,89.608,65452.002,37.775,100.288
青海,海南藏族自治州,26.141,28.37,5.56,1.924,0.194,68.265,-2.197,-1.545,284.209,85.786,66444.142,35.89,100.272
青海,海西蒙古族藏族自治州,17.165,17.808,1.473,0.456,0.116,83.866,-0.491,-0.786,284.692,67.279,64528.393,36.677,94.519
青海,西宁市,26.351,35.142,8.926,8.575,0.558,61.352,-3.108,-1.123,285.231,92.204,69459.624,36.842,101.423
青海,黄南藏族自治州,18.773,20.111,3.601,1.203,0.163,64.516,-0.193,1.026,283.892,85.316,65759.359,35.022,101.631
香港,香港特别行政区,10.235,16.305,5.96,15.62,0.285,50.23,3.26,2.625,301.525,82.715,99832.045,22.45,114.22
黑龙江,七台河市,12.907,21.405,3.398,8.703,0.372,68.785,1.233,-0.677,294.825,54.125,97815.743,45.87,130.943
黑龙江,伊春市,8.57,11.968,1.7,2.19,0.214,52.828,2.741,0.325,294.365,59.181,96407.472,47.772,129.184
黑龙江,佳木斯市,8.472,12.643,1.91,4.812,0.331,61.901,2.535,-0.239,294.829,54.052,99640.902,47.207,132.11
黑龙江,双鸭山市,8.891,12.868,2.504,4.923,0.381,64.657,2.788,-0.527,294.422,55.384,99252.891,46.722,132.643
黑龙江,哈尔滨市,9.771,13.96,1.358,4.516,0.256,72.416,-0.978,-0.134,296.016,58.464,98099.127,45.634,127.964
黑龙江,大兴安岭地区,7.398,7.818,0.718,1.414,0.16,63.958,1.368,-1.501,292.323,57.408,94570.151,52.286,124.212
黑龙江,大庆市,11.738,21.485,4.718,6.038,0.358,73.998,-2.538,3.132,298.226,51.569,99254.714,46.327,124.687
黑龙江,牡丹江市,9.804,14.652,1.806,3.885,0.228,77.64,-0.432,-0.393,294.592,62.56,95139.627,44.592,129.883
黑龙江,绥化市,12.624,18.65,2.457,4.519,0.31,71.723,-0.862,1.126,296.092,58.419,98588.946,46.89,126.634
黑龙江,鸡西市,11.381,16.629,3.017,6.545,0.276,70.908,1.95,-1.131,294.652,56.688,99009.495,45.626,132.289
黑龙江,鹤岗市,9.177,14.751,2.236,4.557,0.353,56.985,3.299,-0.268,295.117,56.926,98707.299,47.661,130.778
黑龙江,黑河市,9.255,12.703,2.071,2.44,0.219,63.02,3.06,1.414,294.059,64.12,96715.179,49.268,127.004
黑龙江,齐齐哈尔市,13.301,19.424,5.243,4.864,0.275,76.262,-1.15,1.974,296.3,61.779,98484.405,47.715,124.57
