province,city,PM2.5,PM10,SO2,NO2,CO,O3,U,V,TEMP,RH,PSFC,lat,lon
上海,上海市,29.92,43.24,6.055,20.337,0.592,99.423,-2.036,-2.86,300.997,80.702,100175.332,31.173,121.42
云南,临沧市,14.784,22.363,3.94,4.389,0.454,43.343,2.165,0.537,293.084,89.72,83305.457,23.935,99.686
云南,丽江市,20.682,36.732,7.755,3.799,0.447,67.493,0.692,1.865,289.261,82.932,74292.342,26.96,100.515
云南,保山市,11.06,24.937,6.585,4.595,0.392,47.783,1.803,0.178,291.902,91.251,81330.402,24.953,98.962
云南,大理白族自治州,15.661,30.809,6.072,4.52,0.415,57.146,2.123,1.043,290.783,84.141,77659.342,25.726,100.053
云南,德宏傣族景颇族自治州,10.902,17.5,7.225,3.24,0.242,45.912,2.04,0.256,293.611,93.199,85428.851,24.535,98.052
云南,怒江傈僳族自治州,16.74,29.961,3.637,1.737,0.266,59.097,1.72,0.619,286.595,93.291,72486.291,26.916,98.885
云南,文山壮族苗族自治州,33.528,47.364,8.556,5.511,0.373,66.576,0.095,-0.866,295.751,75.523,85774.207,23.696,104.735
云南,昆明市,28.274,40.007,6.807,11.597,0.528,57.689,0.604,0.92,291.625,79.583,78753.544,25.384,102.863
云南,昭通市,28.901,45.258,8.311,7.676,0.579,66.269,-0.332,-0.181,293.268,84.549,83469.478,27.667,103.985
云南,普洱市,15.192,21.497,3.321,3.378,0.379,42.182,1.588,0.953,294.29,87.154,85304.419,23.159,100.718
云南,曲靖市,26.28,38.975,8.774,9.54,0.579,64.895,-0.356,0.691,291.515,83.052,79520.494,25.737,103.929
云南,楚雄彝族自治州,24.988,34.928,5.15,4.266,0.383,48.43,1.847,1.477,292.829,80.186,80437.153,25.328,101.567
云南,玉溪市,24.899,33.058,4.857,5.29,0.352,57.039,1.816,0.979,294.011,80.228,82858.857,24.136,102.217
云南,红河哈尼族彝族自治州,22.988,32.075,7.197,4.331,0.324,65.108,1.529,0.447,294.787,79.586,84477.619,23.451,103.034
云南,西双版纳傣族自治州,8.738,14.708,2.514,3.329,0.335,33.697,1.988,1.64,295.541,87.31,88222.127,21.939,100.912
云南,迪庆藏族自治州,16.425,28.38,3.872,2.534,0.275,64.793,1.835,1.591,284.052,89.982,67122.561,27.957,99.459
内蒙古,乌兰察布市,37.436,54.229,17.574,7.117,0.519,103.581,0.148,1.87,295.233,64.994,85339.794,41.691,112.44
内蒙古,乌海市,31.999,58.455,22.486,24.029,0.925,94.916,-1.219,1.551,299.401,49.336,86787.282,39.396,106.856
内蒙古,兴安盟,14.199,18.122,4.396,4.555,0.21,58.527,-4.11,0.284,290.358,84.659,94229.302,46.244,121.341
内蒙古,包头市,36.44,49.102,13.781,6.023,0.441,100.903,-0.049,1.301,296.191,58.831,85274.833,41.549,110.276
内蒙古,呼伦贝尔市,9.557,10.699,1.895,1.925,0.179,55.635,-2.615,-0.217,289.235,72.624,93169.647,49.636,121.171
内蒙古,呼和浩特市,22.015,39.402,10.933,9.545,0.666,110.897,-0.184,2.13,295.215,69.073,85674.547,40.578,111.513
内蒙古,巴彦淖尔市,36.616,45.096,11.102,4.296,0.335,86.707,-1.518,0.276,297.704,53.761,86538.051,41.446,107.582
内蒙古,赤峰市,27.895,40.462,10.191,8.514,0.426,76.918,-0.034,3.818,295.182,68.111,91210.652,43.226,118.892
内蒙古,通辽市,15.055,23.366,7.148,6.638,0.272,73.463,-3.28,2.091,297.252,61.444,96980.758,43.814,121.591
内蒙古,鄂尔多斯市,27.739,41.974,11.111,5.316,0.479,97.617,-0.749,3.064,297.673,59.375,86236.823,39.407,108.63
内蒙古,锡林郭勒盟,30.749,38.007,12.096,3.556,0.266,80.942,-0.841,1.86,294.753,65.746,88330.951,44.179,115.482
内蒙古,阿拉善盟,33.766,39.446,5.731,2.606,0.224,82.054,-0.113,-0.99,299.718,41.499,86677.043,40.473,102.467
北京,北京市,37.059,56.353,3.683,17.573,0.902,108.141,-1.43,2.373,298.346,76.296,96755.852,40.158,116.395
台湾,台湾省,30.939,34.389,8.109,19.757,0.152,71.405,0.398,-1.098,297.303,78.314,91903.347,23.757,120.975
吉林,吉林市,17.232,24.937,3.86,5.899,0.304,71.764,-0.844,-1.434,293.617,75.038,96515.816,43.573,126.859
吉林,四平市,13.013,25.393,3.306,10.109,0.315,70.514,-3.858,-0.048,296.979,63.205,98559.17,43.472,124.386
吉林,延边朝鲜族自治州,18.667,24.485,3.605,4.04,0.234,65.485,1.65,-1.148,292.521,75.73,93684.34,43.141,129.147
吉林,松原市,12.333,22.732,3.218,4.631,0.284,60.566,-3.506,-1.277,295.27,67.972,99006.841,44.785,124.496
吉林,白城市,12.761,20.124,4.491,5.681,0.234,55.585,-4.138,-1.365,294.111,74.899,99105.999,45.35,123.031
吉林,白山市,17.07,24.914,5.721,7.231,0.349,75.346,-0.016,-0.558,293.017,69.584,91868.889,42.063,127.256
吉林,辽源市,14.746,29.034,5.398,15.104,0.413,68.815,-2.38,0.357,294.867,72.168,96819.718,42.836,125.32
吉林,通化市,15.457,26.839,6.295,10.028,0.457,72.01,-1.271,-0.535,294.825,67.813,95115.888,41.939,125.927
吉林,长春市,14.317,27.772,3.022,8.063,0.347,61.6,-2.428,-1.529,294.636,72.795,98583.661,44.268,125.611
四川,乐山市,26.906,40.269,8.125,8.744,0.55,74.96,0.254,-0.881,296.118,83.009,88687.322,29.218,103.569
四川,内江市,16.77,26.838,6.18,12.189,0.505,77.299,-0.783,-1.265,301.044,71.44,95400.146,29.62,104.95
四川,凉山彝族自治州,29.08,42.79,9.833,4.184,0.565,70.862,-0.754,0.79,288.061,88.012,73879.209,27.883,102.065
四川,南充市,16.361,34.042,8.575,14.282,0.528,72.608,-1.427,-0.564,301.444,65.288,95442.024,31.19,106.199
四川,宜宾市,21.129,35.039,6.008,12.097,0.577,72.538,1.35,-0.419,299.732,75.089,93857.366,28.573,104.621
四川,巴中市,22.859,38.643,11.041,7.807,0.433,72.944,-1.589,0.798,299.228,65.043,91435.892,32.033,107.031
四川,广元市,19.366,37.154,12.723,7.289,0.454,62.336,-0.547,0.732,297.867,72.896,90591.581,32.261,105.788
四川,广安市,24.587,43.461,9.436,17.317,0.566,88.295,-0.553,1.463,302.369,59.268,95453.92,30.43,106.628
四川,德阳市,24.432,48.742,10.474,16.587,0.62,77.358,-0.687,-0.468,298.869,72.341,92066.303,31.13,104.436
四川,成都市,24.09,44.197,10.51,18.035,0.626,77.501,-0.723,-0.815,299.098,71.431,92199.766,30.64,103.929
四川,攀枝花市,26.73,42.846,13.822,9.052,0.718,65.398,-1.065,0.123,294.047,71.463,80931.194,26.791,101.734
四川,泸州市,27.181,42.122,6.748,12.404,0.458,75.109,-0.552,1.814,299.462,70.464,92322.86,28.424,105.675
四川,甘孜藏族自治州,27.478,33.047,4.477,1.33,0.184,80.414,-1.961,0.278,280.354,83.636,61367.884,30.936,100.009
四川,眉山市,20.641,34.305,9.466,12.183,0.551,75.878,-0.199,-0.835,298.878,77.029,92633.343,29.912,103.766
四川,绵阳市,29.239,49.614,10.845,9.273,0.492,74.668,-0.218,0.13,295.572,76.76,87142.631,31.86,104.704
四川,自贡市,18.32,26.037,6.426,13.285,0.525,74.531,-0.259,-1.399,300.915,72.742,95379.779,29.307,104.659
四川,资阳市,19.279,33.534,6.474,10.408,0.498,78.344,-1.303,-1.06,301.179,70.622,95635.446,30.102,105.149
四川,达州市,28.438,46.998,15.191,15.626,0.447,88.583,-1.597,1.302,300.654,61.049,92939.024,31.335,107.636
四川,遂宁市,16.777,34.823,6.8,13.256,0.502,75.083,-1.952,-1.086,301.463,68.039,95864.088,30.642,105.457
四川,阿坝藏族羌族自治州,27.17,38.326,6.644,1.79,0.28,72.967,-0.459,-0.667,282.261,84.051,65625.386,32.406,102.61
四川,雅安市,30.86,48.763,12.301,4.77,0.463,80.205,-0.503,-0.475,290.543,86.835,79592.038,29.932,102.689
天津,天津市,51.895,76.172,8.406,25.765,1.237,137.635,-3.065,2.788,300.77,73.732,100255.782,39.315,117.308
宁夏,中卫市,27.772,51.122,10.918,6.326,0.587,75.455,-0.067,1.949,297.455,53.63,82904.486,37.018,105.509
宁夏,吴忠市,28.428,46.947,10.265,5.197,0.473,85.641,0.264,2.878,297.871,55.33,84386.045,37.454,106.577
宁夏,固原市,22.491,46.34,10.363,14.098,0.443,63.66,0.352,3.857,293.351,71.165,80523.349,35.905,106.183
宁夏,石嘴山市,30.032,63.179,11.784,19.929,0.957,97.687,-0.718,-0.003,298.747,50.495,85930.356,39.013,106.499
宁夏,银川市,29.368,59.608,9.615,13.555,0.809,96.94,-0.33,0.47,299.248,50.854,86204.209,38.287,106.342
安徽,亳州市,43.516,66.468,8.905,12.057,0.728,113.175,-4.474,0.156,303.227,71.324,99967.567,33.44,116.162
安徽,六安市,45.099,72.762,7.298,20.992,0.716,134.65,-3.316,0.302,302.477,62.434,97575.868,31.617,116.209
安徽,合肥市,48.33,73.508,6.219,21.292,0.791,129.551,-3.877,-0.975,303.333,66.294,99813.28,31.766,117.359
安徽,安庆市,43.014,72.088,9.941,15.702,0.662,149.895,-3.791,-2.582,302.833,61.125,97945.684,30.557,116.473
安徽,宣城市,38.112,59.811,8.008,17.057,0.646,111.107,-3.219,-0.738,301.68,64.129,97901.817,30.676,118.846
安徽,宿州市,32.703,50.713,7.863,12.522,0.646,108.872,-4.992,-0.254,302.419,68.466,99977.5,33.844,117.23
安徽,池州市,39.659,63.815,9.792,12.661,0.622,120.005,-3.818,-1.295,302.816,59.402,98085.613,30.296,117.379
安徽,淮北市,39.184,58.46,9.698,15.439,0.715,107.252,-4.906,0.029,302.818,69.718,99998.639,33.722,116.747
安徽,淮南市,47.859,73.84,8.142,19.86,0.758,127.472,-3.994,-0.562,303.413,68.002,99989.033,32.463,116.746
安徽,滁州市,37.217,54.324,6.681,10.582,0.533,110.498,-4.44,-1.901,302.49,73.354,99762.729,32.55,118.076
安徽,芜湖市,47.725,72.029,8.438,20.103,0.804,129.744,-3.512,-1.355,302.725,67.042,99958.382,31.167,118.162
安徽,蚌埠市,39.329,55.468,8.075,12.487,0.587,108.647,-4.887,-0.742,303.03,70.633,100012.845,33.121,117.263
安徽,铜陵市,45.658,73.784,10.909,22.411,0.746,138.642,-3.831,-1.479,303.054,63.047,99802.932,30.883,117.531
安徽,阜阳市,39.072,72.316,8.698,14.941,0.754,124.499,-4.46,0.025,303.754,65.497,99910.537,32.937,115.723
安徽,马鞍山市,47.577,69.578,7.249,16.367,0.86,130.809,-3.968,-1.753,302.825,71.375,99980.018,31.622,118.386
安徽,黄山市,37.284,60.948,9.202,11.19,0.634,90.025,-3.931,-1.527,301.231,63.072,96002.145,29.869,118.09
山东,东营市,37.918,66.704,13.324,18.169,0.82,149.867,-3.542,2.574,302.632,63.657,100375.965,37.57,118.572
山东,临沂市,27.179,55.818,9.825,18.248,0.584,119.277,-3.938,0.038,300.477,73.138,98693.089,35.289,118.27
山东,威海市,18.941,32.943,6.752,8.651,0.431,114.724,-3.017,-3.227,301.177,71.464,99842.696,37.148,122.028
山东,德州市,41.685,74.426,11.391,25.235,0.82,140.277,-1.31,3.157,302.867,63.939,100173.485,37.233,116.679
山东,日照市,27.237,53.155,7.142,18.694,0.489,102.293,-3.762,-0.707,300.328,75.179,98819.212,35.566,119.108
山东,枣庄市,27.058,56.139,12.994,18.011,0.637,130.453,-4.924,1.18,301.668,65.912,99338.183,34.925,117.383
山东,泰安市,28.972,58.737,11.17,20.68,0.66,137.959,-3.15,2.593,301.814,61.431,98559.108,35.993,117.04
山东,济南市,30.314,64.077,11.145,26.716,0.768,135.635,-2.172,3.599,302.439,58.468,98529.506,36.639,117.254
山东,济宁市,31.49,57.302,12.196,17.722,0.74,132.735,-3.525,2.326,302.492,62.807,99734.574,35.375,116.697
山东,淄博市,32.598,64.229,11.052,24.201,1.052,131.351,-2.669,2.841,301.571,62.611,97988.067,36.623,118.062
山东,滨州市,42.847,71.353,13.118,23.416,1.102,154.108,-2.528,3.053,303.06,59.589,100288.021,37.516,117.852
山东,潍坊市,33.124,65.354,9.585,23.868,0.744,115.917,-2.761,1.806,301.161,67.26,99376.165,36.53,119.092
山东,烟台市,21.272,42.624,6.776,13.581,0.485,106.074,-3.298,-1.111,300.995,65.797,99386.91,37.25,120.789
山东,聊城市,46.349,79.605,12.131,21.639,0.821,135.616,-1.523,3.726,302.829,66.878,99954.83,36.458,115.863
山东,菏泽市,43.309,72.808,10.123,16.636,0.934,117.746,-3.032,1.623,302.475,71.258,99839.134,35.134,115.69
山东,青岛市,20.549,46.853,6.466,20.439,0.506,92.006,-3.602,-0.47,300.914,68.538,99912.027,36.46,120.172
山西,临汾市,44.743,74.375,14.049,18.619,1.045,112.504,-1.263,3.857,297.577,70.336,89310.754,36.227,111.398
山西,吕梁市,46.715,69.405,14.102,21.101,0.892,85.569,0.16,5.025,296.261,71.236,87022.331,37.663,111.27
山西,大同市,37.984,54.651,9.305,10.818,0.658,114.634,0.794,4.051,294.189,80.441,86636.846,39.911,113.713
山西,太原市,40.231,60.891,8.605,26.215,0.851,90.042,0.658,3.866,295.369,77.068,86965.754,37.967,112.321
山西,忻州市,38.076,55.416,11.893,10.752,0.669,104.303,0.303,4.205,294.307,78.951,85543.707,38.877,112.391
山西,晋中市,47.466,72.578,9.697,19.755,0.925,101.117,0.296,3.542,296.137,74.224,87869.675,37.328,112.997
山西,晋城市,43.968,75.544,8.613,14.897,0.932,128.881,-1.534,3.115,297.554,72.476,89729.576,35.625,112.752
山西,朔州市,26.75,42.802,11.255,10.493,0.717,108.768,1.477,4.071,294.635,76.863,85973.95,39.619,112.655
山西,运城市,38.841,66.145,10.317,13.95,0.791,128.182,-3.147,3.031,301.137,60.118,93191.84,35.205,111.071
山西,长治市,50.193,77.012,8.797,16.238,1.23,116.471,0.07,2.932,296.394,74.313,88157.881,36.48,112.915
山西,阳泉市,41.666,64.806,12.319,20.898,0.879,90.229,-0.406,2.308,296.401,78.836,89646.846,38.031,113.512
广东,东莞市,10.032,16.013,5.048,19.347,0.572,33.692,-10.664,-2.834,301.857,77.42,99350.039,22.931,113.81
广东,中山市,10.19,18.653,5.416,25.288,0.539,36.956,-12.606,-4.234,301.722,83.54,99194.42,22.5,113.383
广东,云浮市,12.288,19.699,5.993,17.884,0.485,29.219,-4.34,-8.638,299.769,82.124,97394.015,22.776,111.818
广东,佛山市,13.64,24.295,6.52,31.72,0.659,25.559,-8.508,-5.437,301.944,74.916,99361.492,23.035,112.979
广东,广州市,13.074,18.791,5.008,18.642,0.522,34.558,-8.99,-3.254,301.701,74.104,98578.177,23.339,113.525
广东,惠州市,8.835,13.156,3.131,9.199,0.404,39.958,-9.064,-1.111,300.715,79.572,97728.615,23.244,114.485
广东,揭阳市,9.022,18.536,7.123,13.015,0.738,42.839,-7.085,0.069,300.617,83.888,98484.049,23.323,116.123
广东,梅州市,17.262,30.139,6.411,12.415,0.694,55.017,-5.839,0.913,300.04,75.948,96553.789,24.169,116.07
广东,汕头市,7.061,12.754,5.017,8.669,0.392,50.053,-7.116,0.251,301.257,83.836,99594.801,23.339,116.614
广东,汕尾市,5.239,10.84,2.748,6.753,0.417,42.375,-8.61,-0.061,300.552,84.037,98143.2,23.024,115.527
广东,江门市,11.509,18.556,5.62,22.725,0.471,40.532,-10.808,-8.378,301.201,83.039,98528.653,22.289,112.676
广东,河源市,16.387,25.23,5.147,11.805,0.551,44.294,-6.75,-0.602,300.147,77.727,96665.145,24.021,114.969
广东,深圳市,7.322,14.522,4.944,18.713,0.463,39.361,-12.496,-1.369,301.444,84.033,98875.887,22.667,114.143
广东,清远市,16.489,22.482,3.877,10.174,0.442,41.908,-5.932,-3.806,300.496,71.657,96133.715,24.295,112.871
广东,湛江市,15.8,24.957,6.277,8.295,0.492,53.729,3.42,-7.668,302.042,72.299,99312.595,21.091,110.163
广东,潮州市,17.697,30.394,6.799,11.934,0.627,61.193,-6.286,0.171,300.149,83.528,98009.347,23.755,116.754
广东,珠海市,11.847,17.687,3.683,7.728,0.253,66.827,-13.483,-1.275,302.047,84.387,99132.548,22.095,113.317
广东,肇庆市,13.357,18.98,3.743,11.999,0.409,34.909,-6.283,-5.879,300.967,73.808,97593.291,23.505,112.199
广东,茂名市,11.665,18.95,6.647,8.782,0.406,42.896,-0.015,-11.091,299.448,82.675,97438.775,22.013,110.952
广东,阳江市,10.435,16.607,8.192,16.535,0.401,35.352,-3.755,-13.585,299.626,85.233,97720.201,22.042,111.786
广东,韶关市,18.588,28.39,5.335,11.984,0.744,49.925,-5.615,-1.814,300.094,72.189,95454.724,24.785,113.819
广西,北海市,24.716,37.777,6.751,10.76,0.686,56.991,1.068,-6.141,303.466,62.151,99434.78,21.674,109.37
广西,南宁市,25.899,45.894,7.436,13.13,0.606,67.71,-0.555,-4.698,302.86,63.857,97748.281,23.051,108.469
广西,崇左市,28.951,47.735,8.824,7.003,0.528,81.738,0.723,-3.742,302.196,67.426,96575.926,22.483,107.291
广西,来宾市,24.584,38.979,6.867,8.027,0.52,61.16,-2.317,-4.84,302.153,62.473,96610.213,23.859,109.417
广西,柳州市,31.808,45.453,8.633,6.551,0.503,70.061,-2.07,-4.534,301.708,65.616,96088.859,24.956,109.372
广西,桂林市,34.128,43.332,7.221,7.482,0.46,70.939,-3.726,-4.105,300.573,66.764,94531.777,25.353,110.513
广西,梧州市,17.147,25.192,4.851,8.466,0.483,37.926,-3.266,-5.478,300.966,71.986,97293.755,23.484,110.996
广西,河池市,27.748,46.613,9.185,3.975,0.458,65.878,-1.628,-4.006,300.109,71.355,93912.338,24.628,107.843
广西,玉林市,17.662,27.632,6.952,8.802,0.56,50.042,-1.523,-6.956,301.13,72.561,97688.119,22.452,110.164
广西,百色市,30.706,50.92,10.413,4.66,0.537,64.047,-0.578,-2.588,299.254,72.047,91961.304,23.981,106.292
广西,贵港市,19.796,30.967,5.494,8.804,0.541,51.705,-2.789,-4.808,302.59,63.054,98147.062,23.322,110.021
广西,贺州市,21.53,27.779,4.641,7.185,0.419,44.411,-4.529,-4.95,300.832,66.691,95612.596,24.364,111.394
广西,钦州市,26.129,41.471,6.823,12.4,0.681,62.328,0.339,-5.468,303.178,63.053,98780.617,22.173,109.01
广西,防城港市,30.039,45.563,7.677,7.416,0.567,82.838,2.646,-4.139,302.422,68.008,97329.638,21.88,108.002
新疆,乌鲁木齐市,18.566,28.802,2.948,7.203,0.197,83.436,2.673,-2.585,295.583,32.93,83797.103,43.746,87.818
新疆,五家渠市,20.4,40.003,5.197,15.42,0.257,80.737,2.767,-1.313,303.943,23.72,95324.17,44.363,87.517
新疆,伊犁哈萨克自治州,11.745,16.542,2.261,3.851,0.221,74.868,1.438,-0.25,291.912,45.841,80252.593,43.438,82.146
新疆,克孜勒苏柯尔克孜自治州,19.674,35.186,0.737,1.001,0.161,81.771,0.106,-1.882,288.047,51.856,70708.759,39.661,75.949
新疆,克拉玛依市,9.913,15.849,3.193,4.761,0.262,77.032,-0.301,-1.119,304.129,22.178,96071.211,45.457,85.207
新疆,北屯市,9.378,9.994,4.396,1.908,0.306,70.592,2.346,-1.926,300.13,27.686,94312.17,47.27,87.868
新疆,博尔塔拉蒙古自治州,16.943,20.694,2.267,2.658,0.187,71.429,2.615,-0.375,296.607,35.034,85658.422,44.714,82.114
新疆,双河市,17.902,23.318,2.482,3.488,0.182,69.282,0.424,-3.026,305.064,21.51,96519.37,44.87,82.474
新疆,可克达拉市,22.532,38.464,4.228,10.296,0.412,74.872,0.452,-0.308,302.334,29.784,93796.46,43.918,80.786
新疆,和田地区,71.031,78.713,0.778,0.605,0.103,72.114,-3.05,-1.573,293.145,38.391,73776.086,37.059,80.934
新疆,哈密市,15.418,16.264,1.618,2.124,0.186,71.83,3.035,-3.829,299.602,24.998,87442.004,43.042,93.517
新疆,喀什地区,70.565,78.522,0.839,1.676,0.138,68.355,-2.883,-1.007,293.738,42.526,75908.23,38.125,77.178
新疆,图木舒克市,38.42,38.838,1.115,0.887,0.112,63.785,-4.185,-1.768,304.067,26.823,88379.002,39.892,79.182
新疆,塔城地区,8.844,10.278,2.096,1.87,0.185,71.496,1.236,-1.022,298.364,29.68,88798.481,45.642,84.789
新疆,巴音郭楞蒙古自治州,31.032,32.053,1.04,0.617,0.115,73.452,-2.831,-2.001,295.251,33.178,78785.801,39.463,87.481
新疆,新星市,14.04,20.595,2.85,15.005,0.545,72.29,-0.33,-3.01,304.53,17.345,91506.91,42.75,93.68
新疆,昆玉市,140.687,181.053,2.65,2.187,0.12,62.01,1.467,-2.58,304.56,21.373,86126.537,37.457,79.093
新疆,昌吉回族自治州,15.473,19.155,2.984,4.348,0.157,74.683,3.195,-1.209,299.094,29.436,89076.907,44.342,88.608
新疆,石河子市,13.785,21.635,5.575,10.805,0.19,83.15,3.12,0.635,302.96,26.205,93590.77,44.245,86.035
新疆,胡杨河市,13.188,17.148,2.702,4.016,0.234,77.804,2.266,-0.558,304.658,23.586,96516.644,44.852,84.772
新疆,铁门关市,15.38,35.393,4.133,8.417,0.263,85.747,-1.48,-2.653,304.573,17.117,90666.373,41.773,85.66
新疆,阿克苏地区,35.561,36.487,1.246,1.202,0.133,76.48,-2.141,-3.223,299.451,31.774,84676.054,40.965,81.578
新疆,阿勒泰地区,9.041,9.424,2.845,1.127,0.175,67.694,1.188,-1.477,296.328,33.129,87730.627,46.902,88.421
新疆,阿拉尔市,29.081,30.457,1.179,1.868,0.143,84.803,-3.301,-4.24,303.906,25.712,89200.141,40.629,80.998
江苏,南京市,41.259,61.533,8.456,17.552,0.741,118.05,-3.973,-2.091,302.421,74.207,100049.666,31.899,118.876
江苏,南通市,25.441,37.175,5.828,5.155,0.431,104.202,-3.457,-3.277,301.418,79.726,100213.472,32.201,120.979
江苏,宿迁市,26.871,41.512,6.51,8.816,0.528,109.846,-4.647,-1.487,301.477,75.141,100241.813,33.765,118.495
江苏,常州市,38.596,58.518,10.12,21.512,0.821,118.998,-3.813,-2.1,302.311,73.729,100095.902,31.613,119.666
江苏,徐州市,27.599,49.483,8.746,14.702,0.65,114.826,-4.793,0.152,301.756,69.455,100008.262,34.363,117.513
江苏,扬州市,26.833,42.715,6.238,7.693,0.559,104.935,-4.136,-2.727,301.67,77.122,100237.695,32.709,119.486
江苏,无锡市,35.736,56.411,10.71,23.309,0.81,117.69,-3.312,-1.864,302.044,74.797,100010.684,31.546,120.066
江苏,泰州市,25.313,39.504,6.086,7.393,0.554,101.7,-3.919,-3.046,301.532,78.104,100199.866,32.605,120.048
江苏,淮安市,27.608,40.427,6.085,6.796,0.478,104.932,-4.266,-2.236,301.42,76.733,100219.848,33.362,118.985
江苏,盐城市,23.786,33.198,4.63,4.049,0.375,104.149,-3.847,-2.932,301.259,79.081,100287.066,33.529,120.156
江苏,苏州市,31.516,48.686,7.886,19.848,0.652,114.426,-2.579,-2.154,301.65,77.275,100154.868,31.374,120.661
江苏,连云港市,21.405,33.536,5.145,6.615,0.378,106.394,-4.197,-1.885,301.075,77.475,100176.479,34.519,119.133
江苏,镇江市,35.348,54.151,8.367,17.026,0.714,111.051,-4.187,-2.518,302.121,77.131,100092.94,32.016,119.49
江西,上饶市,39.659,61.313,10.235,9.325,0.614,103.985,-3.455,-1.377,303.447,58.433,97872.927,28.778,117.47
江西,九江市,34.682,58.912,7.949,8.5,0.542,117.468,-3.488,-2.086,303.176,62.505,97849.452,29.313,115.444
江西,南昌市,35.087,61.909,7.864,15.588,0.815,105.096,-2.586,-1.879,304.957,58.288,99579.011,28.671,116.016
江西,吉安市,32.408,49.239,9.004,7.682,0.577,82.693,-2.684,-0.313,302.67,63.534,97408.814,26.954,114.831
江西,宜春市,34.448,57.887,8.239,11.141,0.661,90.933,-3.0,-2.14,303.328,62.665,97769.712,28.29,114.974
江西,抚州市,40.578,56.32,7.602,7.45,0.646,90.823,-2.792,0.465,302.678,62.4,97445.762,27.514,116.42
江西,新余市,37.973,64.475,13.447,14.686,0.747,81.244,-1.911,-1.72,303.467,64.641,98626.744,27.847,114.836
江西,景德镇市,37.488,59.318,10.429,8.964,0.589,86.156,-3.926,-2.115,303.92,56.529,98674.573,29.287,117.24
江西,萍乡市,33.024,55.638,11.848,11.023,0.696,74.726,-4.294,-1.607,302.167,66.654,96489.403,27.505,113.908
江西,赣州市,26.585,39.115,8.748,8.914,0.815,75.143,-3.615,-0.316,300.753,67.482,95837.607,25.692,115.279
江西,鹰潭市,41.605,60.46,8.659,9.489,0.693,104.635,-2.759,-0.022,303.787,57.723,98345.765,28.222,117.094
河北,保定市,47.376,66.965,7.329,16.466,0.688,128.374,-0.765,0.984,299.118,74.418,96681.549,39.018,115.159
河北,唐山市,49.521,82.306,14.93,29.459,1.109,128.644,-2.579,2.048,299.984,73.254,99843.275,39.731,118.354
河北,廊坊市,51.65,72.213,7.9,24.393,1.167,125.698,-2.08,2.616,300.889,71.208,100263.395,39.267,116.632
河北,张家口市,35.519,52.879,8.114,10.359,0.55,109.094,-1.433,3.73,292.8,83.737,87113.743,40.877,115.042
河北,承德市,40.91,65.571,6.429,14.726,0.854,83.192,-0.045,3.233,293.989,85.26,90388.119,41.339,117.578
河北,沧州市,52.899,76.279,11.201,21.653,0.993,140.235,-2.026,2.936,302.007,68.388,100273.985,38.258,116.744
河北,石家庄市,45.53,71.808,9.367,19.619,0.799,120.146,-1.141,0.993,300.284,72.481,97152.094,38.135,114.407
河北,秦皇岛市,31.698,58.469,9.619,22.198,0.627,98.128,-1.325,1.789,298.896,73.635,97743.792,40.12,119.193
河北,衡水市,50.418,78.337,12.445,22.54,0.85,127.969,-1.893,2.89,302.464,65.879,100110.242,37.755,115.813
河北,邢台市,53.565,88.86,12.558,24.855,0.925,125.874,-0.965,1.957,302.117,66.413,98680.546,37.195,114.815
河北,邯郸市,52.502,90.772,12.318,22.892,1.056,126.846,-1.268,1.468,302.002,67.772,98236.134,36.538,114.596
河南,三门峡市,40.269,62.02,9.275,8.676,0.572,113.304,-2.158,3.861,299.302,63.936,90959.386,34.362,111.101
河南,信阳市,39.813,67.069,9.754,14.832,0.636,129.623,-3.584,0.37,304.076,56.225,98954.677,32.091,114.907
河南,南阳市,37.56,60.044,7.829,10.839,0.67,127.766,-3.017,-0.768,302.857,61.116,97014.471,33.034,112.323
河南,周口市,43.183,78.175,8.429,15.66,0.863,119.575,-3.777,0.195,303.723,66.056,99716.266,33.738,114.884
河南,商丘市,44.117,72.723,9.674,14.455,0.895,109.638,-3.93,0.699,302.953,70.945,99840.092,34.277,115.718
河南,安阳市,49.107,84.263,9.928,19.508,1.081,126.29,-0.743,1.067,302.094,68.666,97862.439,35.888,114.318
河南,平顶山市,45.112,75.162,7.695,22.641,0.917,123.542,-2.481,-0.469,302.935,63.731,97650.599,33.8,113.025
河南,开封市,42.743,81.769,7.696,18.92,1.014,123.105,-2.754,-0.176,302.95,70.39,99503.081,34.594,114.514
河南,新乡市,44.184,78.915,8.055,21.617,1.012,122.763,-1.74,0.026,302.601,68.584,98635.618,35.256,114.111
河南,洛阳市,44.632,69.407,9.558,13.056,0.725,128.827,-2.238,1.86,300.026,67.798,93258.983,34.274,112.019
河南,济源市,36.797,67.895,9.644,18.758,0.851,123.092,-2.581,1.09,301.25,64.683,95022.365,35.105,112.445
河南,漯河市,47.48,83.164,8.603,21.445,0.911,123.28,-3.235,-0.756,303.992,62.62,99549.075,33.652,113.945
河南,濮阳市,45.612,85.899,10.162,19.086,1.045,125.729,-2.418,2.261,302.558,71.183,99813.171,35.809,115.283
河南,焦作市,38.142,68.511,7.508,26.63,0.902,117.446,-2.659,0.566,303.235,62.326,98429.775,35.121,113.163
河南,许昌市,45.527,81.468,6.522,27.95,1.002,116.573,-3.0,-1.281,303.267,64.79,98934.22,34.075,113.707
河南,郑州市,41.899,77.548,5.639,32.565,0.972,108.02,-2.891,0.059,302.318,67.189,97716.513,34.634,113.438
河南,驻马店市,38.693,71.317,9.626,17.375,0.73,123.405,-3.807,0.133,304.243,58.199,99235.277,32.925,114.174
河南,鹤壁市,47.031,81.331,9.702,20.114,1.084,120.849,-0.407,0.437,302.803,67.962,98966.729,35.716,114.319
浙江,丽水市,38.534,56.514,7.007,7.948,0.445,104.112,-2.305,-0.741,298.801,74.472,93426.257,28.194,119.51
浙江,台州市,37.457,54.77,6.768,11.22,0.493,93.417,-1.28,-3.279,299.853,79.839,97485.927,28.742,121.109
浙江,嘉兴市,33.435,49.563,5.205,19.927,0.688,114.122,-2.282,-1.459,301.423,77.567,100135.161,30.635,120.754
浙江,宁波市,34.946,50.206,7.02,17.55,0.583,91.746,-1.149,-3.204,300.079,81.537,98940.98,29.706,121.49
浙江,杭州市,41.296,64.516,8.106,17.368,0.7,114.758,-2.816,-1.972,300.945,68.917,97357.731,29.891,119.464
浙江,温州市,38.82,58.248,7.377,14.19,0.502,91.373,-1.082,-2.184,299.499,78.741,96344.008,27.897,120.411
浙江,湖州市,36.869,56.399,7.56,19.625,0.717,124.463,-2.317,-0.959,301.451,70.184,98934.033,30.757,119.871
浙江,绍兴市,37.308,56.25,6.291,17.275,0.68,105.433,-1.953,-1.933,300.329,75.334,98141.42,29.709,120.64
浙江,舟山市,30.835,41.198,5.655,4.1,0.34,91.062,-1.552,-4.285,300.67,86.092,99893.205,30.038,122.23
浙江,衢州市,40.445,63.408,10.029,13.983,0.571,118.631,-3.755,-1.857,302.074,62.258,96574.795,28.912,118.675
浙江,金华市,40.826,61.572,7.623,15.655,0.609,116.968,-2.47,-1.635,300.716,71.826,96843.069,29.109,119.967
海南,万宁市,16.693,22.973,4.543,2.497,0.232,75.867,9.777,-0.218,302.528,67.696,98457.149,18.842,110.294
海南,三亚市,10.511,16.956,2.79,4.43,0.377,62.84,9.84,-0.529,299.987,84.766,97447.946,18.413,109.407
海南,东方市,14.652,19.81,3.54,2.037,0.195,76.906,7.999,1.091,300.724,84.565,98068.041,18.971,108.838
海南,临高县,16.964,33.113,6.104,2.844,0.417,80.591,9.723,-0.674,301.541,83.434,99019.111,19.821,109.733
海南,乐东黎族自治县,11.995,16.493,2.766,2.06,0.228,68.117,8.731,-0.321,299.531,86.024,96598.748,18.659,109.072
海南,五指山市,16.256,21.266,3.51,2.05,0.21,70.994,9.142,-0.448,297.214,90.18,93444.59,18.81,109.518
海南,儋州市,19.924,32.611,5.446,2.607,0.326,87.26,9.058,0.658,301.229,83.799,98753.624,19.568,109.399
海南,定安县,13.347,26.428,5.99,4.652,0.442,73.752,10.895,-1.385,301.505,78.132,98662.888,19.47,110.28
海南,屯昌县,14.916,26.424,5.562,3.154,0.36,77.01,10.128,-1.174,301.02,78.484,97950.46,19.342,110.076
海南,文昌市,14.349,26.647,6.345,5.309,0.42,67.369,10.939,-2.884,301.938,77.721,99304.688,19.707,110.773
海南,昌江黎族自治县,19.109,26.487,4.513,2.451,0.229,83.736,7.843,1.26,299.883,87.68,97046.211,19.233,109.016
海南,海口市,10.866,24.968,6.547,6.457,0.499,62.731,10.4,-2.631,301.838,79.801,99171.545,19.842,110.393
海南,澄迈县,13.159,28.017,6.046,4.183,0.461,73.584,10.169,-0.937,301.384,81.359,98820.796,19.676,109.989
海南,琼中黎族苗族自治县,16.555,24.348,4.689,2.287,0.257,76.127,10.529,-0.809,299.994,77.965,95892.363,19.087,109.847
海南,琼海市,15.983,26.337,5.727,3.277,0.328,78.04,9.96,-1.298,302.458,71.512,99195.56,19.22,110.43
海南,白沙黎族自治县,17.561,25.197,4.731,2.4,0.245,80.058,8.87,0.942,299.179,85.242,95689.734,19.2,109.388
海南,陵水黎族自治县,13.906,18.56,3.521,3.123,0.253,69.103,9.507,0.294,301.334,73.747,97893.821,18.581,109.913
湖北,仙桃市,39.822,64.232,5.457,15.843,0.788,129.521,-2.306,-0.578,304.307,58.694,99821.519,30.284,113.417
湖北,十堰市,32.511,49.592,9.766,5.25,0.429,102.569,-2.323,0.882,299.974,60.412,92405.33,32.462,110.476
湖北,咸宁市,38.244,58.221,6.421,8.866,0.73,114.663,-3.356,-0.239,303.559,60.45,98045.306,29.621,114.178
湖北,天门市,38.858,69.837,5.71,18.738,0.833,139.992,-1.319,-1.205,304.199,57.903,99787.746,30.633,113.053
湖北,孝感市,38.174,61.453,6.107,14.626,0.683,128.714,-1.934,-0.098,304.638,54.947,99237.706,31.116,113.869
湖北,宜昌市,35.275,54.889,7.89,7.659,0.667,97.578,-0.728,-0.704,299.883,66.603,93158.154,30.746,111.129
湖北,恩施土家族苗族自治州,32.299,53.004,11.822,5.478,0.683,67.422,-2.062,0.478,296.679,74.122,88862.302,30.195,109.552
湖北,武汉市,40.459,64.714,7.296,23.664,0.84,130.127,-2.907,-0.166,304.868,55.622,99730.538,30.606,114.349
湖北,潜江市,36.991,68.221,6.313,17.603,0.906,129.231,-1.564,-1.486,303.801,61.623,99790.164,30.33,112.77
湖北,神农架林区,35.888,48.07,8.424,1.915,0.347,100.33,-1.951,1.761,292.971,76.121,82617.393,31.592,110.49
湖北,荆州市,36.095,60.621,7.101,12.986,0.88,112.108,-1.492,-1.799,303.771,62.638,99562.516,30.01,112.512
湖北,荆门市,37.193,62.341,6.789,13.291,0.773,114.838,-0.817,-0.877,303.931,55.914,98842.011,31.059,112.616
湖北,襄阳市,34.127,53.774,7.574,9.644,0.601,111.204,-1.273,-0.315,302.516,56.748,96284.37,31.919,111.96
湖北,鄂州市,39.924,66.366,9.483,23.066,0.906,121.404,-3.02,-0.13,304.837,56.011,99773.697,30.337,114.794
湖北,随州市,35.848,55.307,7.098,9.692,0.608,115.747,-2.425,0.248,304.138,54.311,98193.025,31.809,113.43
湖北,黄冈市,37.418,63.816,9.162,11.592,0.638,127.414,-3.862,-0.688,304.022,56.144,98157.042,30.702,115.358
湖北,黄石市,37.584,65.216,10.393,16.93,0.792,131.699,-3.59,-0.423,303.926,59.215,98845.988,29.925,115.034
湖南,娄底市,33.058,54.41,9.494,11.022,1.041,86.136,-1.988,-2.976,301.324,69.152,95969.292,27.715,111.632
湖南,岳阳市,36.016,53.472,6.13,8.972,0.679,99.421,-3.014,-1.009,303.757,61.303,98688.484,29.081,113.275
湖南,常德市,31.623,54.33,10.128,10.334,0.927,87.391,-0.968,-2.741,302.429,67.896,97966.41,29.271,111.524
湖南,张家界市,28.056,50.108,9.927,6.812,0.878,65.943,-1.667,-2.153,299.831,73.404,94285.362,29.379,110.526
湖南,怀化市,27.658,51.268,8.675,7.186,0.85,67.02,-2.241,-3.009,300.314,73.461,95127.514,27.535,110.071
湖南,株洲市,29.643,47.173,9.797,10.611,0.623,73.835,-4.314,-1.564,302.289,64.252,96586.653,27.109,113.513
湖南,永州市,33.447,45.459,8.046,10.549,0.63,65.6,-3.234,-3.4,300.562,68.325,95229.164,25.748,111.723
湖南,湘潭市,28.896,50.913,9.203,19.581,0.946,86.77,-1.942,-2.657,303.116,66.504,98767.449,27.744,112.619
湖南,湘西土家族苗族自治州,25.878,49.521,7.802,7.257,0.87,49.204,-2.186,-2.112,299.448,75.904,94215.836,28.708,109.718
湖南,益阳市,32.89,55.125,7.909,8.553,0.937,89.788,-1.007,-2.057,302.024,70.251,97475.088,28.525,111.919
湖南,衡阳市,33.225,51.535,9.901,14.616,0.781,74.319,-2.706,-2.796,303.153,62.87,98262.445,26.781,112.565
湖南,邵阳市,37.451,53.578,10.67,10.079,0.705,79.465,-3.062,-2.818,299.874,71.098,93845.101,26.893,110.881
湖南,郴州市,23.755,38.752,7.183,13.03,0.99,60.734,-4.028,-1.452,300.581,65.015,94432.919,25.769,113.109
湖南,长沙市,30.924,51.642,6.929,13.54,0.75,82.834,-2.62,-1.787,303.271,63.982,98218.131,28.235,113.159
甘肃,临夏回族自治州,29.629,41.101,4.539,7.657,0.452,84.993,1.136,-0.308,293.694,51.475,77162.238,35.617,103.291
甘肃,兰州市,26.965,44.29,6.795,12.757,0.484,81.677,-0.248,-1.262,295.387,47.72,78689.906,36.359,103.633
甘肃,嘉峪关市,20.017,87.908,16.965,30.255,0.625,101.668,-0.47,-0.323,297.118,34.69,81214.203,39.798,98.145
甘肃,天水市,26.851,48.585,11.339,5.88,0.339,76.247,-0.335,3.813,293.411,76.141,82172.806,34.645,105.739
甘肃,定西市,32.484,51.592,8.616,5.835,0.371,79.443,-0.228,0.608,291.853,65.188,76963.246,35.124,104.432
甘肃,平凉市,22.45,45.117,9.307,11.243,0.399,64.861,0.046,4.287,295.324,68.608,83915.119,35.304,106.644
甘肃,庆阳市,22.716,42.658,9.836,8.611,0.437,75.812,-0.293,4.769,296.684,63.082,85132.93,36.149,107.596
甘肃,张掖市,23.044,32.743,2.912,2.541,0.166,87.082,1.249,-1.087,290.699,51.596,74550.323,38.94,99.855
甘肃,武威市,30.119,50.623,5.223,2.179,0.196,89.408,0.828,-0.728,296.235,47.792,80868.63,38.163,103.073
甘肃,甘南藏族自治州,27.347,32.458,3.79,1.781,0.216,86.017,0.257,-0.865,284.132,72.73,67803.429,34.331,102.768
甘肃,白银市,29.856,52.03,10.414,7.384,0.53,75.099,-1.081,1.185,296.061,54.589,80955.622,36.59,104.646
甘肃,酒泉市,16.528,20.368,1.687,1.32,0.132,78.159,0.35,-2.86,294.811,32.609,78778.462,40.236,96.062
甘肃,金昌市,27.039,74.052,4.654,3.883,0.169,92.915,2.766,-0.044,295.792,45.267,80164.277,38.44,102.048
甘肃,陇南市,24.063,44.906,14.585,3.701,0.368,69.683,-0.004,2.26,292.321,80.863,81752.896,33.599,105.224
福建,三明市,31.968,44.815,7.246,10.804,0.577,76.464,-3.072,0.039,299.161,71.8,93964.172,26.29,117.395
福建,南平市,33.218,47.838,6.732,6.875,0.461,94.835,-1.954,-0.124,299.896,71.115,94717.15,27.324,118.143
福建,厦门市,31.932,52.425,11.02,21.31,0.467,80.482,-3.013,-1.718,300.282,75.888,98947.167,24.642,118.11
福建,宁德市,29.734,44.799,5.329,6.006,0.381,92.175,-1.715,-1.309,298.337,79.221,94093.635,26.968,119.474
福建,泉州市,33.706,51.567,7.099,13.798,0.426,82.692,-2.752,-0.621,298.407,78.037,95345.243,25.201,118.249
福建,漳州市,27.174,42.131,7.274,13.655,0.418,79.3,-3.977,-0.82,299.152,79.6,96848.1,24.372,117.444
福建,福州市,30.2,48.822,6.071,11.529,0.448,90.103,-2.153,-1.568,299.232,78.922,96085.501,26.083,119.206
福建,莆田市,34.255,52.976,7.593,12.471,0.44,89.251,-2.218,-1.422,299.226,80.345,96816.684,25.445,118.864
福建,龙岩市,28.594,40.864,7.01,11.948,0.456,80.77,-3.994,0.539,299.024,66.345,93915.511,25.256,116.739
西藏,山南市,19.787,21.514,1.284,1.449,0.169,108.117,0.987,2.325,283.769,86.771,66077.459,28.295,92.274
西藏,拉萨市,12.137,14.492,1.074,1.931,0.144,111.662,0.7,2.707,279.85,80.943,56787.587,30.043,91.093
西藏,日喀则市,17.123,18.328,1.193,0.627,0.161,110.934,2.829,1.701,278.798,80.599,55525.953,29.483,86.493
西藏,昌都市,18.906,20.306,1.238,0.915,0.133,96.641,-1.792,1.319,280.229,81.195,59313.63,30.753,97.044
西藏,林芝市,20.84,21.93,1.108,1.63,0.152,93.362,-0.464,1.419,283.103,90.929,66358.471,29.184,95.25
西藏,玉树藏族自治州,17.948,18.478,0.603,0.428,0.103,81.476,-4.491,-1.433,277.368,77.639,57770.172,34.196,94.317
西藏,那曲市,10.77,11.12,0.339,0.26,0.103,97.937,-3.119,-0.941,279.006,72.677,55788.761,32.709,89.262
西藏,阿里地区,8.9,9.176,0.369,0.262,0.102,89.239,-3.454,-2.763,279.452,61.899,55224.336,33.013,82.553
贵州,六盘水市,28.486,48.115,7.45,13.256,0.608,64.805,-0.607,-0.157,293.005,82.593,82592.508,26.106,104.896
贵州,安顺市,37.244,57.178,5.188,8.516,0.449,75.458,-2.126,-1.4,295.912,78.55,87445.437,25.986,105.978
贵州,毕节市,36.596,53.177,5.874,10.78,0.516,62.386,-1.074,0.661,292.96,84.131,82941.392,27.063,105.211
贵州,贵阳市,36.339,56.509,5.354,16.288,0.529,65.896,-2.241,-0.668,295.206,83.052,87509.316,26.845,106.71
贵州,遵义市,37.049,50.749,10.395,7.21,0.403,83.035,-2.47,0.703,296.728,79.015,89610.663,28.167,107.102
贵州,铜仁市,25.689,53.813,11.212,5.991,0.55,60.294,-2.439,-1.366,297.923,78.42,91849.675,27.937,108.534
贵州,黔东南苗族侗族自治州,33.25,53.744,11.705,5.267,0.509,67.488,-2.175,-3.298,297.59,81.928,91702.274,26.495,108.574
贵州,黔南布依族苗族自治州,38.219,54.384,9.373,5.458,0.432,71.637,-2.33,-2.733,296.601,80.638,89538.069,26.0,107.265
贵州,黔西南布依族苗族自治州,31.559,49.397,8.082,5.848,0.473,72.968,-1.306,-1.29,296.622,75.506,87799.162,25.256,105.467
辽宁,丹东市,13.72,22.654,5.667,9.674,0.374,76.926,-1.554,-1.006,297.914,62.708,97794.542,40.554,124.376
辽宁,大连市,18.131,29.665,6.632,10.01,0.437,110.068,-2.482,0.104,300.012,68.831,99816.768,39.591,122.22
辽宁,抚顺市,13.696,23.52,4.933,10.629,0.37,73.255,-2.138,0.666,296.822,59.758,96188.514,41.841,124.65
辽宁,朝阳市,23.739,44.576,12.867,17.891,0.633,81.221,0.086,3.16,298.455,61.793,95588.236,41.545,120.053
辽宁,本溪市,14.476,24.454,5.379,10.234,0.421,75.806,-1.406,0.399,297.028,60.391,95567.681,41.232,124.544
辽宁,沈阳市,17.452,42.067,13.135,28.099,0.608,98.517,-1.999,1.582,299.931,55.82,100006.589,42.081,123.159
辽宁,盘锦市,22.854,47.819,13.631,20.37,0.743,104.963,-0.096,2.019,300.582,60.502,100564.409,41.13,122.01
辽宁,营口市,17.986,30.947,6.278,12.302,0.468,101.319,-1.522,2.122,300.47,57.85,98513.24,40.395,122.478
辽宁,葫芦岛市,27.789,48.466,10.971,20.368,0.537,86.72,0.793,2.023,299.59,67.2,98172.177,40.66,120.215
辽宁,辽阳市,18.002,36.192,8.374,18.428,0.643,92.796,-1.688,2.214,300.328,55.237,98726.643,41.153,123.261
辽宁,铁岭市,11.826,25.325,5.28,16.457,0.366,71.971,-2.996,0.922,298.207,57.332,98607.172,42.653,124.158
辽宁,锦州市,19.955,42.231,15.917,21.35,0.629,95.805,-0.628,2.066,300.05,58.652,99792.172,41.502,121.659
辽宁,阜新市,17.039,34.167,13.257,16.588,0.458,95.905,-0.988,2.718,299.599,54.09,98416.919,42.289,121.968
辽宁,鞍山市,17.468,33.177,7.197,14.304,0.549,92.028,-1.13,1.338,299.829,59.66,98790.445,40.731,123.007
重庆,重庆城区,31.1,48.197,13.101,14.576,0.465,89.101,-1.795,1.456,301.112,61.966,93887.994,29.824,107.125
重庆,重庆郊县,32.821,51.671,14.745,6.319,0.461,77.978,-2.348,0.665,298.289,67.58,90308.557,30.334,108.755
陕西,咸阳市,22.661,52.028,7.088,19.487,0.705,79.621,-1.382,2.199,299.975,56.594,90516.229,34.779,108.367
陕西,商洛市,35.353,54.62,9.967,5.922,0.446,87.767,-1.408,2.771,297.13,68.028,88656.819,33.64,109.889
陕西,安康市,31.054,47.722,11.374,4.266,0.366,82.416,-1.212,1.593,297.745,65.199,89137.388,32.735,108.932
陕西,宝鸡市,22.464,45.365,6.665,10.426,0.39,65.644,0.225,3.575,295.704,70.055,85702.591,34.386,107.193
陕西,延安市,28.999,56.432,12.06,14.028,0.809,74.131,-0.343,5.184,297.075,65.727,86855.475,36.432,109.316
陕西,榆林市,28.444,49.385,12.588,11.036,0.728,88.308,0.267,5.26,297.82,63.13,87140.074,38.041,109.581
陕西,汉中市,25.438,42.704,11.315,5.426,0.375,69.654,-0.824,1.847,296.78,70.656,88232.532,33.088,107.098
陕西,渭南市,28.065,54.823,8.765,17.431,0.699,91.457,-1.691,2.215,301.572,55.394,92756.48,34.919,109.855
陕西,西安市,27.54,50.63,7.884,12.704,0.541,78.946,-0.209,4.498,299.238,59.785,89648.63,34.12,108.77
陕西,铜川市,29.461,56.108,9.532,15.863,0.817,80.236,-1.605,3.264,298.426,61.217,88392.754,35.198,109.058
青海,保亭黎族苗族自治县,13.74,19.086,3.4,3.848,0.3,66.728,10.324,-0.83,299.278,82.838,95844.53,18.566,109.618
青海,吐鲁番市,19.45,21.489,2.268,1.837,0.148,77.622,-0.311,-2.409,301.768,21.98,89370.95,42.386,89.851
青海,果洛藏族自治州,19.166,19.965,1.088,0.888,0.112,84.156,-1.417,-0.775,279.48,74.946,60412.316,34.127,99.404
青海,海东市,27.401,32.634,4.43,4.981,0.278,89.19,0.059,-0.846,289.937,57.78,72727.111,36.347,102.34
青海,海北藏族自治州,18.282,19.871,1.843,0.821,0.127,81.821,0.349,-1.844,282.146,74.766,65689.564,37.775,100.288
青海,海南藏族自治州,18.574,19.79,1.778,1.171,0.134,85.166,-0.664,-0.761,284.972,63.815,66731.218,35.89,100.272
青海,海西蒙古族藏族自治州,19.739,20.045,0.619,0.354,0.104,80.163,-0.524,-2.654,284.485,53.422,64815.905,36.677,94.519
青海,西宁市,20.467,25.784,3.492,5.25,0.32,83.716,0.165,-2.274,286.661,62.893,69698.06,36.842,101.423
青海,黄南藏族自治州,22.6,23.994,2.193,1.039,0.144,90.591,-0.62,0.48,283.122,72.749,66078.663,35.022,101.631
香港,香港特别行政区,3.67,8.115,1.89,9.715,0.2,50.38,-14.26,0.27,301.895,84.985,99019.485,22.45,114.22
黑龙江,七台河市,12.733,25.397,4.058,7.302,0.286,48.728,3.167,-1.967,292.231,80.61,97636.455,45.87,130.943
黑龙江,伊春市,8.849,12.763,1.404,1.801,0.209,43.468,2.579,-3.803,290.602,69.17,96340.838,47.772,129.184
黑龙江,佳木斯市,12.592,17.672,2.466,3.877,0.241,52.396,3.374,-1.738,292.755,76.881,99449.918,47.207,132.11
黑龙江,双鸭山市,14.344,20.265,3.133,4.403,0.232,55.344,3.795,-0.851,292.675,80.415,99042.87,46.722,132.643
黑龙江,哈尔滨市,15.058,21.394,2.582,5.156,0.264,55.105,0.473,-2.413,292.748,75.71,98038.042,45.634,127.964
黑龙江,大兴安岭地区,4.325,4.624,0.498,1.328,0.19,65.549,1.853,-0.289,289.54,51.489,94724.321,52.286,124.212
黑龙江,大庆市,12.514,23.51,2.624,9.188,0.347,44.632,-2.01,-1.121,294.152,70.468,99341.844,46.327,124.687
黑龙江,牡丹江市,18.901,27.564,3.589,4.443,0.24,61.669,2.026,-1.771,292.017,80.911,94982.893,44.592,129.883
黑龙江,绥化市,10.259,14.779,1.347,3.408,0.248,50.647,-0.88,-2.928,292.92,67.111,98599.113,46.89,126.634
黑龙江,鸡西市,17.218,25.756,4.285,6.321,0.242,57.812,2.752,-0.689,292.556,82.635,98811.456,45.626,132.289
黑龙江,鹤岗市,8.723,13.483,1.641,2.723,0.25,47.852,3.791,-4.096,292.386,70.445,98575.049,47.661,130.778
黑龙江,黑河市,6.333,8.318,0.988,1.678,0.209,56.383,1.253,-3.734,290.343,60.31,96826.234,49.268,127.004
黑龙江,齐齐哈尔市,11.079,15.409,2.227,5.129,0.258,51.608,-1.382,-2.591,293.006,67.038,98629.232,47.715,124.57
