province,city,PM2.5,PM10,SO2,NO2,CO,O3,U,V,TEMP,RH,PSFC,lat,lon
上海,上海市,41.869,61.462,10.568,37.394,0.832,91.622,-0.517,-3.224,296.671,74.433,101673.793,31.173,121.42
云南,临沧市,13.529,19.177,4.051,3.64,0.372,38.764,1.128,1.966,292.02,86.894,84188.341,23.935,99.686
云南,丽江市,14.902,20.351,9.374,6.143,0.517,41.661,1.665,2.084,287.333,86.811,74982.816,26.96,100.515
云南,保山市,11.358,19.056,3.709,3.792,0.312,35.167,2.114,0.712,291.114,85.42,82161.655,24.953,98.962
云南,大理白族自治州,11.178,18.165,3.808,4.621,0.361,40.712,2.35,2.181,289.09,86.595,78430.304,25.726,100.053
云南,德宏傣族景颇族自治州,14.613,21.068,5.003,2.907,0.258,37.374,1.165,-0.16,293.329,85.148,86306.262,24.535,98.052
云南,怒江傈僳族自治州,12.86,16.186,1.266,1.316,0.189,42.908,2.879,0.091,285.241,92.078,73175.706,26.916,98.885
云南,文山壮族苗族自治州,20.055,28.247,5.502,4.536,0.315,63.253,0.32,2.342,293.047,77.026,86797.892,23.696,104.735
云南,昆明市,19.378,29.44,6.646,12.305,0.462,47.345,1.406,4.089,289.119,89.014,79578.767,25.384,102.863
云南,昭通市,26.106,43.096,10.114,8.336,0.538,62.3,-1.193,-0.581,291.037,85.294,84324.831,27.667,103.985
云南,普洱市,14.236,21.125,3.924,3.368,0.283,41.147,-0.478,2.425,292.776,86.496,86244.034,23.159,100.718
云南,曲靖市,15.945,25.612,6.784,8.227,0.409,52.924,0.965,4.095,289.872,84.463,80348.847,25.737,103.929
云南,楚雄彝族自治州,16.836,23.189,5.612,4.045,0.376,44.166,1.766,4.312,290.525,87.083,81282.989,25.328,101.567
云南,玉溪市,16.293,22.923,3.996,4.488,0.267,54.7,0.687,3.609,291.478,85.295,83785.271,24.136,102.217
云南,红河哈尼族彝族自治州,18.195,24.419,5.108,3.755,0.245,64.388,-0.491,2.355,292.176,80.019,85454.334,23.451,103.034
云南,西双版纳傣族自治州,12.901,20.268,4.209,5.983,0.295,33.316,-1.559,1.237,294.767,78.119,89183.311,21.939,100.912
云南,迪庆藏族自治州,10.819,12.964,1.574,1.628,0.164,49.662,3.676,1.467,282.544,89.754,67701.222,27.957,99.459
内蒙古,乌兰察布市,12.128,13.731,2.444,1.826,0.218,61.152,3.191,-5.319,280.382,52.162,86524.085,41.691,112.44
内蒙古,乌海市,18.294,46.332,28.939,31.539,0.68,45.208,-3.742,0.685,286.759,18.38,88263.894,39.396,106.856
内蒙古,兴安盟,10.354,11.909,2.964,2.166,0.217,47.123,2.769,-5.51,279.53,73.569,94583.021,46.244,121.341
内蒙古,包头市,12.022,14.708,2.961,4.817,0.225,60.017,0.63,-2.94,281.382,43.373,86587.133,41.549,110.276
内蒙古,呼伦贝尔市,6.527,7.142,1.863,1.559,0.203,55.197,-0.282,-5.821,278.994,81.914,93607.648,49.636,121.171
内蒙古,呼和浩特市,11.922,21.716,5.153,14.952,0.367,52.881,1.795,-3.646,281.756,42.242,86914.224,40.578,111.513
内蒙古,巴彦淖尔市,13.335,15.566,2.49,3.498,0.209,63.176,-1.521,-1.433,283.534,31.879,87999.666,41.446,107.582
内蒙古,赤峰市,6.405,7.995,2.523,1.92,0.208,52.688,5.984,-6.586,280.262,62.278,91927.094,43.226,118.892
内蒙古,通辽市,8.615,10.662,3.31,3.536,0.226,44.234,4.113,-4.16,282.644,61.297,97659.385,43.814,121.591
内蒙古,鄂尔多斯市,11.454,17.529,4.821,9.765,0.275,59.895,-1.85,-1.115,284.567,26.831,87649.247,39.407,108.63
内蒙古,锡林郭勒盟,6.276,6.686,1.763,0.696,0.201,56.814,4.1,-5.837,278.765,73.462,89387.267,44.179,115.482
内蒙古,阿拉善盟,26.469,29.531,4.559,4.538,0.205,65.156,-6.324,1.685,287.503,16.313,87975.887,40.473,102.467
北京,北京市,9.689,18.254,2.706,11.553,0.237,50.348,3.646,-5.935,288.758,33.902,98051.277,40.158,116.395
台湾,台湾省,20.546,23.878,8.116,20.161,0.146,63.72,0.151,-0.986,296.175,82.872,92989.218,23.757,120.975
吉林,吉林市,13.337,19.867,6.56,10.102,0.342,42.406,0.822,2.337,282.86,70.912,96828.488,43.573,126.859
吉林,四平市,9.898,16.871,4.266,9.809,0.337,34.087,2.519,-0.107,283.633,60.578,99050.264,43.472,124.386
吉林,延边朝鲜族自治州,13.093,17.153,5.456,5.357,0.27,49.068,1.482,1.318,281.967,71.89,93955.945,43.141,129.147
吉林,松原市,8.277,12.792,2.84,5.115,0.269,36.901,2.879,-1.182,282.831,65.434,99412.469,44.785,124.496
吉林,白城市,11.106,13.703,3.527,3.747,0.239,38.121,2.759,-3.256,282.515,66.693,99565.719,45.35,123.031
吉林,白山市,15.722,22.251,8.195,9.984,0.42,45.125,2.682,3.019,281.658,74.186,92073.077,42.063,127.256
吉林,辽源市,11.253,20.334,6.255,12.023,0.396,35.269,3.663,2.848,283.827,59.909,97192.889,42.836,125.32
吉林,通化市,13.307,21.902,8.118,11.419,0.444,37.185,2.647,2.448,283.68,65.186,95466.683,41.939,125.927
吉林,长春市,9.533,17.685,3.285,9.794,0.349,33.306,1.526,0.921,283.412,63.621,98949.184,44.268,125.611
四川,乐山市,35.266,47.011,6.868,8.804,0.51,68.62,-1.294,-0.13,292.701,78.693,89707.036,29.218,103.569
四川,内江市,29.851,52.364,7.564,19.077,0.695,62.247,-1.523,-0.616,297.255,66.911,96635.945,29.62,104.95
四川,凉山彝族自治州,20.986,27.683,12.235,5.972,0.525,48.649,0.142,2.631,286.488,88.632,74532.569,27.883,102.065
四川,南充市,38.084,59.967,7.913,22.357,0.738,52.93,-1.929,0.43,296.296,74.884,96715.766,31.19,106.199
四川,宜宾市,36.294,54.642,11.634,15.596,0.632,66.099,-0.972,-1.216,296.316,70.732,95003.186,28.573,104.621
四川,巴中市,28.886,48.702,9.887,11.197,0.53,59.356,-2.386,0.671,293.893,71.033,92589.812,32.033,107.031
四川,广元市,29.06,49.04,11.175,11.744,0.591,45.354,-1.123,0.47,292.579,81.844,91715.049,32.261,105.788
四川,广安市,28.219,47.44,8.18,20.123,0.674,56.338,-1.901,0.944,296.722,70.747,96725.23,30.43,106.628
四川,德阳市,36.929,59.876,6.797,16.505,0.642,60.179,-1.496,0.028,293.988,81.581,93214.885,31.13,104.436
四川,成都市,37.915,57.41,6.592,19.17,0.597,49.229,-1.042,0.116,294.708,75.803,93337.406,30.64,103.929
四川,攀枝花市,28.016,40.137,46.777,20.153,1.121,32.454,-0.236,3.238,291.485,81.776,81735.317,26.791,101.734
四川,泸州市,27.747,46.256,10.043,16.869,0.546,51.847,-2.215,0.734,295.449,76.278,93437.868,28.424,105.675
四川,甘孜藏族自治州,11.176,12.49,1.453,1.377,0.135,78.548,1.571,2.797,279.108,81.354,61701.635,30.936,100.009
四川,眉山市,33.565,49.424,6.218,11.519,0.565,60.35,-0.995,0.564,295.165,74.073,93770.046,29.912,103.766
四川,绵阳市,38.314,54.582,7.471,10.41,0.537,66.674,-0.929,0.66,290.62,86.721,88154.938,31.86,104.704
四川,自贡市,36.627,56.684,9.109,19.559,0.711,62.248,-1.611,-0.781,297.165,67.908,96599.585,29.307,104.659
四川,资阳市,24.558,47.974,5.902,15.986,0.64,62.546,-1.566,-0.221,297.036,69.044,96893.655,30.102,105.149
四川,达州市,29.333,50.008,11.02,17.96,0.552,68.645,-2.818,0.953,295.054,64.626,94146.18,31.335,107.636
四川,遂宁市,30.612,54.65,6.788,20.007,0.685,58.693,-1.869,0.203,296.742,74.618,97139.712,30.642,105.457
四川,阿坝藏族羌族自治州,21.737,28.15,4.826,2.615,0.23,66.655,-0.382,2.704,279.677,87.301,66002.767,32.406,102.61
四川,雅安市,33.251,42.662,5.88,4.842,0.383,68.74,-1.609,0.258,287.101,91.382,80360.553,29.932,102.689
天津,天津市,9.422,29.381,4.45,22.251,0.363,43.035,3.776,-4.865,290.767,30.014,101708.291,39.315,117.308
宁夏,中卫市,25.111,41.428,11.664,19.096,0.493,63.8,-4.103,1.461,287.494,32.623,84002.412,37.018,105.509
宁夏,吴忠市,18.47,29.878,9.011,10.468,0.339,66.342,-4.353,1.197,286.982,26.917,85613.259,37.454,106.577
宁夏,固原市,25.216,45.063,9.38,17.558,0.429,69.993,-3.281,1.788,286.261,52.756,81462.887,35.905,106.183
宁夏,石嘴山市,19.167,41.878,19.248,26.781,0.74,50.886,-2.666,-0.273,285.954,19.535,87347.599,39.013,106.499
宁夏,银川市,17.451,35.953,12.462,19.97,0.539,61.014,-3.807,-1.023,286.934,20.234,87598.311,38.287,106.342
安徽,亳州市,35.292,79.292,14.027,36.347,0.646,91.82,-1.134,-2.955,295.389,39.095,101528.705,33.44,116.162
安徽,六安市,32.105,65.112,10.107,22.49,0.573,96.954,-2.149,-0.24,295.241,50.735,99052.297,31.617,116.209
安徽,合肥市,30.52,63.743,9.635,33.871,0.612,83.625,-1.864,-1.359,295.805,48.786,101366.487,31.766,117.359
安徽,安庆市,27.759,58.44,12.116,18.867,0.727,92.324,-3.599,-4.411,295.705,61.058,99422.047,30.557,116.473
安徽,宣城市,34.711,61.656,11.66,25.438,0.832,72.794,-2.674,-1.933,295.03,75.883,99362.13,30.676,118.846
安徽,宿州市,32.377,78.001,15.643,40.732,0.68,90.252,-0.268,-3.239,294.779,38.412,101490.212,33.844,117.23
安徽,池州市,32.026,60.866,13.636,18.039,0.901,68.995,-3.64,-3.25,295.411,78.507,99556.871,30.296,117.379
安徽,淮北市,32.703,81.642,18.114,40.192,0.71,86.075,-0.51,-3.034,295.218,38.607,101532.177,33.722,116.747
安徽,淮南市,31.043,68.631,13.756,34.822,0.567,89.737,-1.962,-1.195,296.395,39.161,101539.894,32.463,116.746
安徽,滁州市,30.552,60.9,11.828,30.867,0.515,89.248,-1.512,-2.771,295.986,39.697,101268.113,32.55,118.076
安徽,芜湖市,30.678,64.364,12.564,35.138,0.864,73.378,-2.535,-2.32,295.646,64.222,101512.958,31.167,118.162
安徽,蚌埠市,33.124,71.461,13.715,40.265,0.565,86.647,-1.414,-2.989,295.763,36.167,101531.879,33.121,117.263
安徽,铜陵市,33.465,66.329,12.729,28.691,0.822,76.112,-2.869,-3.546,295.624,67.671,101358.313,30.883,117.531
安徽,阜阳市,35.62,84.529,12.946,35.177,0.708,89.707,-1.892,-2.338,295.755,39.963,101490.024,32.937,115.723
安徽,马鞍山市,27.484,65.152,12.186,39.361,0.766,79.635,-1.874,-2.017,295.527,54.301,101528.496,31.622,118.386
安徽,黄山市,26.204,47.091,10.871,10.74,0.87,54.537,-3.605,-2.449,294.938,83.453,97366.867,29.869,118.09
山东,东营市,18.237,43.267,10.956,28.489,0.474,57.69,4.133,-3.112,291.869,35.457,101797.732,37.57,118.572
山东,临沂市,27.23,80.523,15.414,38.72,0.629,81.413,1.749,-3.574,292.906,36.363,100059.03,35.289,118.27
山东,威海市,12.844,36.093,8.856,17.622,0.448,65.259,5.705,-2.603,292.354,48.182,101017.579,37.148,122.028
山东,德州市,21.542,59.017,10.087,39.393,0.498,54.115,1.412,-3.067,291.511,27.363,101770.183,37.233,116.679
山东,日照市,23.878,69.024,11.01,32.87,0.533,83.119,1.786,-3.541,292.609,39.352,100148.627,35.566,119.108
山东,枣庄市,30.039,90.97,23.984,45.089,0.665,77.897,0.938,-3.127,293.584,34.566,100798.198,34.925,117.383
山东,泰安市,24.02,74.104,12.396,42.163,0.559,64.385,0.686,-3.37,291.648,33.771,100009.27,35.993,117.04
山东,济南市,22.444,69.249,12.185,43.718,0.58,56.235,1.535,-2.684,291.024,31.056,99997.07,36.639,117.254
山东,济宁市,28.55,81.79,19.455,43.124,0.647,73.504,0.48,-3.13,292.346,37.572,101272.342,35.375,116.697
山东,淄博市,27.2,79.137,20.262,46.502,0.839,56.41,3.389,-2.37,290.905,32.859,99359.582,36.623,118.062
山东,滨州市,19.296,46.915,10.129,33.89,0.502,54.711,3.452,-3.226,291.611,31.324,101786.966,37.516,117.852
山东,潍坊市,26.058,69.892,14.531,39.672,0.728,62.139,3.785,-2.524,291.555,38.911,100724.408,36.53,119.092
山东,烟台市,15.063,38.969,7.535,22.195,0.456,59.729,5.263,-1.882,291.362,49.057,100590.572,37.25,120.789
山东,聊城市,26.158,72.529,13.668,44.98,0.758,59.537,0.503,-3.348,291.767,28.356,101586.546,36.458,115.863
山东,菏泽市,33.581,84.649,16.229,39.159,0.725,79.301,-0.621,-3.428,292.178,38.685,101449.493,35.134,115.69
山东,青岛市,20.31,55.213,9.051,27.674,0.546,67.693,3.172,-2.659,291.526,49.897,101217.958,36.46,120.172
山西,临汾市,13.366,35.461,12.927,22.15,0.562,60.63,-1.18,-3.047,289.127,21.439,90558.527,36.227,111.398
山西,吕梁市,14.515,33.469,9.061,20.175,0.362,49.957,-0.498,-3.754,285.548,24.432,88251.036,37.663,111.27
山西,大同市,12.563,22.735,6.689,9.084,0.409,52.841,3.728,-5.823,282.345,42.486,87723.262,39.911,113.713
山西,太原市,16.551,45.531,8.802,26.341,0.396,42.844,1.401,-2.858,284.756,28.857,88128.536,37.967,112.321
山西,忻州市,13.103,29.343,7.772,17.108,0.346,50.261,1.824,-4.209,282.701,35.932,86648.477,38.877,112.391
山西,晋中市,17.003,44.226,7.381,25.947,0.441,48.336,1.429,-3.062,285.879,25.708,89026.014,37.328,112.997
山西,晋城市,20.732,51.259,17.496,30.4,1.086,64.364,-0.804,-2.326,289.404,24.218,90922.564,35.625,112.752
山西,朔州市,12.719,32.591,8.066,16.088,0.455,49.047,2.748,-4.128,282.321,40.959,87135.955,39.619,112.655
山西,运城市,22.743,56.939,20.543,37.326,1.242,59.266,-3.242,-2.125,292.93,26.447,94608.66,35.205,111.071
山西,长治市,15.953,42.867,9.738,27.039,0.634,56.489,0.173,-3.244,287.212,22.044,89300.489,36.48,112.915
山西,阳泉市,15.771,35.749,10.793,22.687,0.354,47.146,4.737,-3.558,286.557,28.227,90869.103,38.031,113.512
广东,东莞市,24.896,36.026,7.507,32.732,0.567,43.26,-0.282,0.319,300.486,84.469,101034.556,22.931,113.81
广东,中山市,15.371,24.543,6.758,17.103,0.441,31.456,-0.641,0.442,300.253,83.216,101038.942,22.5,113.383
广东,云浮市,34.273,50.778,8.801,13.94,0.629,68.418,-0.36,-0.912,299.786,80.392,99071.388,22.776,111.818
广东,佛山市,29.952,48.263,9.345,33.779,0.687,72.192,-0.153,-0.316,300.893,79.017,101066.351,23.035,112.979
广东,广州市,31.245,45.779,8.872,31.587,0.649,67.994,-0.724,-0.596,300.403,79.826,100196.547,23.339,113.525
广东,惠州市,17.886,26.305,5.953,12.203,0.424,48.616,-0.893,-0.066,299.338,85.089,99253.726,23.244,114.485
广东,揭阳市,15.626,27.636,8.211,12.383,0.641,35.394,-0.7,0.291,299.047,88.217,99844.154,23.323,116.123
广东,梅州市,15.534,28.578,7.023,11.025,0.614,43.438,-0.281,-0.289,298.537,83.108,97859.615,24.169,116.07
广东,汕头市,16.409,26.988,9.439,12.035,0.5,45.848,-1.36,0.13,299.455,89.561,100942.424,23.339,116.614
广东,汕尾市,11.39,19.94,3.987,7.621,0.393,33.454,-1.095,0.264,298.875,88.846,99582.783,23.024,115.527
广东,江门市,20.262,32.497,5.963,17.329,0.385,40.456,-0.685,0.071,300.118,81.574,100485.542,22.289,112.676
广东,河源市,18.74,33.216,11.037,8.876,0.624,56.592,-0.402,-1.841,298.753,82.676,98050.977,24.021,114.969
广东,深圳市,13.387,22.229,6.918,23.79,0.443,24.74,-1.049,0.834,299.832,87.707,100567.698,22.667,114.143
广东,清远市,33.302,53.011,16.383,11.128,0.749,68.02,-1.62,-3.699,298.189,80.61,97608.97,24.295,112.871
广东,湛江市,14.059,26.415,8.823,8.77,0.432,37.991,-1.123,-0.211,300.677,78.974,100901.564,21.091,110.163
广东,潮州市,16.16,27.561,7.076,11.81,0.593,42.312,-0.839,0.169,298.705,87.551,99301.649,23.755,116.754
广东,珠海市,12.26,17.013,3.512,9.817,0.203,39.228,-1.318,0.352,299.727,88.312,101121.27,22.095,113.317
广东,肇庆市,35.4,52.448,12.935,14.402,0.68,72.636,-1.895,-2.448,299.815,78.261,99181.113,23.505,112.199
广东,茂名市,26.274,44.141,11.185,10.461,0.602,51.599,-0.799,-0.722,299.786,80.396,99151.312,22.013,110.952
广东,阳江市,24.781,38.454,7.387,11.199,0.46,46.421,-0.588,-0.348,299.84,81.105,99659.846,22.042,111.786
广东,韶关市,28.539,46.097,14.701,7.825,0.776,66.767,-1.353,-3.636,297.663,80.093,96851.501,24.785,113.819
广西,北海市,20.147,37.526,10.963,11.154,0.765,43.714,-0.289,-0.918,301.283,76.827,100943.786,21.674,109.37
广西,南宁市,37.703,56.585,9.945,12.751,0.685,65.48,-1.46,-2.141,300.35,74.537,99165.462,23.051,108.469
广西,崇左市,32.071,50.668,8.955,7.261,0.523,64.527,-0.685,-1.13,299.622,74.793,97914.721,22.483,107.291
广西,来宾市,42.44,61.09,12.243,8.512,0.802,70.755,-2.303,-2.88,299.491,73.963,98032.411,23.859,109.417
广西,柳州市,43.905,58.749,13.749,6.541,0.719,70.556,-1.905,-3.881,297.774,76.18,97495.64,24.956,109.372
广西,桂林市,48.87,64.708,14.742,7.099,0.712,78.145,-3.275,-3.294,296.247,79.841,95929.101,25.353,110.513
广西,梧州市,32.427,52.055,13.235,9.274,0.757,69.624,-1.795,-2.188,299.732,77.232,98818.988,23.484,110.996
广西,河池市,38.971,53.051,12.906,5.262,0.65,55.954,-2.496,-1.752,296.811,80.575,95209.551,24.628,107.843
广西,玉林市,36.316,53.173,13.661,12.223,0.796,57.894,-0.667,-0.904,300.068,78.503,99210.575,22.452,110.164
广西,百色市,27.365,42.772,9.639,5.537,0.485,61.227,-1.373,0.601,296.53,78.029,93158.345,23.981,106.292
广西,贵港市,39.308,60.623,12.936,11.302,0.812,67.797,-2.054,-2.575,300.442,74.9,99637.78,23.322,110.021
广西,贺州市,35.893,56.707,16.798,8.535,0.801,66.55,-2.44,-3.784,298.063,77.649,97076.459,24.364,111.394
广西,钦州市,30.068,47.473,10.104,11.737,0.788,61.092,-0.424,-1.611,300.882,76.789,100247.914,22.173,109.01
广西,防城港市,31.968,46.593,8.551,8.173,0.607,64.605,0.006,-1.241,300.071,75.794,98712.725,21.88,108.002
新疆,乌鲁木齐市,36.087,55.312,2.569,14.294,0.268,64.119,1.031,-1.303,287.881,29.476,84499.044,43.746,87.818
新疆,五家渠市,43.517,71.453,4.563,23.29,0.363,50.297,0.283,-0.993,293.467,24.95,96494.78,44.363,87.517
新疆,伊犁哈萨克自治州,23.382,26.162,1.752,3.152,0.306,64.505,0.67,0.398,283.499,61.677,80727.567,43.438,82.146
新疆,克孜勒苏柯尔克孜自治州,46.38,52.031,0.472,2.003,0.164,70.997,1.114,0.043,280.459,42.477,70850.102,39.661,75.949
新疆,克拉玛依市,43.238,60.608,2.215,10.836,0.356,48.439,-0.959,-1.527,292.681,36.424,97336.532,45.457,85.207
新疆,北屯市,31.062,41.508,4.71,4.352,0.56,49.358,0.206,-0.396,290.732,40.75,95514.078,47.27,87.868
新疆,博尔塔拉蒙古自治州,22.051,27.109,2.19,2.08,0.216,61.003,1.389,0.506,286.44,53.571,86419.231,44.714,82.114
新疆,双河市,34.22,46.144,3.812,3.37,0.25,53.218,-0.748,-2.14,293.716,33.064,97795.016,44.87,82.474
新疆,可克达拉市,12.38,18.854,4.134,7.294,0.694,62.104,-0.098,-0.456,291.616,56.538,94881.018,43.918,80.786
新疆,和田地区,51.674,56.395,1.263,1.174,0.136,71.659,-0.428,0.383,285.449,36.487,74161.973,37.059,80.934
新疆,哈密市,21.769,23.138,0.658,3.4,0.171,67.963,-3.541,0.693,291.804,11.617,88329.901,43.042,93.517
新疆,喀什地区,50.298,56.284,0.922,2.766,0.165,66.69,0.297,-0.712,285.531,30.79,76289.502,38.125,77.178
新疆,图木舒克市,72.572,74.323,1.838,2.027,0.143,50.128,-5.5,-2.045,294.81,22.832,89127.997,39.892,79.182
新疆,塔城地区,37.131,43.116,1.638,3.385,0.212,57.764,0.838,-0.181,288.4,44.436,89729.316,45.642,84.789
新疆,巴音郭楞蒙古自治州,25.866,26.957,0.779,0.641,0.133,73.539,-2.7,-0.58,288.532,26.592,79264.38,39.463,87.481
新疆,新星市,11.995,21.365,2.405,21.98,0.415,54.765,-2.91,-0.355,297.09,9.0,92505.63,42.75,93.68
新疆,昆玉市,86.69,112.37,3.937,5.12,0.207,48.02,4.217,-2.423,295.487,16.657,86814.363,37.457,79.093
新疆,昌吉回族自治州,33.26,40.325,1.544,5.772,0.19,63.438,-0.41,-0.376,290.346,27.219,90008.857,44.342,88.608
新疆,石河子市,49.085,84.605,6.01,25.48,0.395,53.26,0.3,-0.09,293.175,26.555,94688.845,44.245,86.035
新疆,胡杨河市,47.272,68.312,1.934,8.776,0.378,54.48,-0.954,-0.984,293.342,35.06,97795.844,44.852,84.772
新疆,铁门关市,31.48,59.967,5.233,9.353,0.413,67.997,-1.277,-1.717,297.25,16.08,91476.013,41.773,85.66
新疆,阿克苏地区,48.499,55.51,1.765,4.125,0.169,59.006,-1.29,-1.468,291.398,26.065,85311.103,40.965,81.578
新疆,阿勒泰地区,30.465,32.528,1.47,1.584,0.199,57.352,-0.532,0.768,287.494,39.617,88675.386,46.902,88.421
新疆,阿拉尔市,52.74,66.491,2.365,7.932,0.208,53.185,-3.184,-3.359,294.763,23.496,89986.913,40.629,80.998
江苏,南京市,34.302,68.97,12.613,37.963,0.761,80.587,-1.371,-2.484,295.6,53.092,101579.111,31.899,118.876
江苏,南通市,44.517,66.196,16.452,22.742,0.702,95.755,-0.105,-2.891,295.434,71.065,101706.648,32.201,120.979
江苏,宿迁市,33.184,74.455,14.833,35.921,0.732,96.495,0.693,-3.515,295.121,40.878,101709.71,33.765,118.495
江苏,常州市,39.14,72.223,15.887,44.349,0.993,81.796,-1.323,-2.439,295.857,64.281,101622.253,31.613,119.666
江苏,徐州市,31.944,86.119,19.351,44.875,0.75,83.672,0.681,-2.888,293.818,39.362,101502.914,34.363,117.513
江苏,扬州市,41.457,73.372,12.483,26.29,0.74,96.625,-0.426,-3.24,295.55,50.441,101728.014,32.709,119.486
江苏,无锡市,37.971,72.814,15.56,43.723,0.973,82.181,-1.16,-2.61,296.194,68.44,101523.82,31.546,120.066
江苏,泰州市,46.24,76.21,14.516,25.36,0.822,96.96,-0.677,-3.103,295.062,57.028,101688.34,32.605,120.048
江苏,淮安市,34.966,71.844,13.31,30.069,0.678,100.295,0.515,-3.728,295.614,44.48,101686.485,33.362,118.985
江苏,盐城市,39.876,67.546,15.171,20.266,0.658,109.538,0.564,-3.368,294.998,57.01,101732.211,33.529,120.156
江苏,苏州市,38.102,69.056,13.18,39.653,0.819,90.148,-0.97,-2.864,296.556,72.998,101661.336,31.374,120.661
江苏,连云港市,33.52,76.785,14.553,31.769,0.639,105.719,0.723,-2.941,294.692,49.629,101590.447,34.519,119.133
江苏,镇江市,42.185,75.956,14.653,39.352,0.877,84.756,-0.989,-2.651,295.41,57.042,101610.152,32.016,119.49
江西,上饶市,25.274,40.293,11.09,11.67,0.865,43.011,-3.122,-3.249,297.004,81.013,99290.236,28.778,117.47
江西,九江市,30.723,62.248,14.885,14.283,0.898,77.963,-1.954,-3.681,295.893,74.544,99332.33,29.313,115.444
江西,南昌市,24.206,50.742,11.359,15.901,0.91,68.609,-1.213,-5.139,297.577,78.175,101110.361,28.671,116.016
江西,吉安市,33.784,54.586,19.458,10.78,0.998,63.119,-1.175,-4.501,296.855,74.558,98864.262,26.954,114.831
江西,宜春市,30.158,55.586,14.13,12.949,0.986,57.875,-1.452,-4.443,296.218,74.662,99257.038,28.29,114.974
江西,抚州市,29.944,48.405,14.166,9.924,0.811,64.714,-0.869,-4.011,296.772,83.417,98835.468,27.514,116.42
江西,新余市,31.76,55.965,18.093,15.027,1.145,51.609,-1.272,-4.277,296.967,70.383,100150.957,27.847,114.836
江西,景德镇市,22.027,38.624,11.113,8.998,0.898,39.759,-2.999,-3.323,297.16,78.705,100133.435,29.287,117.24
江西,萍乡市,31.976,55.022,17.687,14.502,1.181,44.257,-2.436,-3.007,295.531,77.036,97950.893,27.505,113.908
江西,赣州市,33.483,50.284,16.937,6.389,0.894,76.646,-0.538,-4.199,297.29,82.082,97168.704,25.692,115.279
江西,鹰潭市,28.579,43.349,12.089,14.503,0.887,40.538,-2.227,-3.219,297.209,84.111,99772.244,28.222,117.094
河北,保定市,14.21,26.067,5.217,16.193,0.268,52.88,2.545,-4.455,290.158,28.175,98108.471,39.018,115.159
河北,唐山市,14.595,28.548,10.042,22.28,0.327,42.208,4.387,-4.484,289.625,32.645,101110.59,39.731,118.354
河北,廊坊市,10.961,30.0,3.805,22.828,0.329,44.209,2.842,-4.871,291.312,28.79,101787.563,39.267,116.632
河北,张家口市,12.27,15.245,2.755,4.056,0.221,58.312,5.553,-7.272,280.967,52.723,88067.251,40.877,115.042
河北,承德市,8.265,10.215,2.632,4.281,0.211,54.93,5.163,-6.865,281.648,52.815,91156.46,41.339,117.578
河北,沧州市,18.647,42.137,7.372,29.762,0.407,49.891,2.124,-3.579,291.526,27.654,101845.742,38.258,116.744
河北,石家庄市,16.65,39.478,9.187,28.402,0.43,46.02,3.031,-3.174,291.52,23.667,98692.891,38.135,114.407
河北,秦皇岛市,10.624,17.62,6.108,14.0,0.275,48.088,3.944,-4.631,287.501,35.986,98768.14,40.12,119.193
河北,衡水市,23.01,51.532,9.015,33.97,0.47,50.52,1.311,-2.83,291.768,25.379,101756.085,37.755,115.813
河北,邢台市,21.126,55.183,10.9,37.786,0.694,48.646,1.464,-3.703,292.675,21.363,100306.808,37.195,114.815
河北,邯郸市,25.791,70.335,16.37,44.205,1.194,51.635,0.146,-3.299,292.389,23.189,99851.061,36.538,114.596
河南,三门峡市,30.948,62.933,13.143,26.751,0.788,66.952,-2.128,1.425,291.959,38.594,92228.011,34.362,111.101
河南,信阳市,30.387,67.34,11.33,25.581,0.558,94.27,-2.746,-1.396,296.215,43.623,100508.795,32.091,114.907
河南,南阳市,30.006,70.294,9.82,30.047,0.681,91.471,-3.135,-1.986,295.413,30.349,98511.895,33.034,112.323
河南,周口市,40.393,97.977,15.044,36.184,0.741,98.142,-2.141,-3.199,294.286,39.804,101335.676,33.738,114.884
河南,商丘市,38.18,87.082,14.851,37.271,0.706,92.159,-1.158,-3.273,293.462,41.59,101431.658,34.277,115.718
河南,安阳市,27.108,69.618,17.218,41.734,1.058,57.515,-0.208,-3.341,292.365,25.478,99461.063,35.888,114.318
河南,平顶山市,31.221,78.055,13.841,43.143,0.746,76.139,-1.794,-1.584,294.537,29.21,99206.292,33.8,113.025
河南,开封市,36.068,88.659,15.272,42.084,0.792,75.427,-2.159,-3.091,292.871,38.36,101138.485,34.594,114.514
河南,新乡市,27.382,69.547,15.105,43.778,0.908,60.532,-2.577,-3.345,293.197,28.683,100246.127,35.256,114.111
河南,洛阳市,29.421,65.802,12.741,34.602,0.716,67.171,-1.699,0.076,292.464,33.083,94622.786,34.274,112.019
河南,济源市,22.385,57.706,20.363,39.178,1.249,60.822,-2.23,-2.57,293.405,24.519,96463.1,35.105,112.445
河南,漯河市,36.031,91.785,16.662,42.442,0.737,93.331,-2.449,-2.764,294.543,34.558,101188.721,33.652,113.945
河南,濮阳市,29.071,80.007,17.218,43.14,0.863,66.934,-0.611,-3.047,291.938,32.104,101467.519,35.809,115.283
河南,焦作市,25.129,65.426,17.701,47.18,1.117,53.639,-2.886,-1.546,294.616,24.949,100039.928,35.121,113.163
河南,许昌市,33.536,89.206,17.283,51.25,0.821,71.183,-2.405,-2.782,294.072,33.175,100547.257,34.075,113.707
河南,郑州市,28.701,79.141,15.277,57.333,0.835,53.898,-2.508,-1.322,293.686,30.318,99278.573,34.634,113.438
河南,驻马店市,31.226,80.605,12.533,32.684,0.616,107.387,-2.153,-2.59,295.655,35.481,100832.84,32.925,114.174
河南,鹤壁市,28.183,70.331,18.197,45.231,1.16,55.756,-0.696,-4.057,293.126,24.454,100617.894,35.716,114.319
浙江,丽水市,20.834,33.287,8.279,12.954,0.567,47.029,-3.284,-2.166,294.356,91.21,94658.38,28.194,119.51
浙江,台州市,20.256,29.197,7.005,16.107,0.496,56.882,-2.449,-4.124,296.452,89.495,98852.839,28.742,121.109
浙江,嘉兴市,35.081,59.897,9.562,38.551,0.867,85.483,-1.321,-3.448,296.767,74.337,101633.53,30.635,120.754
浙江,宁波市,26.273,39.156,8.785,25.475,0.653,63.663,-1.712,-3.574,296.737,86.603,100376.702,29.706,121.49
浙江,杭州市,31.335,54.431,9.204,24.712,0.886,66.188,-2.499,-3.39,295.237,83.477,98766.488,29.891,119.464
浙江,温州市,18.29,29.955,8.592,19.968,0.565,47.552,-2.681,-3.444,296.042,89.825,97644.854,27.897,120.411
浙江,湖州市,35.295,67.036,11.385,40.469,0.846,82.357,-1.17,-2.414,295.85,74.173,100410.367,30.757,119.871
浙江,绍兴市,31.38,48.6,8.073,28.854,0.94,64.208,-1.946,-2.724,295.782,88.417,99561.483,29.709,120.64
浙江,舟山市,25.475,36.005,8.6,10.092,0.398,77.602,-1.982,-4.562,297.815,81.392,101366.598,30.038,122.23
浙江,衢州市,23.681,38.45,9.583,17.197,0.76,44.951,-4.234,-3.202,295.959,84.735,97941.73,28.912,118.675
浙江,金华市,23.845,38.051,6.418,22.817,0.756,48.384,-2.787,-3.197,295.49,88.601,98214.085,29.109,119.967
海南,万宁市,6.861,10.136,1.989,3.2,0.136,38.333,-1.584,-2.657,299.09,87.574,99890.123,18.842,110.294
海南,三亚市,8.12,12.331,2.754,5.446,0.314,29.379,-1.933,-0.823,298.977,81.171,98684.596,18.413,109.407
海南,东方市,11.005,13.815,2.517,3.196,0.132,47.848,-1.147,-1.377,299.925,77.213,99300.343,18.971,108.838
海南,临高县,12.09,17.207,4.064,4.71,0.26,43.923,-1.304,-1.116,299.489,81.621,100480.549,19.821,109.733
海南,乐东黎族自治县,9.155,12.142,1.477,3.5,0.162,37.679,-1.133,-0.862,298.858,79.978,97804.02,18.659,109.072
海南,五指山市,7.676,10.278,1.226,3.488,0.136,32.428,-2.072,-1.266,297.056,81.14,94649.232,18.81,109.518
海南,儋州市,12.08,15.731,2.868,3.389,0.189,46.097,-1.581,-0.871,299.549,79.378,100139.659,19.568,109.399
海南,定安县,8.633,13.278,2.527,5.385,0.315,32.495,-1.228,-1.293,299.057,85.86,100176.958,19.47,110.28
海南,屯昌县,8.58,12.348,2.258,4.054,0.236,35.09,-1.164,-0.834,298.824,85.042,99405.794,19.342,110.076
海南,文昌市,4.933,7.022,1.277,2.124,0.129,38.415,-2.203,-1.951,299.807,85.916,100933.796,19.707,110.773
海南,昌江黎族自治县,11.841,14.788,2.801,3.331,0.143,46.286,-1.988,-1.738,299.086,78.033,98307.136,19.233,109.016
海南,海口市,8.389,13.368,3.432,5.899,0.291,33.437,-1.692,-1.456,299.6,84.655,100744.713,19.842,110.393
海南,澄迈县,10.456,15.731,4.21,6.364,0.326,34.759,-1.213,-1.143,299.393,82.257,100305.533,19.676,109.989
海南,琼中黎族苗族自治县,8.074,10.785,1.603,2.986,0.151,35.32,-1.273,-0.861,297.834,85.388,97250.446,19.087,109.847
海南,琼海市,6.598,9.883,1.703,3.427,0.175,37.055,-1.385,-1.847,299.41,86.753,100714.87,19.22,110.43
海南,白沙黎族自治县,9.23,11.755,1.781,2.705,0.141,38.819,-1.564,-0.686,298.222,79.472,96973.598,19.2,109.388
海南,陵水黎族自治县,6.844,10.089,1.424,3.76,0.169,33.78,-1.931,-2.547,299.186,83.111,99222.017,18.581,109.913
湖北,仙桃市,27.378,59.787,8.497,26.665,0.858,79.215,-0.482,-1.038,296.588,54.456,101404.896,30.284,113.417
湖北,十堰市,27.05,50.893,10.131,9.544,0.485,81.975,-2.557,0.333,293.526,48.118,93671.123,32.462,110.476
湖北,咸宁市,34.286,61.842,12.345,14.47,0.906,73.911,-1.234,-0.951,295.78,68.004,99566.08,29.621,114.178
湖北,天门市,28.574,66.039,10.507,29.46,0.852,74.84,-1.109,-0.923,296.954,48.253,101359.44,30.633,113.053
湖北,孝感市,33.31,69.06,10.683,25.784,0.749,82.148,-2.555,-1.514,297.085,48.499,100788.33,31.116,113.869
湖北,宜昌市,25.772,50.139,10.263,12.165,0.549,74.776,-1.266,-0.125,294.305,54.599,94450.014,30.746,111.129
湖北,恩施土家族苗族自治州,23.288,41.918,12.1,5.347,0.466,62.791,-2.537,1.3,291.179,78.576,89962.603,30.195,109.552
湖北,武汉市,41.478,81.125,12.677,37.766,1.0,79.345,-1.477,-0.417,297.204,57.503,101304.465,30.606,114.349
湖北,潜江市,28.878,61.941,9.9,28.462,0.909,74.074,-0.379,-0.916,296.91,50.133,101364.267,30.33,112.77
湖北,神农架林区,30.778,45.225,7.667,2.985,0.344,89.046,-1.703,2.006,288.355,63.958,83534.198,31.592,110.49
湖北,荆州市,25.915,51.809,11.978,19.202,0.822,75.112,-0.322,-0.804,296.852,55.421,101132.717,30.01,112.512
湖北,荆门市,28.941,62.583,11.528,25.692,0.72,74.402,-1.512,-1.395,297.447,42.258,100368.242,31.059,112.616
湖北,襄阳市,27.227,60.126,10.447,20.657,0.604,84.045,-1.663,-0.803,295.743,39.642,97726.567,31.919,111.96
湖北,鄂州市,41.477,77.481,15.136,29.943,1.029,81.031,-1.264,-0.199,296.689,60.419,101357.697,30.337,114.794
湖北,随州市,26.497,57.53,9.565,22.663,0.576,86.095,-3.601,-1.619,297.172,35.449,99710.462,31.809,113.43
湖北,黄冈市,29.711,61.091,13.141,14.367,0.732,89.291,-3.192,-1.588,296.92,50.042,99654.535,30.702,115.358
湖北,黄石市,40.25,74.683,16.387,24.686,1.033,85.18,-1.06,-1.292,296.327,67.232,100390.564,29.925,115.034
湖南,娄底市,23.88,37.517,10.635,14.208,0.88,50.002,-0.855,-1.85,292.88,90.723,97440.972,27.715,111.632
湖南,岳阳市,24.982,42.65,10.166,12.013,0.784,63.39,-1.199,-0.967,295.76,73.506,100254.452,29.081,113.275
湖南,常德市,15.228,31.754,11.168,9.342,0.715,65.044,0.336,0.138,294.975,74.735,99485.758,29.271,111.524
湖南,张家界市,12.901,28.027,10.994,5.597,0.525,58.707,-1.022,-0.203,293.092,76.709,95618.583,29.379,110.526
湖南,怀化市,17.032,31.739,9.978,5.772,0.706,55.016,-1.284,-1.773,293.012,90.136,96535.401,27.535,110.071
湖南,株洲市,30.164,49.519,14.644,13.238,0.908,51.527,-1.371,-3.475,295.428,80.362,98072.249,27.109,113.513
湖南,永州市,49.773,70.339,13.96,10.032,0.755,63.869,-2.358,-3.623,295.182,83.938,96689.639,25.748,111.723
湖南,湘潭市,12.425,21.109,6.438,17.036,0.698,44.887,-0.462,-3.915,294.414,86.735,100362.458,27.744,112.619
湖南,湘西土家族苗族自治州,12.701,24.839,7.136,5.467,0.561,47.505,-1.8,-0.244,292.296,89.578,95549.384,28.708,109.718
湖南,益阳市,20.305,33.208,8.646,8.398,0.807,59.336,-0.225,-0.61,293.717,88.442,98997.175,28.525,111.919
湖南,衡阳市,30.576,46.865,11.476,15.396,0.767,50.326,-0.308,-4.175,295.381,80.369,99843.676,26.781,112.565
湖南,邵阳市,35.094,48.402,14.083,10.366,0.737,62.604,-2.473,-2.183,293.369,86.67,95230.915,26.893,110.881
湖南,郴州市,46.783,71.264,13.423,11.441,0.954,61.957,-0.404,-3.818,294.951,85.979,95851.359,25.769,113.109
湖南,长沙市,18.629,31.428,8.591,14.782,0.78,47.57,-1.086,-2.944,294.955,82.352,99771.905,28.235,113.159
甘肃,临夏回族自治州,25.926,47.414,9.643,15.691,0.496,62.45,-1.027,0.182,285.963,54.627,77900.535,35.617,103.291
甘肃,兰州市,22.219,41.262,13.778,18.76,0.456,63.213,-2.076,0.682,287.043,46.052,79517.097,36.359,103.633
甘肃,嘉峪关市,14.683,51.073,8.965,53.432,0.567,48.333,-6.582,1.428,286.833,17.567,81917.185,39.798,98.145
甘肃,天水市,26.921,47.163,9.754,10.198,0.386,72.188,-2.578,3.444,287.747,80.596,83094.794,34.645,105.739
甘肃,定西市,25.238,42.343,8.132,7.635,0.338,68.502,-2.719,2.479,285.511,72.865,77703.862,35.124,104.432
甘肃,平凉市,28.379,50.807,8.57,17.164,0.458,72.67,-1.501,1.951,288.398,60.706,84967.036,35.304,106.644
甘肃,庆阳市,21.951,37.39,9.6,10.4,0.375,72.709,-3.569,0.678,287.972,38.843,86289.938,36.149,107.596
甘肃,张掖市,13.594,22.525,3.388,6.132,0.194,75.273,-1.152,0.788,284.503,28.522,75039.734,38.94,99.855
甘肃,武威市,15.901,24.716,8.348,7.081,0.216,70.346,-3.951,1.486,286.28,29.45,81806.539,38.163,103.073
甘肃,甘南藏族自治州,17.664,22.007,3.278,2.055,0.207,73.737,-0.737,1.899,280.099,82.052,68199.639,34.331,102.768
甘肃,白银市,23.438,37.725,13.854,14.777,0.435,64.467,-3.229,2.609,287.894,43.053,81882.79,36.59,104.646
甘肃,酒泉市,12.934,16.27,1.108,3.092,0.144,81.083,-5.505,0.878,287.022,12.168,79360.353,40.236,96.062
甘肃,金昌市,15.896,39.649,10.598,12.377,0.275,70.889,-4.032,2.058,285.566,27.856,81004.797,38.44,102.048
甘肃,陇南市,27.177,41.627,9.691,4.992,0.386,64.304,-1.094,2.714,287.212,87.942,82626.748,33.599,105.224
福建,三明市,25.646,39.775,12.769,8.927,0.574,55.147,-0.8,-1.435,296.064,88.149,95163.866,26.29,117.395
福建,南平市,21.61,34.994,12.24,7.726,0.564,53.062,-2.024,-1.576,296.105,86.047,95942.629,27.324,118.143
福建,厦门市,25.778,39.972,7.173,15.1,0.497,77.78,-1.637,-1.723,298.732,86.637,100181.803,24.642,118.11
福建,宁德市,21.508,34.243,9.541,8.953,0.459,56.412,-2.302,-2.515,295.194,90.094,95295.906,26.968,119.474
福建,泉州市,21.257,33.247,5.491,11.298,0.469,65.422,-1.42,-1.438,296.769,88.174,96523.104,25.201,118.249
福建,漳州市,24.156,35.852,4.996,9.893,0.441,60.281,-0.559,-0.439,297.76,88.591,98075.823,24.372,117.444
福建,福州市,17.575,29.107,5.949,9.328,0.412,68.256,-2.152,-3.287,296.572,89.722,97300.933,26.083,119.206
福建,莆田市,17.51,28.679,6.372,10.002,0.43,70.43,-2.027,-3.547,297.481,85.271,98017.358,25.445,118.864
福建,龙岩市,25.793,40.896,9.317,10.522,0.553,53.335,-0.097,-0.875,296.649,87.196,95129.091,25.256,116.739
西藏,山南市,15.039,16.44,1.295,1.674,0.144,80.849,1.728,1.645,282.4,79.334,66700.022,28.295,92.274
西藏,拉萨市,7.173,8.544,0.896,2.625,0.12,90.86,2.76,0.904,278.562,65.869,57264.408,30.043,91.093
西藏,日喀则市,9.097,9.894,0.86,0.68,0.117,89.512,5.224,2.765,276.262,68.438,56034.987,29.483,86.493
西藏,昌都市,8.164,8.97,0.545,0.94,0.115,87.397,3.855,2.987,278.761,70.963,59682.026,30.753,97.044
西藏,林芝市,12.826,13.328,0.918,1.651,0.123,78.607,0.132,1.367,281.003,88.756,66957.952,29.184,95.25
西藏,玉树藏族自治州,6.35,6.606,0.303,0.504,0.11,88.754,0.56,0.756,275.993,76.491,57922.508,34.196,94.317
西藏,那曲市,8.373,9.019,0.596,0.248,0.11,97.788,3.929,0.96,277.045,69.154,56105.593,32.709,89.262
西藏,阿里地区,10.453,11.007,1.039,0.287,0.124,89.444,4.56,3.393,274.454,78.723,55438.306,33.013,82.553
贵州,六盘水市,18.299,30.982,6.185,10.82,0.452,49.105,-0.315,4.056,291.034,86.686,83484.053,26.106,104.896
贵州,安顺市,26.721,40.942,6.887,6.442,0.382,54.25,-1.309,3.064,292.862,87.986,88479.166,25.986,105.978
贵州,毕节市,23.477,37.437,6.654,12.55,0.493,46.961,-0.428,3.281,290.999,87.138,83800.64,27.063,105.211
贵州,贵阳市,28.061,45.828,4.636,18.369,0.534,40.697,-0.922,3.247,292.394,88.107,88518.885,26.845,106.71
贵州,遵义市,28.2,39.288,11.09,9.087,0.476,47.333,-2.923,1.489,291.537,91.169,90693.105,28.167,107.102
贵州,铜仁市,15.66,30.003,12.16,6.195,0.526,44.96,-1.687,0.152,291.341,93.001,93073.601,27.937,108.534
贵州,黔东南苗族侗族自治州,25.331,42.529,17.199,5.052,0.555,54.615,-1.694,-1.46,292.276,92.69,92946.156,26.495,108.574
贵州,黔南布依族苗族自治州,31.771,47.632,11.826,5.546,0.491,52.89,-1.706,0.789,292.807,90.707,90672.37,26.0,107.265
贵州,黔西南布依族苗族自治州,19.508,30.934,6.773,4.367,0.354,58.18,-1.176,2.352,293.79,82.376,88849.203,25.256,105.467
辽宁,丹东市,13.532,23.126,7.368,10.677,0.409,45.853,3.78,0.268,286.369,55.451,98402.394,40.554,124.376
辽宁,大连市,9.419,18.662,5.371,10.737,0.32,56.948,6.378,-2.122,290.013,43.564,100710.766,39.591,122.22
辽宁,抚顺市,12.529,22.574,7.663,11.837,0.421,38.905,3.134,1.885,284.02,60.904,96648.441,41.841,124.65
辽宁,朝阳市,8.37,16.796,5.698,8.891,0.296,46.711,5.133,-5.763,284.861,43.796,96388.384,41.545,120.053
辽宁,本溪市,13.551,23.592,7.67,12.249,0.469,40.517,3.613,1.441,284.252,58.883,96029.976,41.232,124.544
辽宁,沈阳市,10.18,18.689,6.439,12.101,0.371,36.097,3.119,-1.286,285.616,52.058,100773.707,42.081,123.159
辽宁,盘锦市,10.375,21.887,8.246,16.92,0.416,38.235,4.021,-3.277,287.619,41.293,101478.725,41.13,122.01
辽宁,营口市,9.892,20.347,6.853,14.165,0.42,46.973,4.662,-2.219,287.312,47.942,99300.184,40.395,122.478
辽宁,葫芦岛市,8.634,16.262,5.059,9.859,0.295,48.152,5.08,-5.088,287.457,35.858,99108.856,40.66,120.215
辽宁,辽阳市,12.165,26.068,9.433,16.837,0.633,35.484,3.82,0.49,285.926,53.121,99455.433,41.153,123.261
辽宁,铁岭市,11.631,21.454,6.934,13.123,0.395,33.668,2.839,1.051,284.231,58.674,99187.518,42.653,124.158
辽宁,锦州市,9.252,17.582,6.187,13.224,0.324,41.356,4.563,-4.293,287.36,40.537,100670.664,41.502,121.659
辽宁,阜新市,7.822,10.882,2.894,6.403,0.245,44.738,4.78,-4.168,285.211,48.327,99178.993,42.289,121.968
辽宁,鞍山市,11.19,22.495,7.457,14.37,0.507,41.647,4.34,-1.089,286.727,49.361,99536.241,40.731,123.007
重庆,重庆城区,28.375,45.042,12.045,17.363,0.569,59.996,-2.535,1.082,295.77,69.701,95101.472,29.824,107.125
重庆,重庆郊县,25.874,42.216,14.107,6.682,0.437,64.127,-2.851,1.02,292.674,72.084,91445.076,30.334,108.755
陕西,咸阳市,28.458,60.094,10.951,34.623,0.79,63.034,-4.432,0.084,292.216,36.254,91840.948,34.779,108.367
陕西,商洛市,29.854,53.855,9.745,11.603,0.537,71.349,-2.09,1.225,291.115,49.906,89783.364,33.64,109.889
陕西,安康市,27.84,46.563,10.668,6.836,0.436,69.95,-2.461,0.487,292.099,58.324,90258.178,32.735,108.932
陕西,宝鸡市,31.2,57.59,7.68,21.849,0.588,68.175,-2.299,1.535,289.094,65.755,86804.177,34.386,107.193
陕西,延安市,15.729,29.152,9.848,16.65,0.443,55.964,-2.833,-1.642,287.263,27.469,88111.052,36.432,109.316
陕西,榆林市,14.666,29.348,10.553,22.284,0.453,47.494,-1.858,-1.794,285.884,25.316,88519.6,38.041,109.581
陕西,汉中市,27.57,44.457,10.126,6.853,0.434,63.007,-1.988,0.921,291.705,70.429,89301.165,33.088,107.098
陕西,渭南市,22.849,49.451,13.894,29.577,0.798,64.616,-4.093,-2.425,293.607,28.097,94172.681,34.919,109.855
陕西,西安市,32.141,66.365,10.796,34.421,0.835,69.188,-1.36,-0.27,291.816,49.76,90915.001,34.12,108.77
陕西,铜川市,22.366,41.989,10.971,22.336,0.619,67.264,-2.783,-0.704,290.218,33.453,89632.914,35.198,109.058
青海,保亭黎族苗族自治县,7.978,11.678,2.198,5.412,0.248,29.18,-1.668,-1.264,298.184,82.324,97111.854,18.566,109.618
青海,吐鲁番市,16.47,20.251,1.532,2.486,0.175,74.913,-1.431,-1.805,293.824,15.258,90199.999,42.386,89.851
青海,果洛藏族自治州,5.376,5.682,0.23,0.992,0.111,80.519,0.133,1.513,275.845,80.659,60615.301,34.127,99.404
青海,海东市,23.006,28.448,7.974,7.526,0.267,71.414,-2.302,1.005,282.674,54.443,73287.392,36.347,102.34
青海,海北藏族自治州,9.691,11.095,2.478,2.203,0.147,83.376,-0.318,1.479,277.633,49.929,65952.278,37.775,100.288
青海,海南藏族自治州,8.817,9.578,1.647,1.676,0.139,74.002,-0.941,1.012,279.787,51.477,67054.119,35.89,100.272
青海,海西蒙古族藏族自治州,5.179,5.396,0.413,0.508,0.114,89.799,0.041,-0.026,281.419,32.143,65019.789,36.677,94.519
青海,西宁市,22.936,32.974,7.039,10.514,0.344,75.341,-1.42,1.426,280.2,57.306,70136.341,36.842,101.423
青海,黄南藏族自治州,10.257,11.035,1.789,1.495,0.144,71.028,-1.03,1.449,279.092,71.164,66398.63,35.022,101.631
香港,香港特别行政区,7.39,10.015,3.57,17.21,0.16,23.305,-1.835,0.8,299.755,88.565,100752.03,22.45,114.22
黑龙江,七台河市,13.151,22.929,5.489,10.934,0.469,30.79,0.95,3.055,283.289,67.643,98078.374,45.87,130.943
黑龙江,伊春市,10.83,13.35,3.452,2.88,0.305,45.307,0.1,0.415,282.069,68.936,96607.513,47.772,129.184
黑龙江,佳木斯市,12.185,16.819,4.092,6.102,0.377,40.068,0.335,1.153,284.027,74.068,100045.643,47.207,132.11
黑龙江,双鸭山市,12.015,16.595,4.723,6.337,0.451,44.102,1.31,1.649,284.782,66.377,99640.752,46.722,132.643
黑龙江,哈尔滨市,11.744,17.024,4.752,7.28,0.316,42.067,0.868,1.765,283.275,61.44,98339.359,45.634,127.964
黑龙江,大兴安岭地区,3.223,3.319,0.684,0.969,0.208,60.664,0.194,-4.946,279.435,75.134,95238.331,52.286,124.212
黑龙江,大庆市,11.379,17.153,3.218,5.257,0.274,38.744,2.174,-1.52,282.515,70.131,99616.621,46.327,124.687
黑龙江,牡丹江市,12.616,18.036,4.468,6.485,0.289,41.251,1.125,2.052,281.547,71.215,95305.161,44.592,129.883
黑龙江,绥化市,12.137,18.099,3.579,5.921,0.319,40.81,-0.145,1.15,282.816,64.518,98819.769,46.89,126.634
黑龙江,鸡西市,13.8,21.375,5.302,9.209,0.382,38.664,1.526,0.496,284.019,70.57,99379.27,45.626,132.289
黑龙江,鹤岗市,11.962,17.456,4.31,5.638,0.417,43.8,0.25,-0.043,283.682,73.096,99044.435,47.661,130.778
黑龙江,黑河市,11.517,14.774,2.883,2.952,0.267,47.683,-1.038,-2.054,280.814,83.087,97056.495,49.268,127.004
黑龙江,齐齐哈尔市,11.38,15.968,3.432,3.503,0.249,42.373,-0.604,-3.834,282.154,70.742,98868.012,47.715,124.57
