province,city,PM2.5,PM10,SO2,NO2,CO,O3,U,V,TEMP,RH,PSFC,lat,lon
上海,上海市,59.311,62.098,8.549,49.285,1.071,46.756,2.846,-2.637,297.624,78.058,100861.791,31.173,121.42
云南,临沧市,12.967,22.752,6.083,4.163,0.362,37.856,-0.349,-0.999,293.091,85.164,83769.783,23.935,99.686
云南,丽江市,20.719,28.8,7.102,3.596,0.417,58.935,-3.923,0.491,286.02,84.889,74851.138,26.96,100.515
云南,保山市,12.129,25.552,6.538,5.261,0.364,29.866,-0.837,-0.401,292.01,85.378,81800.304,24.953,98.962
云南,大理白族自治州,17.21,28.246,8.24,4.717,0.378,54.417,-3.712,-0.944,289.269,84.398,78178.386,25.726,100.053
云南,德宏傣族景颇族自治州,12.617,18.117,4.537,3.153,0.222,36.802,1.627,-1.446,293.27,89.662,85914.937,24.535,98.052
云南,怒江傈僳族自治州,19.49,25.955,4.359,2.593,0.323,38.391,-0.685,1.268,286.311,93.358,72927.802,26.916,98.885
云南,文山壮族苗族自治州,26.3,38.454,14.688,4.642,0.39,60.471,-3.587,-5.268,291.745,87.703,86435.399,23.696,104.735
云南,昆明市,20.196,30.559,7.324,7.631,0.359,72.688,-6.438,-2.68,289.033,78.379,79316.539,25.384,102.863
云南,昭通市,23.345,35.882,6.946,4.042,0.282,75.992,-0.713,-4.57,288.463,71.03,84348.219,27.667,103.985
云南,普洱市,15.382,23.159,6.38,4.086,0.319,39.326,-0.943,-1.147,294.283,83.488,85760.922,23.159,100.718
云南,曲靖市,19.467,33.225,8.476,5.947,0.353,76.187,-3.547,-5.329,287.706,80.673,80152.474,25.737,103.929
云南,楚雄彝族自治州,20.722,30.065,8.336,6.847,0.392,66.445,-3.693,-2.319,290.249,81.698,81019.786,25.328,101.567
云南,玉溪市,22.241,33.369,11.675,7.567,0.386,65.622,-4.91,-0.343,292.72,81.533,83387.056,24.136,102.217
云南,红河哈尼族彝族自治州,19.995,31.795,12.398,5.063,0.353,64.553,-4.966,-1.285,293.187,82.452,85012.479,23.451,103.034
云南,西双版纳傣族自治州,10.856,16.602,3.033,4.609,0.338,29.511,-0.183,-0.746,295.73,82.753,88646.0,21.939,100.912
云南,迪庆藏族自治州,18.652,25.527,4.879,2.252,0.332,48.556,0.094,3.002,282.83,93.609,67531.266,27.957,99.459
内蒙古,乌兰察布市,3.019,3.72,0.978,1.507,0.206,58.458,3.509,-5.901,283.547,56.622,86219.332,41.691,112.44
内蒙古,乌海市,13.948,27.914,14.028,24.466,0.505,44.71,0.822,-3.372,286.941,38.87,88221.301,39.396,106.856
内蒙古,兴安盟,2.43,3.052,1.001,1.216,0.197,56.6,7.053,-5.926,284.602,54.453,94035.002,46.244,121.341
内蒙古,包头市,3.749,4.902,1.359,2.271,0.199,58.95,2.784,-5.501,284.003,48.102,86326.238,41.549,110.276
内蒙古,呼伦贝尔市,2.289,2.53,0.87,1.035,0.207,60.305,5.199,-6.589,280.83,58.915,92780.782,49.636,121.171
内蒙古,呼和浩特市,5.453,10.552,3.85,9.765,0.338,52.08,2.49,-4.932,284.475,50.837,86607.435,40.578,111.513
内蒙古,巴彦淖尔市,2.938,3.488,0.812,1.62,0.193,61.81,0.824,-4.773,285.574,40.621,87851.592,41.446,107.582
内蒙古,赤峰市,1.508,2.241,1.281,1.895,0.195,56.546,5.788,-6.945,284.996,55.872,91588.647,43.226,118.892
内蒙古,通辽市,2.339,3.197,1.84,2.174,0.204,54.54,6.099,-5.86,288.366,47.896,97160.477,43.814,121.591
内蒙古,鄂尔多斯市,5.272,7.959,3.283,5.645,0.232,57.503,1.758,-4.541,286.112,43.617,87479.294,39.407,108.63
内蒙古,锡林郭勒盟,1.385,1.642,0.582,0.724,0.186,56.943,5.208,-5.779,283.006,61.424,89036.602,44.179,115.482
内蒙古,阿拉善盟,4.79,5.391,1.072,1.327,0.173,69.433,-4.051,0.19,288.236,30.758,88073.02,40.473,102.467
北京,北京市,3.747,8.653,2.027,9.226,0.249,54.264,2.605,-6.519,292.846,37.603,97482.239,40.158,116.395
台湾,台湾省,35.046,38.69,9.067,18.341,0.201,78.015,0.227,0.229,296.299,86.339,92446.96,23.757,120.975
吉林,吉林市,7.866,13.105,4.438,7.31,0.309,53.102,4.242,-0.7,285.947,65.812,96114.59,43.573,126.859
吉林,四平市,4.564,7.961,2.019,5.589,0.303,49.547,4.673,-2.778,288.231,51.694,98442.0,43.472,124.386
吉林,延边朝鲜族自治州,8.428,11.074,4.506,4.55,0.245,62.077,5.928,-1.816,285.374,69.376,93105.212,43.141,129.147
吉林,松原市,3.625,6.401,2.145,3.865,0.244,48.798,5.462,-2.801,287.931,52.766,98712.658,44.785,124.496
吉林,白城市,3.129,3.876,1.523,2.316,0.206,52.301,5.836,-4.54,288.643,47.17,98897.144,45.35,123.031
吉林,白山市,8.9,12.838,6.128,6.743,0.343,59.147,3.866,-1.448,284.158,73.016,91431.337,42.063,127.256
吉林,辽源市,7.182,12.904,3.323,7.754,0.367,48.503,4.241,-1.968,286.838,58.94,96602.53,42.836,125.32
吉林,通化市,9.017,15.164,6.461,8.273,0.432,52.447,3.092,-2.114,286.007,69.031,94855.058,41.939,125.927
吉林,长春市,5.738,11.187,2.33,6.583,0.303,46.964,4.877,-1.782,287.098,58.078,98239.287,44.268,125.611
四川,乐山市,21.819,33.041,6.024,9.393,0.351,60.591,2.027,-1.874,292.09,66.091,89772.14,29.218,103.569
四川,内江市,12.825,23.909,5.674,14.053,0.432,60.03,-0.848,-2.247,295.341,66.27,96701.495,29.62,104.95
四川,凉山彝族自治州,21.772,30.39,6.023,2.448,0.267,80.808,-3.469,-1.851,283.949,81.313,74476.828,27.883,102.065
四川,南充市,16.248,28.631,6.857,11.913,0.377,68.444,-0.631,-1.549,295.554,58.193,96714.516,31.19,106.199
四川,宜宾市,19.707,33.546,8.13,12.285,0.417,64.181,1.317,-2.369,295.088,60.464,95086.649,28.573,104.621
四川,巴中市,20.318,29.721,5.982,7.853,0.297,63.807,-2.496,-2.276,294.384,37.079,92529.131,32.033,107.031
四川,广元市,21.294,32.587,5.806,9.558,0.285,52.108,-0.588,-2.555,293.517,38.626,91709.76,32.261,105.788
四川,广安市,10.953,21.949,6.2,12.903,0.428,70.408,-2.288,-0.783,293.548,74.063,96729.07,30.43,106.628
四川,德阳市,23.075,40.239,5.892,15.211,0.417,53.594,-2.054,-2.201,294.529,50.026,93255.028,31.13,104.436
四川,成都市,22.119,40.359,6.226,19.704,0.469,48.484,-1.392,-1.803,295.171,52.754,93389.164,30.64,103.929
四川,攀枝花市,19.342,30.64,8.546,7.626,0.461,71.9,-2.796,-1.707,290.305,64.884,81648.453,26.791,101.734
四川,泸州市,16.488,28.762,7.037,12.87,0.364,65.661,1.977,-3.438,292.242,80.441,93463.989,28.424,105.675
四川,甘孜藏族自治州,20.47,22.213,2.855,1.37,0.162,77.671,-0.058,1.93,279.688,88.962,61599.351,30.936,100.009
四川,眉山市,18.048,34.377,5.886,15.093,0.458,50.676,0.101,-1.282,295.072,59.013,93833.993,29.912,103.766
四川,绵阳市,28.195,36.677,4.159,6.957,0.262,60.508,-0.987,-2.069,291.008,50.155,88176.764,31.86,104.704
四川,自贡市,16.491,28.953,6.795,16.879,0.475,56.993,0.201,-2.479,296.117,60.413,96671.068,29.307,104.659
四川,资阳市,10.857,21.461,5.347,9.921,0.37,66.134,-2.172,-1.336,295.069,69.108,96946.532,30.102,105.149
四川,达州市,18.015,27.592,8.032,12.593,0.338,76.19,-2.023,-1.727,294.227,49.623,94067.313,31.335,107.636
四川,遂宁市,13.402,25.708,6.148,11.272,0.365,68.239,-1.973,-0.928,295.551,64.357,97172.178,30.642,105.457
四川,阿坝藏族羌族自治州,27.212,31.725,3.028,1.965,0.191,61.138,-1.504,1.703,278.377,89.516,65948.91,32.406,102.61
四川,雅安市,25.684,34.469,5.26,5.191,0.243,66.611,-0.331,-0.745,285.478,78.968,80422.484,29.932,102.689
天津,天津市,7.539,21.8,3.612,21.576,0.362,50.804,2.145,-4.588,294.525,36.853,101039.534,39.315,117.308
宁夏,中卫市,10.878,19.145,6.952,12.894,0.242,60.871,-2.015,-1.851,285.564,35.481,84106.216,37.018,105.509
宁夏,吴忠市,8.566,17.064,6.238,8.893,0.235,61.66,-0.392,-3.049,285.776,39.492,85649.812,37.454,106.577
宁夏,固原市,12.55,22.89,6.109,16.993,0.264,56.099,-1.466,-3.083,284.276,38.586,81489.843,35.905,106.183
宁夏,石嘴山市,12.783,26.531,10.812,19.713,0.436,51.377,-0.049,-3.969,286.508,39.339,87312.895,39.013,106.499
宁夏,银川市,11.011,25.403,8.504,15.095,0.346,55.958,-0.728,-2.86,286.768,39.489,87609.241,38.287,106.342
安徽,亳州市,15.532,46.362,10.103,15.047,0.399,77.307,0.931,-5.791,295.506,44.379,100946.109,33.44,116.162
安徽,六安市,22.89,45.822,8.129,16.607,0.386,64.611,1.757,-3.433,294.693,52.833,98484.772,31.617,116.209
安徽,合肥市,26.185,58.024,9.319,24.546,0.562,62.373,1.956,-4.087,295.848,60.824,100721.589,31.766,117.359
安徽,安庆市,24.464,43.492,8.413,11.551,0.487,66.837,-0.767,-5.699,295.804,57.264,98826.938,30.557,116.473
安徽,宣城市,32.592,55.888,8.993,18.428,0.813,72.84,1.461,-3.534,295.492,79.749,98685.576,30.676,118.846
安徽,宿州市,17.695,49.723,11.529,20.138,0.443,82.23,1.68,-5.656,295.24,44.426,100834.852,33.844,117.23
安徽,池州市,28.728,54.426,10.52,18.051,0.687,60.108,-0.771,-5.127,295.509,71.916,98957.852,30.296,117.379
安徽,淮北市,16.301,48.394,12.562,19.708,0.408,80.522,1.512,-6.019,295.337,43.812,100912.539,33.722,116.747
安徽,淮南市,21.219,52.496,10.065,20.437,0.407,73.24,1.313,-4.996,295.958,53.124,100929.482,32.463,116.746
安徽,滁州市,26.364,55.964,9.635,20.234,0.495,80.674,1.978,-3.92,295.383,60.647,100593.289,32.55,118.076
安徽,芜湖市,31.7,61.502,10.622,26.204,0.788,58.47,1.793,-3.789,296.231,70.906,100833.482,31.167,118.162
安徽,蚌埠市,21.187,51.812,10.971,20.245,0.419,80.997,1.873,-4.774,295.219,52.102,100895.929,33.121,117.263
安徽,铜陵市,28.689,55.457,10.17,23.059,0.649,54.943,0.994,-5.096,296.246,65.824,100717.389,30.883,117.531
安徽,阜阳市,15.371,48.636,9.923,15.892,0.387,71.927,0.489,-5.558,295.855,43.569,100931.417,32.937,115.723
安徽,马鞍山市,31.552,62.14,10.935,26.495,0.794,63.579,2.01,-4.276,296.103,67.697,100826.929,31.622,118.386
安徽,黄山市,28.765,49.647,10.158,12.102,0.689,75.765,-0.7,-4.637,295.366,77.652,96746.871,29.869,118.09
山东,东营市,8.776,24.505,9.168,16.668,0.395,67.974,1.279,-5.762,295.07,45.353,101070.74,37.57,118.572
山东,临沂市,13.674,46.756,8.954,20.268,0.422,77.134,1.511,-5.75,294.306,44.109,99353.982,35.289,118.27
山东,威海市,8.664,23.262,7.455,10.826,0.316,73.679,3.586,-6.077,294.215,56.279,100219.67,37.148,122.028
山东,德州市,8.218,29.066,6.55,20.028,0.344,60.669,1.207,-5.004,294.941,37.75,101076.216,37.233,116.679
山东,日照市,13.331,41.301,8.243,18.172,0.41,76.783,1.557,-5.877,294.057,48.02,99409.942,35.566,119.108
山东,枣庄市,12.04,50.421,10.696,21.485,0.381,76.088,1.275,-5.878,295.052,39.504,100119.508,34.925,117.383
山东,泰安市,9.488,39.793,6.954,22.324,0.367,61.848,1.232,-6.049,294.071,42.864,99341.629,35.993,117.04
山东,济南市,9.521,38.194,8.152,24.228,0.41,57.848,1.544,-5.178,293.599,43.564,99314.34,36.639,117.254
山东,济宁市,11.261,45.601,10.421,24.04,0.409,66.441,1.34,-5.891,295.005,41.011,100609.315,35.375,116.697
山东,淄博市,13.056,46.012,12.912,27.23,0.585,59.531,2.392,-5.126,293.25,47.468,98658.935,36.623,118.062
山东,滨州市,9.056,26.258,8.243,19.012,0.421,64.224,1.398,-5.274,294.99,42.49,101066.398,37.516,117.852
山东,潍坊市,12.565,39.125,10.608,22.955,0.483,65.866,2.424,-5.331,294.141,50.207,99976.534,36.53,119.092
山东,烟台市,7.148,22.271,5.81,11.095,0.31,71.976,2.185,-6.081,293.946,56.003,99827.872,37.25,120.789
山东,聊城市,6.87,32.995,6.798,23.106,0.373,62.284,1.064,-5.0,295.247,36.85,100924.647,36.458,115.863
山东,菏泽市,9.232,44.194,9.549,22.759,0.498,67.056,0.6,-5.928,295.343,38.715,100824.438,35.134,115.69
山东,青岛市,10.569,33.583,6.995,18.952,0.406,64.517,2.779,-5.454,294.306,53.869,100431.099,36.46,120.172
山西,临汾市,7.504,20.739,7.323,11.244,0.424,65.299,1.614,-5.858,289.105,41.599,90248.969,36.227,111.398
山西,吕梁市,8.376,17.929,7.382,13.133,0.31,51.501,1.371,-5.602,286.755,45.755,87946.08,37.663,111.27
山西,大同市,5.069,11.338,4.301,6.369,0.362,54.875,3.384,-6.368,285.437,50.953,87371.918,39.911,113.713
山西,太原市,7.806,21.988,5.366,15.043,0.286,51.642,2.079,-5.978,286.6,46.58,87763.517,37.967,112.321
山西,忻州市,6.795,15.368,6.394,13.145,0.296,53.62,2.733,-6.052,284.955,50.414,86316.965,38.877,112.391
山西,晋中市,8.632,23.433,4.903,14.17,0.32,57.336,1.802,-5.058,287.212,46.415,88626.438,37.328,112.997
山西,晋城市,7.966,22.657,7.94,12.046,0.446,73.428,1.311,-5.91,289.786,38.87,90505.277,35.625,112.752
山西,朔州市,6.812,18.199,6.185,12.12,0.411,51.609,3.482,-5.163,284.989,51.672,86800.062,39.619,112.655
山西,运城市,7.567,24.517,9.615,15.432,0.456,65.904,1.505,-5.873,292.732,34.325,94336.719,35.205,111.071
山西,长治市,7.871,21.504,6.162,12.866,0.394,65.848,1.181,-5.853,288.12,42.715,88890.653,36.48,112.915
山西,阳泉市,8.868,17.857,6.356,13.906,0.252,55.957,4.334,-6.054,288.753,41.871,90424.914,38.031,113.512
广东,东莞市,32.898,49.12,6.647,37.539,0.694,72.142,-0.529,0.27,301.139,83.32,100385.268,22.931,113.81
广东,中山市,23.082,36.927,5.243,23.753,0.582,71.482,-1.221,0.894,301.176,82.19,100381.41,22.5,113.383
广东,云浮市,22.762,40.018,7.516,12.454,0.633,65.655,-1.501,-1.432,300.151,83.165,98429.67,22.776,111.818
广东,佛山市,28.511,45.971,8.877,33.139,0.738,87.385,-1.199,-1.191,301.475,80.371,100421.451,23.035,112.979
广东,广州市,28.001,43.403,7.222,30.454,0.634,75.18,-1.055,-1.425,300.76,82.884,99562.58,23.339,113.525
广东,惠州市,26.202,38.523,5.306,12.805,0.464,71.135,-0.345,-0.452,299.954,85.463,98626.417,23.244,114.485
广东,揭阳市,25.704,37.244,7.253,9.889,0.619,64.064,0.72,0.11,300.19,83.72,99195.317,23.323,116.123
广东,梅州市,24.125,39.997,8.05,9.592,0.619,62.851,0.862,-0.727,299.414,83.585,97226.424,24.169,116.07
广东,汕头市,22.991,36.278,9.564,11.783,0.583,65.994,0.708,0.824,300.566,85.224,100281.811,23.339,116.614
广东,汕尾市,22.801,31.917,4.184,6.037,0.424,68.618,0.325,0.486,300.037,85.306,98942.372,23.024,115.527
广东,江门市,20.603,33.138,4.925,15.708,0.485,74.413,-1.792,0.117,300.863,84.163,99827.899,22.289,112.676
广东,河源市,23.777,41.877,9.011,9.137,0.588,66.033,0.838,-1.863,299.024,86.158,97438.459,24.021,114.969
广东,深圳市,28.012,42.029,6.433,32.52,0.632,55.908,-0.263,1.518,300.67,84.873,99922.401,22.667,114.143
广东,清远市,22.557,41.495,11.608,15.452,0.716,58.873,-0.997,-4.12,298.238,84.115,97012.35,24.295,112.871
广东,湛江市,12.447,23.683,6.237,9.322,0.499,62.396,0.769,-0.117,301.577,81.351,100221.129,21.091,110.163
广东,潮州市,23.974,38.621,8.356,11.472,0.702,67.704,0.364,-0.074,299.534,85.302,98649.718,23.755,116.754
广东,珠海市,14.535,20.338,3.13,7.34,0.3,76.523,-1.533,1.507,300.848,84.788,100461.33,22.095,113.317
广东,肇庆市,23.523,40.831,9.932,15.667,0.666,61.06,-1.886,-2.756,300.036,81.324,98553.172,23.505,112.199
广东,茂名市,17.645,35.101,9.563,8.677,0.581,67.899,-1.379,-1.297,300.61,82.326,98487.883,22.013,110.952
广东,阳江市,21.121,35.787,6.25,8.377,0.502,70.014,-1.634,-0.684,300.528,84.318,98999.2,22.042,111.786
广东,韶关市,22.97,39.885,8.89,10.924,0.733,67.895,-0.162,-3.308,297.656,85.912,96259.37,24.785,113.819
广西,北海市,17.806,32.686,8.673,10.699,0.771,50.369,0.308,-2.549,301.76,80.319,100273.197,21.674,109.37
广西,南宁市,18.601,33.294,7.027,9.32,0.571,50.444,-0.837,-5.305,299.58,79.916,98591.788,23.051,108.469
广西,崇左市,23.541,40.655,10.094,6.083,0.492,50.763,-0.598,-5.608,298.923,81.803,97356.348,22.483,107.291
广西,来宾市,24.255,40.826,6.902,7.532,0.604,58.483,-2.402,-5.255,298.622,78.492,97473.722,23.859,109.417
广西,柳州市,24.662,39.901,9.199,6.652,0.521,66.23,-2.392,-6.213,297.713,73.346,96982.198,24.956,109.372
广西,桂林市,31.036,46.505,12.14,6.799,0.494,79.223,-4.758,-6.189,296.32,71.399,95414.767,25.353,110.513
广西,梧州市,25.074,42.255,10.313,9.803,0.686,57.505,-2.277,-4.133,299.961,77.755,98202.412,23.484,110.996
广西,河池市,21.868,38.641,11.423,4.859,0.467,54.468,-1.428,-7.193,295.802,79.798,94762.396,24.628,107.843
广西,玉林市,19.856,38.379,10.922,10.409,0.733,63.298,-0.816,-3.277,300.623,79.914,98566.457,22.452,110.164
广西,百色市,26.562,41.596,13.494,5.658,0.505,60.474,-1.224,-5.843,295.122,80.609,92759.402,23.981,106.292
广西,贵港市,21.888,38.343,8.247,8.441,0.66,62.423,-2.17,-4.231,300.513,76.284,99026.706,23.322,110.021
广西,贺州市,29.034,46.379,14.395,8.637,0.638,57.164,-3.184,-6.329,297.942,78.4,96502.947,24.364,111.394
广西,钦州市,15.856,30.933,7.656,10.31,0.721,48.449,0.25,-3.675,300.818,82.339,99611.429,22.173,109.01
广西,防城港市,17.376,31.694,7.74,7.148,0.542,46.081,0.35,-4.256,299.728,82.64,98100.455,21.88,108.002
新疆,乌鲁木齐市,84.172,105.654,3.108,11.119,0.301,66.732,-2.714,3.819,290.773,21.84,84336.708,43.746,87.818
新疆,五家渠市,170.553,208.64,2.933,9.42,0.25,59.97,-5.443,-0.187,297.577,15.093,96096.043,44.363,87.517
新疆,伊犁哈萨克自治州,72.06,81.278,1.481,4.36,0.243,56.96,1.011,1.909,288.374,43.0,80534.708,43.438,82.146
新疆,克孜勒苏柯尔克孜自治州,136.135,149.174,0.433,0.99,0.165,56.019,-0.37,0.445,281.347,53.997,70926.594,39.661,75.949
新疆,克拉玛依市,131.762,157.667,2.262,7.837,0.275,59.185,-3.472,-3.068,296.557,16.35,96962.497,45.457,85.207
新疆,北屯市,92.44,113.122,2.822,1.94,0.27,65.834,-4.124,3.882,296.506,11.186,95283.512,47.27,87.868
新疆,博尔塔拉蒙古自治州,49.981,72.299,3.086,4.206,0.222,62.175,0.207,1.22,290.102,36.402,86187.117,44.714,82.114
新疆,双河市,50.122,78.634,4.922,6.364,0.222,62.822,-1.286,-1.05,296.662,18.568,97412.212,44.87,82.474
新疆,可克达拉市,54.882,85.288,4.004,13.1,0.54,58.866,-1.256,1.442,297.808,30.442,94293.52,43.918,80.786
新疆,和田地区,182.862,198.171,0.717,0.627,0.129,61.577,-0.55,-0.402,287.768,41.608,74174.414,37.059,80.934
新疆,哈密市,22.634,25.72,0.999,3.951,0.164,74.609,-6.051,2.646,292.307,15.987,88401.701,43.042,93.517
新疆,喀什地区,153.211,163.047,0.858,1.499,0.156,56.058,-1.075,-1.226,287.427,41.369,76334.803,38.125,77.178
新疆,图木舒克市,111.317,113.237,1.602,1.51,0.135,48.588,-6.778,-2.918,296.285,24.3,89138.825,39.892,79.182
新疆,塔城地区,107.122,128.317,2.293,3.967,0.197,58.85,-1.829,1.299,292.543,22.551,89448.588,45.642,84.789
新疆,巴音郭楞蒙古自治州,76.151,77.307,0.93,0.596,0.134,72.27,-3.532,-0.576,289.908,28.552,79279.186,39.463,87.481
新疆,新星市,10.815,21.09,1.19,10.285,0.225,61.32,-8.235,3.71,296.845,11.24,92610.24,42.75,93.68
新疆,昆玉市,271.437,318.76,1.663,1.723,0.15,43.547,5.577,-3.4,296.433,25.303,86833.217,37.457,79.093
新疆,昌吉回族自治州,139.641,151.954,2.055,5.736,0.209,68.893,-4.265,2.13,293.737,19.235,89741.953,44.342,88.608
新疆,石河子市,30.325,67.87,8.435,26.505,0.475,69.335,1.13,-0.62,295.895,22.675,94305.87,44.245,86.035
新疆,胡杨河市,141.158,171.124,2.182,6.992,0.268,54.184,-3.34,-2.992,296.648,17.116,97382.874,44.852,84.772
新疆,铁门关市,22.957,54.82,6.337,8.703,0.403,80.36,-1.987,-1.803,298.283,15.323,91489.313,41.773,85.66
新疆,阿克苏地区,83.082,90.456,1.731,1.799,0.168,58.036,-1.788,-1.669,292.966,27.632,85336.229,40.965,81.578
新疆,阿勒泰地区,119.062,130.069,1.441,0.957,0.173,70.407,-4.796,4.4,291.542,14.743,88540.5,46.902,88.421
新疆,阿拉尔市,66.543,80.899,2.295,2.778,0.203,56.674,-3.752,-3.862,296.598,22.107,89995.461,40.629,80.998
江苏,南京市,31.144,62.321,9.507,24.871,0.77,70.521,2.027,-3.88,296.049,68.367,100857.072,31.899,118.876
江苏,南通市,35.612,53.955,13.022,13.867,0.631,89.222,2.375,-3.776,297.441,69.993,100880.669,32.201,120.979
江苏,宿迁市,26.386,54.644,9.924,18.921,0.555,88.127,1.331,-4.703,295.468,48.147,100990.231,33.765,118.495
江苏,常州市,33.979,60.617,10.754,27.63,0.841,76.859,2.562,-3.857,296.784,72.23,100861.887,31.613,119.666
江苏,徐州市,15.821,51.476,11.554,22.095,0.47,80.602,1.501,-5.667,295.431,40.428,100815.535,34.363,117.513
江苏,扬州市,28.959,55.368,9.347,18.39,0.613,83.789,2.197,-3.882,296.032,65.533,100978.043,32.709,119.486
江苏,无锡市,36.236,64.707,11.908,29.801,0.841,75.312,2.656,-3.844,297.224,72.038,100748.275,31.546,120.066
江苏,泰州市,30.33,54.913,11.134,18.432,0.664,80.329,2.457,-4.002,296.348,68.186,100906.62,32.605,120.048
江苏,淮安市,29.927,55.992,9.786,18.505,0.569,87.802,1.69,-3.969,295.421,56.455,100961.483,33.362,118.985
江苏,盐城市,26.241,44.21,10.443,12.862,0.518,88.915,2.521,-4.299,296.14,61.562,100945.4,33.529,120.156
江苏,苏州市,39.352,64.213,11.441,31.293,0.813,78.955,2.451,-4.078,297.9,72.653,100863.66,31.374,120.661
江苏,连云港市,20.098,46.585,9.394,17.59,0.472,86.614,1.574,-5.255,295.619,45.639,100843.425,34.519,119.133
江苏,镇江市,32.35,62.086,10.301,26.761,0.762,72.729,2.424,-4.099,296.339,70.178,100855.558,32.016,119.49
江西,上饶市,33.458,53.483,11.681,8.25,0.655,86.21,-1.875,-4.665,298.186,68.919,98675.279,28.778,117.47
江西,九江市,27.145,50.888,8.796,11.122,0.616,79.594,-0.501,-6.349,296.233,64.967,98783.388,29.313,115.444
江西,南昌市,26.117,51.366,8.497,9.246,0.676,94.033,-0.568,-7.495,298.838,67.292,100505.347,28.671,116.016
江西,吉安市,24.83,43.694,10.106,7.668,0.665,81.949,-0.736,-5.596,297.002,76.43,98271.859,26.954,114.831
江西,宜春市,26.218,49.103,8.034,9.732,0.584,87.787,-0.578,-6.873,297.091,64.943,98675.238,28.29,114.974
江西,抚州市,32.876,51.282,11.296,6.287,0.616,95.753,-0.911,-5.133,298.167,75.652,98217.993,27.514,116.42
江西,新余市,27.033,49.841,9.641,10.336,0.636,86.745,-0.275,-5.072,297.548,66.681,99562.011,27.847,114.836
江西,景德镇市,30.695,50.421,11.331,7.96,0.704,82.935,-1.295,-5.616,297.787,69.692,99519.217,29.287,117.24
江西,萍乡市,25.695,49.902,8.841,10.011,0.587,83.919,-2.257,-5.356,295.973,71.664,97400.439,27.505,113.908
江西,赣州市,25.929,40.81,11.719,6.283,0.694,82.86,0.188,-3.796,297.682,85.925,96561.069,25.692,115.279
江西,鹰潭市,35.623,54.863,11.744,7.681,0.632,94.85,-1.845,-4.054,299.066,69.377,99145.195,28.222,117.094
河北,保定市,6.366,12.908,3.254,10.752,0.232,59.211,1.755,-5.322,293.553,34.917,97523.895,39.018,115.159
河北,唐山市,11.904,22.887,9.943,24.536,0.389,47.407,2.275,-4.114,293.504,38.558,100471.541,39.731,118.354
河北,廊坊市,8.532,21.976,3.232,21.301,0.338,49.59,1.911,-5.229,295.104,34.723,101119.21,39.267,116.632
河北,张家口市,2.617,3.876,1.492,3.671,0.216,57.264,4.372,-7.18,284.702,55.973,87727.86,40.877,115.042
河北,承德市,2.48,3.468,1.601,4.366,0.204,56.997,3.232,-7.161,286.449,51.891,90774.264,41.339,117.578
河北,沧州市,10.662,25.139,5.925,20.52,0.346,59.058,1.543,-4.76,295.095,35.84,101158.752,38.258,116.744
河北,石家庄市,9.91,20.61,5.805,15.379,0.269,59.064,2.776,-3.935,294.396,32.984,98112.931,38.135,114.407
河北,秦皇岛市,7.318,12.325,5.638,15.593,0.272,54.492,1.372,-4.608,291.729,41.872,98195.587,40.12,119.193
河北,衡水市,10.321,25.051,5.207,16.773,0.314,64.482,1.522,-3.95,295.274,34.182,101092.968,37.755,115.813
河北,邢台市,9.492,25.18,5.673,17.25,0.317,63.444,1.619,-4.787,295.283,33.085,99696.161,37.195,114.815
河北,邯郸市,9.231,30.781,8.589,20.835,0.456,63.987,0.653,-4.935,295.154,34.072,99251.677,36.538,114.596
河南,三门峡市,10.372,23.671,8.614,15.191,0.361,66.95,2.13,-6.614,291.065,34.806,91977.831,34.362,111.101
河南,信阳市,17.871,42.189,9.616,15.297,0.348,69.328,0.279,-5.508,296.285,39.175,100010.005,32.091,114.907
河南,南阳市,13.827,31.886,8.125,15.924,0.365,71.978,-0.183,-5.717,296.499,26.912,98129.581,33.034,112.323
河南,周口市,11.346,51.221,9.43,20.384,0.457,73.763,-0.366,-6.254,296.026,37.258,100800.523,33.738,114.884
河南,商丘市,11.115,46.11,9.708,18.518,0.464,73.342,0.379,-6.175,295.484,39.186,100841.465,34.277,115.718
河南,安阳市,10.183,32.863,9.903,21.085,0.549,67.37,0.07,-4.887,295.124,33.782,98882.272,35.888,114.318
河南,平顶山市,16.018,44.166,12.551,27.306,0.546,70.238,0.934,-5.409,296.173,28.976,98745.717,33.8,113.025
河南,开封市,11.216,44.042,8.862,22.9,0.514,69.777,-0.713,-5.467,295.969,34.971,100582.62,34.594,114.514
河南,新乡市,10.961,33.064,8.464,21.433,0.496,70.564,-1.254,-4.638,295.931,32.556,99681.835,35.256,114.111
河南,洛阳市,10.375,25.645,9.316,15.721,0.41,70.464,2.806,-5.467,292.917,32.566,94247.588,34.274,112.019
河南,济源市,6.985,22.244,7.849,13.372,0.416,74.656,0.987,-5.72,294.605,30.163,96001.244,35.105,112.445
河南,漯河市,15.727,57.207,12.529,30.422,0.495,69.417,-0.873,-5.812,296.808,31.311,100691.713,33.652,113.945
河南,濮阳市,8.432,41.469,9.474,24.637,0.525,63.866,0.737,-5.599,295.618,36.424,100831.854,35.809,115.283
河南,焦作市,10.028,34.974,8.941,23.908,0.508,73.882,-0.788,-2.22,296.564,28.959,99511.752,35.121,113.163
河南,许昌市,14.313,52.913,11.815,31.014,0.56,68.782,-0.8,-5.262,296.534,31.22,100042.65,34.075,113.707
河南,郑州市,12.68,46.339,10.659,30.608,0.577,68.335,0.02,-3.19,295.585,31.863,98776.421,34.634,113.438
河南,驻马店市,15.979,47.698,10.41,21.095,0.394,73.228,-0.359,-6.695,296.942,31.244,100354.778,32.925,114.174
河南,鹤壁市,11.354,34.742,10.878,23.536,0.591,66.582,-0.262,-5.274,296.037,32.318,100025.848,35.716,114.319
浙江,丽水市,30.141,49.376,8.368,10.573,0.542,75.671,-0.682,-2.541,295.505,85.955,94037.737,28.194,119.51
浙江,台州市,30.857,47.555,6.22,14.631,0.602,73.901,0.34,-3.189,297.79,81.963,98143.517,28.742,121.109
浙江,嘉兴市,41.049,58.78,6.568,29.658,0.911,81.978,2.5,-3.281,297.687,78.212,100860.108,30.635,120.754
浙江,宁波市,31.682,46.006,7.148,19.589,0.702,91.665,1.91,-2.746,298.082,78.609,99629.243,29.706,121.49
浙江,杭州市,34.132,51.091,7.54,14.939,0.774,83.329,0.191,-3.69,296.244,76.655,98080.631,29.891,119.464
浙江,温州市,28.755,48.303,7.196,18.117,0.615,62.371,-0.294,-2.938,297.575,85.033,96959.437,27.897,120.411
浙江,湖州市,36.17,54.159,8.772,21.386,0.826,82.177,2.512,-3.481,296.771,77.481,99671.542,30.757,119.871
浙江,绍兴市,37.179,54.06,5.879,15.744,0.82,97.656,1.034,-2.954,296.586,81.617,98858.519,29.709,120.64
浙江,舟山市,25.63,39.95,9.405,11.605,0.525,100.432,1.375,-2.772,299.392,74.498,100575.532,30.038,122.23
浙江,衢州市,31.454,50.261,10.213,14.475,0.616,77.579,-2.641,-4.011,297.406,69.405,97300.96,28.912,118.675
浙江,金华市,33.831,52.216,6.153,16.52,0.695,83.666,-0.835,-3.516,296.406,81.238,97546.533,29.109,119.967
海南,万宁市,9.676,13.918,2.534,3.611,0.239,55.993,1.199,2.111,300.666,83.678,99247.712,18.842,110.294
海南,三亚市,11.984,17.414,3.506,7.603,0.334,34.736,1.006,0.323,299.759,85.527,98070.549,18.413,109.407
海南,东方市,12.037,15.095,2.667,3.403,0.21,55.782,-0.33,0.593,300.515,79.844,98674.497,18.971,108.838
海南,临高县,11.864,17.483,3.331,4.37,0.29,58.5,0.84,-0.176,300.7,79.871,99815.511,19.821,109.733
海南,乐东黎族自治县,12.722,16.57,2.092,4.026,0.229,44.947,-0.378,-0.549,299.381,83.624,97197.198,18.659,109.072
海南,五指山市,14.018,18.426,2.266,4.426,0.234,43.904,-0.634,-0.852,297.674,85.88,94069.174,18.81,109.518
海南,儋州市,13.023,17.544,3.085,3.798,0.255,58.901,0.853,-0.271,300.515,80.476,99486.376,19.568,109.399
海南,定安县,10.375,16.983,3.4,5.98,0.33,48.718,-0.267,0.772,300.872,79.655,99517.633,19.47,110.28
海南,屯昌县,10.806,16.244,2.816,4.8,0.294,48.062,-0.258,0.452,300.622,78.114,98753.456,19.342,110.076
海南,文昌市,11.153,17.658,3.483,4.0,0.293,57.668,-0.402,0.698,301.146,81.879,100270.77,19.707,110.773
海南,昌江黎族自治县,13.63,17.167,3.151,3.824,0.22,57.069,-0.138,0.141,299.701,81.804,97683.571,19.233,109.016
海南,海口市,11.224,19.321,4.905,7.368,0.362,49.365,0.295,0.361,301.199,79.289,100077.505,19.842,110.393
海南,澄迈县,11.061,17.294,3.784,5.933,0.317,50.749,0.361,0.106,300.906,77.779,99642.14,19.676,109.989
海南,琼中黎族苗族自治县,12.238,16.735,2.368,4.027,0.253,47.649,0.509,0.123,299.477,80.321,96626.595,19.087,109.847
海南,琼海市,9.67,14.933,2.895,4.513,0.277,54.14,-0.228,0.953,301.035,81.492,100054.395,19.22,110.43
海南,白沙黎族自治县,13.216,17.009,2.368,3.329,0.229,52.59,0.332,0.314,299.178,80.955,96357.36,19.2,109.388
海南,陵水黎族自治县,11.651,16.289,2.513,5.173,0.261,43.637,1.154,1.023,300.171,84.614,98601.329,18.581,109.913
湖北,仙桃市,14.781,42.383,7.982,16.534,0.595,62.38,0.2,-5.4,297.295,40.3,100994.618,30.284,113.417
湖北,十堰市,15.435,23.307,6.779,5.698,0.287,67.849,0.686,-3.639,293.783,31.318,93476.334,32.462,110.476
湖北,咸宁市,21.918,43.646,6.916,13.462,0.614,66.175,-0.385,-5.951,295.743,54.976,99101.535,29.621,114.178
湖北,天门市,16.096,42.781,9.751,19.231,0.553,61.986,0.296,-5.216,297.661,35.334,100976.816,30.633,113.053
湖北,孝感市,15.559,36.21,7.785,13.434,0.434,68.405,-0.301,-6.113,297.472,34.451,100361.878,31.116,113.869
湖北,宜昌市,15.987,29.198,6.021,10.59,0.387,63.566,-0.861,-4.09,294.112,38.596,94154.437,30.746,111.129
湖北,恩施土家族苗族自治州,21.117,32.316,7.271,5.775,0.41,60.246,-2.603,-2.171,290.312,60.476,89732.525,30.195,109.552
湖北,武汉市,17.374,40.37,6.724,17.781,0.57,62.152,-0.111,-5.736,297.482,42.737,100841.342,30.606,114.349
湖北,潜江市,16.642,48.293,10.857,25.962,0.718,54.282,0.603,-5.408,297.349,38.257,100991.809,30.33,112.77
湖北,神农架林区,18.892,22.038,4.287,1.945,0.189,73.463,0.567,-6.845,286.598,44.852,83297.322,31.592,110.49
湖北,荆州市,17.019,44.28,9.84,22.443,0.715,52.709,0.061,-5.419,296.916,42.125,100767.054,30.01,112.512
湖北,荆门市,16.497,38.018,10.078,19.206,0.465,61.388,0.058,-6.708,297.65,30.808,100018.135,31.059,112.616
湖北,襄阳市,14.604,31.809,7.739,12.988,0.369,68.263,1.309,-5.405,296.147,29.471,97413.436,31.919,111.96
湖北,鄂州市,23.213,47.113,7.189,18.467,0.703,62.337,0.196,-5.606,297.229,50.136,100858.049,30.337,114.794
湖北,随州市,15.178,36.635,9.38,14.929,0.407,69.685,-0.364,-6.455,297.132,30.093,99307.996,31.809,113.43
湖北,黄冈市,24.42,43.723,7.675,11.073,0.5,68.823,-0.818,-5.282,296.244,49.383,99126.906,30.702,115.358
湖北,黄石市,25.64,48.783,7.983,16.81,0.698,70.11,0.777,-6.183,296.832,55.501,99867.012,29.925,115.034
湖南,娄底市,18.543,35.248,9.14,8.301,0.54,83.55,-2.105,-7.845,294.728,59.943,96987.495,27.715,111.632
湖南,岳阳市,20.825,43.591,8.621,13.671,0.616,67.121,-1.504,-7.243,296.317,52.502,99795.365,29.081,113.275
湖南,常德市,16.784,34.958,10.751,14.69,0.595,58.106,-1.411,-5.903,295.457,50.463,99136.46,29.271,111.524
湖南,张家界市,16.266,30.585,8.444,9.208,0.664,58.05,-2.132,-3.147,292.355,66.607,95322.16,29.379,110.526
湖南,怀化市,21.635,36.645,10.195,6.202,0.633,76.383,-3.234,-5.657,294.28,66.536,96146.962,27.535,110.071
湖南,株洲市,24.079,47.66,8.619,10.117,0.585,81.464,-1.59,-5.968,296.085,74.778,97525.129,27.109,113.513
湖南,永州市,30.313,48.887,11.212,7.845,0.585,78.37,-2.371,-6.642,295.476,76.372,96172.26,25.748,111.723
湖南,湘潭市,16.831,41.384,7.775,13.01,0.609,82.566,-0.71,-8.589,296.708,59.287,99851.3,27.744,112.619
湖南,湘西土家族苗族自治州,18.738,32.792,7.799,7.252,0.857,57.994,-2.195,-3.633,292.499,73.552,95251.989,28.708,109.718
湖南,益阳市,18.557,36.189,9.629,10.607,0.585,69.6,-1.249,-7.215,295.197,55.182,98587.67,28.525,111.919
湖南,衡阳市,22.088,44.503,8.63,10.523,0.627,86.252,-0.955,-7.593,296.848,67.893,99297.445,26.781,112.565
湖南,邵阳市,27.306,44.36,11.579,7.904,0.517,84.911,-3.627,-5.779,294.203,67.185,94782.897,26.893,110.881
湖南,郴州市,24.705,44.954,7.071,9.22,0.838,72.62,-0.408,-5.543,295.062,87.074,95293.816,25.769,113.109
湖南,长沙市,20.054,45.154,7.954,13.57,0.582,77.709,-1.055,-7.966,296.407,59.318,99267.234,28.235,113.159
甘肃,临夏回族自治州,29.242,48.725,6.476,14.549,0.401,58.591,-1.874,-0.307,284.322,47.649,77960.07,35.617,103.291
甘肃,兰州市,20.486,34.145,10.142,13.522,0.307,61.867,-2.881,-0.676,284.612,38.458,79611.646,36.359,103.633
甘肃,嘉峪关市,7.892,45.338,6.615,30.707,0.558,63.223,-9.495,2.783,286.057,29.888,82020.385,39.798,98.145
甘肃,天水市,17.498,27.454,4.151,10.521,0.224,66.311,-2.031,-0.85,286.76,35.575,83139.056,34.645,105.739
甘肃,定西市,25.385,33.472,3.452,6.847,0.217,65.809,-2.049,0.691,283.767,44.11,77758.578,35.124,104.432
甘肃,平凉市,12.328,21.575,4.497,12.948,0.232,61.448,-1.098,-3.075,287.115,34.451,84988.959,35.304,106.644
甘肃,庆阳市,8.293,14.056,4.409,5.619,0.214,64.772,-0.073,-4.541,286.763,37.583,86270.279,36.149,107.596
甘肃,张掖市,15.326,20.04,2.489,4.607,0.188,75.03,-3.003,0.338,282.874,39.276,75121.328,38.94,99.855
甘肃,武威市,11.515,13.905,2.758,2.378,0.179,71.582,-3.442,0.362,284.832,39.592,81937.802,38.163,103.073
甘肃,甘南藏族自治州,31.935,35.22,2.395,2.101,0.178,66.697,-1.147,0.913,278.85,82.166,68182.242,34.331,102.768
甘肃,白银市,13.919,20.309,8.964,9.525,0.227,65.521,-2.604,-1.162,285.352,36.022,82005.042,36.59,104.646
甘肃,酒泉市,27.653,29.12,1.146,1.788,0.157,84.262,-7.138,0.931,287.135,21.124,79414.887,40.236,96.062
甘肃,金昌市,11.674,19.3,6.055,5.572,0.191,68.044,-4.746,2.148,284.156,38.039,81132.227,38.44,102.048
甘肃,陇南市,23.681,31.26,3.688,7.654,0.202,64.998,-1.31,-1.141,287.061,39.549,82660.204,33.599,105.224
福建,三明市,24.87,37.219,11.431,6.823,0.645,71.744,-0.17,-1.603,297.625,85.74,94545.257,26.29,117.395
福建,南平市,25.927,42.365,12.331,5.388,0.543,84.718,-1.013,-2.25,297.677,81.975,95319.314,27.324,118.143
福建,厦门市,24.417,39.245,7.753,19.143,0.523,59.54,-0.765,0.04,299.983,86.282,99518.27,24.642,118.11
福建,宁德市,25.25,44.504,8.713,6.142,0.525,68.758,-1.356,-1.819,296.863,89.396,94647.279,26.968,119.474
福建,泉州市,26.763,40.755,8.111,10.619,0.531,67.482,-0.769,-0.285,298.061,88.845,95885.81,25.201,118.249
福建,漳州市,23.729,35.878,6.559,9.322,0.48,66.57,0.329,0.031,298.991,86.782,97416.875,24.372,117.444
福建,福州市,27.447,45.775,7.188,9.456,0.501,71.758,-1.546,-1.473,298.15,90.063,96647.136,26.083,119.206
福建,莆田市,29.395,45.859,9.263,9.341,0.486,75.72,-1.275,-1.319,298.653,87.364,97373.095,25.445,118.864
福建,龙岩市,23.949,37.91,9.037,8.299,0.56,63.936,0.202,-1.061,297.844,87.229,94513.039,25.256,116.739
西藏,山南市,18.188,19.428,1.454,1.627,0.157,90.586,0.396,2.019,283.766,79.427,66491.414,28.295,92.274
西藏,拉萨市,11.598,14.312,1.284,3.171,0.144,106.701,1.872,2.963,280.64,62.454,57138.022,30.043,91.093
西藏,日喀则市,12.391,13.186,0.908,0.62,0.126,114.938,1.684,2.639,278.318,65.111,55879.492,29.483,86.493
西藏,昌都市,15.877,16.487,1.093,0.794,0.143,107.889,2.869,1.94,280.505,75.681,59566.68,30.753,97.044
西藏,林芝市,18.228,19.158,1.408,1.514,0.148,88.161,0.538,1.546,282.913,88.708,66752.702,29.184,95.25
西藏,玉树藏族自治州,11.064,11.406,0.458,0.425,0.114,88.735,-1.733,0.196,277.721,78.675,57912.525,34.196,94.317
西藏,那曲市,11.247,11.905,0.676,0.26,0.118,112.547,1.899,1.622,280.259,63.155,56009.662,32.709,89.262
西藏,阿里地区,13.108,13.684,1.044,0.312,0.125,114.375,3.206,-0.4,278.759,60.022,55405.523,33.013,82.553
贵州,六盘水市,17.483,34.289,9.295,7.418,0.358,82.2,-1.118,-7.888,289.285,74.976,83286.822,26.106,104.896
贵州,安顺市,20.977,33.684,7.714,5.641,0.309,84.373,-1.345,-8.389,291.477,75.847,88239.375,25.986,105.978
贵州,毕节市,19.158,35.512,7.575,4.257,0.317,85.462,1.038,-7.028,287.559,82.643,83720.095,27.063,105.211
贵州,贵阳市,19.084,32.987,5.771,9.785,0.357,79.362,1.326,-6.28,289.663,89.07,88351.286,26.845,106.71
贵州,遵义市,24.935,33.32,8.569,7.913,0.336,64.834,0.552,-2.767,290.154,91.185,90523.564,28.167,107.102
贵州,铜仁市,24.022,38.009,12.367,5.304,0.489,66.553,-2.457,-3.387,291.535,82.351,92799.474,27.937,108.534
贵州,黔东南苗族侗族自治州,25.355,37.217,13.815,4.617,0.4,72.105,-1.627,-6.151,292.291,83.138,92585.23,26.495,108.574
贵州,黔南布依族苗族自治州,20.39,32.104,10.625,5.587,0.359,74.854,-0.574,-7.722,291.876,82.744,90358.782,26.0,107.265
贵州,黔西南布依族苗族自治州,20.912,34.252,12.251,5.63,0.379,74.593,-2.236,-6.701,292.533,73.503,88588.735,25.256,105.467
辽宁,丹东市,9.634,15.652,8.018,10.77,0.472,56.097,2.252,-5.396,289.22,59.055,97747.573,40.554,124.376
辽宁,大连市,7.489,14.152,5.821,9.302,0.352,65.081,2.521,-6.368,291.924,48.538,100066.501,39.591,122.22
辽宁,抚顺市,11.213,17.745,6.822,12.834,0.441,48.777,2.526,-2.347,286.676,62.401,96085.66,41.841,124.65
辽宁,朝阳市,3.568,7.615,3.605,6.945,0.238,55.559,2.988,-7.19,289.392,44.212,95932.355,41.545,120.053
辽宁,本溪市,11.706,19.388,8.067,13.69,0.542,49.863,2.601,-3.694,286.682,64.776,95457.888,41.232,124.544
辽宁,沈阳市,6.797,12.7,4.572,11.5,0.311,45.351,3.309,-4.274,290.785,43.802,100173.545,42.081,123.159
辽宁,盘锦市,6.157,12.388,5.338,12.477,0.324,53.573,2.815,-5.409,292.457,38.678,100875.786,41.13,122.01
辽宁,营口市,9.111,16.53,6.574,12.175,0.477,59.054,2.607,-4.743,290.034,48.775,98711.243,40.395,122.478
辽宁,葫芦岛市,4.495,8.829,4.09,8.824,0.249,56.995,2.071,-6.344,291.773,39.509,98565.343,40.66,120.215
辽宁,辽阳市,12.405,25.474,9.417,20.062,0.769,40.409,2.116,-3.226,289.313,50.864,98871.132,41.153,123.261
辽宁,铁岭市,7.872,12.445,4.058,10.351,0.353,47.168,3.464,-2.824,288.662,51.782,98596.281,42.653,124.158
辽宁,锦州市,3.906,7.64,3.093,8.281,0.246,54.36,3.447,-6.195,292.143,38.327,100103.938,41.502,121.659
辽宁,阜新市,2.574,3.722,1.632,3.883,0.209,54.86,4.66,-6.098,290.613,42.02,98650.759,42.289,121.968
辽宁,鞍山市,9.833,18.323,7.648,14.529,0.671,49.854,2.739,-4.911,290.067,48.65,98934.212,40.731,123.007
重庆,重庆城区,20.377,29.653,10.097,15.405,0.383,60.559,-1.571,-1.597,292.234,79.259,95055.092,29.824,107.125
重庆,重庆郊县,23.314,31.606,9.338,6.376,0.341,65.32,-2.688,-2.431,291.245,62.332,91273.399,30.334,108.755
陕西,咸阳市,12.317,28.03,4.335,14.57,0.322,64.414,0.548,-3.338,291.389,29.877,91797.31,34.779,108.367
陕西,商洛市,12.655,20.993,5.02,9.442,0.25,70.036,0.538,-7.071,290.362,31.709,89614.054,33.64,109.889
陕西,安康市,15.628,23.242,5.391,5.018,0.24,67.181,-1.261,-3.557,291.641,33.215,90151.482,32.735,108.932
陕西,宝鸡市,14.54,28.322,3.922,12.307,0.259,63.1,-1.464,-2.964,288.181,34.661,86790.721,34.386,107.193
陕西,延安市,7.898,13.574,5.595,10.456,0.31,56.276,0.895,-5.649,287.367,42.808,87946.346,36.432,109.316
陕西,榆林市,7.073,12.265,6.789,12.508,0.294,51.295,1.586,-5.255,287.427,42.349,88296.71,38.041,109.581
陕西,汉中市,18.518,28.096,4.947,6.455,0.246,63.942,-1.771,-2.129,291.868,31.919,89250.22,33.088,107.098
陕西,渭南市,9.812,21.317,5.525,14.192,0.297,62.517,0.891,-4.566,292.966,31.068,94029.133,34.919,109.855
陕西,西安市,14.733,37.212,4.866,19.378,0.385,61.505,1.538,-2.103,290.18,33.456,90871.048,34.12,108.77
陕西,铜川市,10.423,16.931,5.486,10.164,0.254,64.204,0.503,-5.889,289.629,34.12,89515.44,35.198,109.058
青海,保亭黎族苗族自治县,13.474,18.926,3.484,8.184,0.306,37.426,0.728,-0.378,299.08,85.022,96508.184,18.566,109.618
青海,吐鲁番市,34.865,38.666,1.682,3.39,0.18,73.518,-3.01,-0.62,294.543,13.268,90237.418,42.386,89.851
青海,果洛藏族自治州,16.036,16.576,1.369,0.746,0.127,79.921,-1.602,-0.446,277.775,78.383,60583.519,34.127,99.404
青海,海东市,31.557,39.858,9.271,8.44,0.275,64.91,-3.024,1.067,280.973,54.434,73296.975,36.347,102.34
青海,海北藏族自治州,22.328,24.407,2.831,2.119,0.153,76.73,0.097,0.176,277.557,66.864,65914.589,37.775,100.288
青海,海南藏族自治州,26.24,27.828,2.49,1.683,0.149,70.727,-1.509,0.297,280.674,65.63,67014.383,35.89,100.272
青海,海西蒙古族藏族自治州,20.763,21.069,0.576,0.453,0.12,87.701,0.267,-0.665,283.182,37.537,64996.819,36.677,94.519
青海,西宁市,28.462,43.226,7.985,9.866,0.389,67.623,-1.616,1.242,279.444,63.43,70108.126,36.842,101.423
青海,黄南藏族自治州,27.462,29.117,2.69,1.544,0.158,66.512,-0.958,0.838,279.141,80.391,66372.184,35.022,101.631
香港,香港特别行政区,23.66,30.635,4.16,23.06,0.32,54.845,-0.46,1.985,300.645,85.05,100103.825,22.45,114.22
黑龙江,七台河市,7.811,12.033,2.565,4.972,0.269,45.678,6.004,-0.43,284.903,76.355,96927.045,45.87,130.943
黑龙江,伊春市,5.039,6.653,0.923,1.84,0.234,51.816,4.4,-1.689,282.974,65.869,95500.86,47.772,129.184
黑龙江,佳木斯市,5.765,8.36,1.727,3.561,0.252,48.884,3.357,-1.051,284.876,74.784,98753.218,47.207,132.11
黑龙江,双鸭山市,8.297,11.836,3.042,5.155,0.256,45.409,4.074,-0.479,285.031,82.974,98328.283,46.722,132.643
黑龙江,哈尔滨市,6.691,11.416,3.069,6.092,0.306,50.817,5.057,-0.448,285.431,64.465,97420.622,45.634,127.964
黑龙江,大兴安岭地区,1.085,1.039,0.304,0.688,0.219,68.907,4.934,-6.544,279.359,66.018,93994.016,52.286,124.212
黑龙江,大庆市,4.536,7.739,2.611,3.863,0.236,51.049,5.468,-3.527,287.056,52.209,98851.307,46.327,124.687
黑龙江,牡丹江市,9.167,11.706,3.134,3.868,0.247,58.369,5.835,-1.638,284.94,70.569,94324.344,44.592,129.883
黑龙江,绥化市,5.546,8.164,1.91,3.875,0.266,50.523,4.736,-2.258,285.275,58.012,97909.097,46.89,126.634
黑龙江,鸡西市,9.342,12.447,3.549,5.634,0.267,50.98,5.193,-1.239,286.47,78.889,98108.447,45.626,132.289
黑龙江,鹤岗市,5.469,8.349,1.649,3.23,0.26,50.756,3.543,-2.319,284.601,66.932,97812.496,47.661,130.778
黑龙江,黑河市,3.727,5.634,0.646,1.7,0.244,55.34,4.446,-3.146,282.393,62.191,95937.659,49.268,127.004
黑龙江,齐齐哈尔市,3.73,4.752,1.439,2.308,0.221,53.946,4.992,-4.318,285.476,54.707,98004.357,47.715,124.57
