province,city,PM2.5,PM10,SO2,NO2,CO,O3,U,V,TEMP,RH,PSFC,lat,lon
上海,上海市,17.265,28.046,5.229,30.326,0.525,47.763,-2.624,-1.458,299.161,91.773,101574.198,31.173,121.42
云南,临沧市,22.336,33.5,11.574,5.161,0.546,52.777,-3.841,-1.192,293.838,66.737,83670.722,23.935,99.686
云南,丽江市,20.135,28.487,10.077,4.064,0.55,45.526,-3.39,-0.974,286.598,78.838,74761.795,26.96,100.515
云南,保山市,21.341,33.723,9.953,8.052,0.563,37.218,-4.5,-0.909,293.003,65.325,81712.94,24.953,98.962
云南,大理白族自治州,20.421,31.214,11.092,6.64,0.57,42.374,-4.623,-2.686,289.311,74.025,78093.616,25.726,100.053
云南,德宏傣族景颇族自治州,28.424,37.827,11.588,5.696,0.408,53.039,-2.729,-0.16,295.576,68.511,85763.892,24.535,98.052
云南,怒江傈僳族自治州,23.68,29.325,6.846,3.382,0.457,56.131,-3.1,1.465,286.754,78.017,72869.473,26.916,98.885
云南,文山壮族苗族自治州,21.378,35.305,14.795,5.701,0.479,51.083,-1.467,0.364,291.655,92.392,86237.751,23.696,104.735
云南,昆明市,14.776,28.785,11.979,10.532,0.588,47.766,-4.492,-3.457,288.467,87.068,79124.902,25.384,102.863
云南,昭通市,16.054,31.653,12.591,8.631,0.654,60.176,-0.936,-4.413,288.499,95.129,84094.807,27.667,103.985
云南,普洱市,19.688,33.444,13.18,5.098,0.405,57.161,-2.699,-1.272,294.125,72.165,85675.071,23.159,100.718
云南,曲靖市,16.28,28.959,12.181,9.201,0.622,50.784,-4.251,-3.736,288.104,92.557,79917.948,25.737,103.929
云南,楚雄彝族自治州,18.272,30.145,14.074,6.233,0.455,53.218,-3.019,-4.42,289.965,79.191,80885.735,25.328,101.567
云南,玉溪市,15.85,28.752,13.105,8.572,0.473,53.036,-2.382,-1.757,291.671,80.034,83255.74,24.136,102.217
云南,红河哈尼族彝族自治州,20.488,31.805,16.912,6.143,0.482,55.487,-2.074,-0.227,291.834,86.002,84891.078,23.451,103.034
云南,西双版纳傣族自治州,17.091,30.539,9.467,3.987,0.291,57.742,-1.722,-0.474,295.396,77.632,88566.085,21.939,100.912
云南,迪庆藏族自治州,20.672,25.732,5.961,2.249,0.375,56.235,-1.715,1.82,282.88,82.335,67499.443,27.957,99.459
内蒙古,乌兰察布市,24.135,43.135,13.576,20.91,0.386,54.048,3.147,1.824,286.446,37.949,86303.044,41.691,112.44
内蒙古,乌海市,42.331,63.425,25.741,21.836,0.762,71.709,-0.962,3.06,285.722,69.078,88014.612,39.396,106.856
内蒙古,兴安盟,9.789,12.514,2.861,3.54,0.211,55.161,0.172,-0.958,287.512,53.011,94841.441,46.244,121.341
内蒙古,包头市,26.08,45.402,14.188,26.151,0.454,49.703,2.542,2.511,286.415,38.565,86279.646,41.549,110.276
内蒙古,呼伦贝尔市,6.443,8.054,2.44,2.263,0.185,58.8,1.154,-0.629,284.481,56.294,93604.279,49.636,121.171
内蒙古,呼和浩特市,30.686,62.131,13.605,34.446,0.65,42.787,0.929,1.305,285.392,59.383,86702.568,40.578,111.513
内蒙古,巴彦淖尔市,26.982,40.384,15.524,11.323,0.36,69.319,1.311,3.209,287.381,43.754,87629.276,41.446,107.582
内蒙古,赤峰市,15.163,20.682,5.306,6.566,0.219,60.361,3.237,-0.528,289.282,31.289,92085.942,43.226,118.892
内蒙古,通辽市,16.557,22.228,5.846,7.103,0.258,59.63,2.002,1.023,291.414,38.918,97853.926,43.814,121.591
内蒙古,鄂尔多斯市,35.349,59.114,17.859,16.657,0.629,52.919,0.04,1.623,285.131,77.574,87371.066,39.407,108.63
内蒙古,锡林郭勒盟,18.05,23.323,8.617,4.532,0.196,60.017,2.993,2.544,287.052,36.93,89256.391,44.179,115.482
内蒙古,阿拉善盟,22.391,26.537,8.35,3.247,0.239,73.601,0.735,2.148,289.108,43.081,87719.091,40.473,102.467
北京,北京市,21.289,48.158,4.603,28.218,0.487,43.742,1.083,0.868,291.636,42.476,97967.139,40.158,116.395
台湾,台湾省,7.344,9.957,4.341,15.115,0.116,38.944,-2.049,-1.081,296.813,72.964,93130.582,23.757,120.975
吉林,吉林市,11.624,23.41,5.795,13.803,0.36,58.183,2.509,3.749,288.792,55.438,97287.883,43.573,126.859
吉林,四平市,17.325,37.578,9.28,21.094,0.606,67.955,1.901,5.243,291.301,49.923,99418.111,43.472,124.386
吉林,延边朝鲜族自治州,9.176,13.746,4.412,7.695,0.242,51.578,4.627,0.68,287.107,53.853,94420.887,43.141,129.147
吉林,松原市,13.009,23.786,6.19,10.225,0.315,59.564,2.097,1.702,291.266,47.633,99701.357,44.785,124.496
吉林,白城市,10.627,14.784,4.194,5.524,0.225,55.792,0.759,-0.971,290.403,50.6,99802.473,45.35,123.031
吉林,白山市,10.126,17.546,6.606,9.515,0.395,53.09,0.989,1.094,286.326,54.102,92633.362,42.063,127.256
吉林,辽源市,14.245,27.158,5.633,15.793,0.473,65.121,2.832,3.634,290.374,49.456,97669.979,42.836,125.32
吉林,通化市,11.689,22.791,6.973,11.46,0.475,51.818,0.483,1.423,288.886,53.196,95982.011,41.939,125.927
吉林,长春市,15.58,34.972,6.726,20.228,0.482,60.852,3.309,3.731,290.744,51.614,99308.601,44.268,125.611
四川,乐山市,37.601,48.291,7.071,9.964,0.611,67.096,-0.071,-1.782,292.167,84.068,89510.395,29.218,103.569
四川,内江市,12.416,19.251,7.075,16.515,0.635,40.41,-0.753,-2.51,293.936,93.36,96415.329,29.62,104.95
四川,凉山彝族自治州,18.238,27.755,9.91,3.129,0.367,58.592,-2.972,-2.741,285.125,86.96,74345.336,27.883,102.065
四川,南充市,10.365,20.642,9.123,16.578,0.593,35.0,-3.229,-0.546,294.175,94.713,96484.63,31.19,106.199
四川,宜宾市,19.167,30.287,8.112,16.9,0.731,54.704,0.985,-2.03,293.146,93.816,94800.22,28.573,104.621
四川,巴中市,14.524,23.92,9.259,12.11,0.525,37.265,-4.252,0.627,292.03,94.796,92378.409,32.033,107.031
四川,广元市,13.179,24.406,12.008,10.838,0.569,35.281,-2.391,-1.003,290.871,95.185,91500.542,32.261,105.788
四川,广安市,13.83,24.728,8.326,16.754,0.598,37.91,-3.371,-0.985,295.109,91.537,96462.669,30.43,106.628
四川,德阳市,12.148,25.977,7.311,12.615,0.572,45.318,-2.774,-1.532,293.097,87.487,93002.647,31.13,104.436
四川,成都市,20.411,34.111,7.47,17.516,0.608,50.844,-2.114,-1.227,294.177,80.127,93125.738,30.64,103.929
四川,攀枝花市,18.262,30.688,18.294,8.56,0.56,44.75,-2.241,-3.33,290.575,73.743,81493.023,26.791,101.734
四川,泸州市,16.579,27.156,8.789,19.06,0.655,39.212,0.286,-1.389,292.837,95.684,93177.002,28.424,105.675
四川,甘孜藏族自治州,19.278,21.639,3.648,1.192,0.171,111.455,1.217,4.321,279.83,74.973,61564.2,30.936,100.009
四川,眉山市,26.782,38.32,6.661,12.983,0.625,59.143,-0.938,-1.109,294.453,80.936,93562.717,29.912,103.766
四川,绵阳市,17.882,29.253,9.559,7.701,0.468,48.499,-1.645,-0.183,290.056,90.705,87946.987,31.86,104.704
四川,自贡市,18.618,24.419,7.351,17.543,0.661,47.147,-0.452,-2.124,294.328,90.892,96388.405,29.307,104.659
四川,资阳市,9.296,18.019,7.358,14.617,0.61,36.796,-1.314,-2.056,293.817,94.223,96669.732,30.102,105.149
四川,达州市,14.663,24.054,10.5,14.224,0.435,44.534,-4.932,1.377,294.042,90.323,93920.225,31.335,107.636
四川,遂宁市,8.402,17.711,8.347,16.566,0.608,33.334,-1.681,-1.667,294.09,94.225,96912.053,30.642,105.457
四川,阿坝藏族羌族自治州,21.056,25.745,5.755,1.903,0.207,71.324,0.504,6.359,281.194,79.479,65847.32,32.406,102.61
四川,雅安市,35.578,44.825,7.205,5.128,0.421,80.893,-0.619,-0.207,287.337,85.776,80203.784,29.932,102.689
天津,天津市,35.923,58.564,7.358,37.757,0.691,57.316,2.077,2.009,293.024,44.153,101633.891,39.315,117.308
宁夏,中卫市,23.69,44.378,12.563,13.756,0.532,48.273,-1.51,-0.559,284.214,88.745,83871.601,37.018,105.509
宁夏,吴忠市,40.98,61.405,15.402,12.116,0.494,47.437,-1.287,0.227,284.609,87.261,85440.148,37.454,106.577
宁夏,固原市,14.756,28.675,8.818,13.758,0.481,38.121,-1.973,3.237,285.082,94.212,81268.739,35.905,106.183
宁夏,石嘴山市,40.04,57.678,15.075,17.948,0.706,76.074,0.051,1.236,285.053,72.624,87120.233,39.013,106.499
宁夏,银川市,39.835,54.403,10.598,18.696,0.577,60.048,-0.532,-0.189,285.006,81.284,87411.591,38.287,106.342
安徽,亳州市,27.759,45.396,9.001,15.134,0.596,51.113,-4.035,-1.43,295.022,85.982,101447.142,33.44,116.162
安徽,六安市,25.668,42.574,7.527,17.83,0.56,51.231,-3.65,-0.753,297.254,87.549,98920.763,31.617,116.209
安徽,合肥市,25.413,40.857,4.772,18.333,0.567,55.644,-3.605,-2.229,298.423,84.266,101219.937,31.766,117.359
安徽,安庆市,17.449,29.702,8.457,13.813,0.525,46.248,-3.731,-3.515,298.356,87.755,99283.747,30.557,116.473
安徽,宣城市,13.288,25.686,6.408,18.299,0.512,48.118,-2.701,-1.697,298.674,88.929,99225.249,30.676,118.846
安徽,宿州市,24.87,40.894,8.512,20.362,0.551,59.802,-4.069,-1.527,294.772,82.745,101439.1,33.844,117.23
安徽,池州市,13.292,25.509,8.555,14.016,0.53,40.681,-2.953,-2.584,299.051,86.976,99424.246,30.296,117.379
安徽,淮北市,25.552,40.822,10.054,21.392,0.585,55.17,-4.234,-1.292,294.692,84.048,101474.889,33.722,116.747
安徽,淮南市,27.607,45.205,9.131,17.558,0.537,52.377,-4.291,-1.942,297.748,82.107,101421.217,32.463,116.746
安徽,滁州市,24.059,37.061,5.579,12.324,0.432,61.936,-4.43,-2.491,297.611,82.417,101171.009,32.55,118.076
安徽,芜湖市,23.133,39.076,6.721,20.541,0.687,53.329,-3.292,-2.941,298.948,88.218,101344.063,31.167,118.162
安徽,蚌埠市,29.075,43.062,7.751,17.495,0.523,53.698,-4.276,-2.25,296.138,83.123,101460.365,33.121,117.263
安徽,铜陵市,20.722,35.556,8.208,20.958,0.637,45.668,-3.141,-3.374,299.086,87.624,101191.014,30.883,117.531
安徽,阜阳市,29.954,52.021,9.792,13.821,0.612,46.602,-4.177,-1.906,295.941,86.547,101378.881,32.937,115.723
安徽,马鞍山市,27.258,44.608,5.178,19.899,0.659,62.578,-3.699,-2.972,298.715,86.395,101372.788,31.622,118.386
安徽,黄山市,8.687,19.77,6.747,9.15,0.44,32.363,-2.826,-1.159,298.529,85.66,97285.72,29.869,118.09
山东,东营市,56.174,81.1,14.324,37.653,0.875,88.696,1.673,1.874,293.86,60.757,101795.129,37.57,118.572
山东,临沂市,28.915,62.167,9.4,27.519,0.526,77.404,-1.53,0.078,294.258,72.31,100069.839,35.289,118.27
山东,威海市,24.277,45.033,9.427,21.308,0.746,106.401,0.138,-1.131,294.336,59.989,101160.902,37.148,122.028
山东,德州市,50.369,76.504,7.297,41.287,0.845,57.658,0.585,1.124,292.337,75.121,101672.26,37.233,116.679
山东,日照市,25.29,57.175,6.606,29.481,0.413,79.857,-0.939,0.307,294.776,69.781,100178.752,35.566,119.108
山东,枣庄市,25.86,57.542,14.047,26.869,0.53,73.516,-2.732,0.661,294.387,77.147,100772.71,34.925,117.383
山东,泰安市,38.426,80.012,12.906,34.655,0.9,62.089,-1.296,1.932,293.791,74.068,99956.141,35.993,117.04
山东,济南市,60.655,96.349,11.68,50.313,1.115,53.287,-0.109,1.794,292.753,77.003,99935.452,36.639,117.254
山东,济宁市,31.298,59.865,14.955,27.976,0.717,65.755,-1.822,1.309,294.177,78.094,101202.457,35.375,116.697
山东,淄博市,67.482,102.456,18.345,47.924,1.284,63.184,0.708,1.565,292.761,77.542,99344.685,36.623,118.062
山东,滨州市,53.494,72.732,11.545,39.889,0.922,77.16,1.253,1.572,293.37,63.884,101744.248,37.516,117.852
山东,潍坊市,51.118,89.373,11.356,40.743,0.848,87.847,0.801,0.349,293.403,75.564,100747.173,36.53,119.092
山东,烟台市,32.69,56.065,9.042,27.754,0.662,105.935,0.991,-0.129,293.865,64.981,100691.264,37.25,120.789
山东,聊城市,40.914,75.153,9.887,42.049,0.898,47.556,-0.601,0.448,291.548,84.437,101461.85,36.458,115.863
山东,菏泽市,37.746,56.699,10.969,26.699,0.787,54.67,-2.152,0.137,293.584,86.151,101328.261,35.134,115.69
山东,青岛市,32.64,64.575,8.217,32.752,0.603,100.01,1.003,-0.463,294.025,70.004,101276.214,36.46,120.172
山西,临汾市,28.64,42.54,6.604,25.948,1.229,44.858,-0.226,2.137,289.546,91.668,90363.693,36.227,111.398
山西,吕梁市,24.952,40.74,11.195,24.708,0.838,31.369,0.626,0.904,287.214,90.662,88034.011,37.663,111.27
山西,大同市,31.441,55.869,13.63,21.99,0.596,46.746,2.101,0.601,286.731,68.919,87611.229,39.911,113.713
山西,太原市,27.725,41.96,8.484,32.91,0.699,25.985,0.684,0.604,287.499,88.915,87933.688,37.967,112.321
山西,忻州市,31.744,43.292,11.375,14.661,0.531,48.291,1.44,0.897,285.624,90.676,86487.405,38.877,112.391
山西,晋中市,30.166,41.498,7.731,30.301,1.084,34.236,1.343,1.862,288.654,88.31,88851.049,37.328,112.997
山西,晋城市,34.284,50.004,5.387,23.146,1.335,54.213,-0.501,2.629,289.47,97.025,90782.125,35.625,112.752
山西,朔州市,29.784,45.271,10.644,17.519,0.638,50.434,1.363,0.964,285.92,82.69,86958.78,39.619,112.655
山西,运城市,25.933,39.317,5.103,25.821,1.272,49.298,-2.814,1.235,291.502,90.671,94427.437,35.205,111.071
山西,长治市,29.351,40.235,7.385,24.805,1.655,40.587,1.142,2.666,289.177,91.667,89145.482,36.48,112.915
山西,阳泉市,29.559,42.234,11.148,30.035,0.689,34.809,1.013,-0.244,289.228,82.659,90688.658,38.031,113.512
广东,东莞市,12.943,22.442,6.374,20.821,0.521,34.582,-6.593,2.983,300.848,80.691,101021.292,22.931,113.81
广东,中山市,7.911,16.932,5.398,11.316,0.313,33.736,-7.336,3.58,300.423,86.306,100991.967,22.5,113.383
广东,云浮市,6.614,10.928,2.216,8.081,0.329,27.347,-6.895,3.962,299.617,84.578,98911.297,22.776,111.818
广东,佛山市,14.085,24.57,6.98,25.268,0.617,31.997,-6.519,3.585,300.984,80.325,101007.591,23.035,112.979
广东,广州市,12.83,20.744,5.822,21.824,0.473,37.237,-6.457,3.451,300.529,79.205,100174.389,23.339,113.525
广东,惠州市,7.335,11.809,2.695,8.16,0.266,35.089,-5.74,2.859,299.658,82.22,99280.315,23.244,114.485
广东,揭阳市,12.475,25.045,7.002,10.476,0.635,35.179,-3.957,1.608,299.489,87.982,99937.689,23.323,116.123
广东,梅州市,10.95,20.806,4.826,10.27,0.599,34.475,-3.066,2.847,299.536,79.988,97943.498,24.169,116.07
广东,汕头市,7.814,18.056,6.022,9.083,0.38,39.3,-3.538,1.827,299.928,89.35,101042.208,23.339,116.614
广东,汕尾市,7.705,15.111,2.433,5.46,0.345,37.776,-5.375,1.635,299.399,87.92,99650.852,23.024,115.527
广东,江门市,4.375,10.653,2.017,6.88,0.215,31.781,-7.48,3.713,300.307,86.175,100381.813,22.289,112.676
广东,河源市,12.099,18.733,3.431,10.131,0.43,32.41,-3.857,2.824,299.517,79.386,98100.954,24.021,114.969
广东,深圳市,9.902,19.178,5.892,16.354,0.412,33.449,-7.361,2.922,300.154,86.678,100563.954,22.667,114.143
广东,清远市,10.537,16.137,4.159,12.977,0.363,39.557,-5.14,3.756,298.924,82.189,97537.969,24.295,112.871
广东,湛江市,6.01,14.052,3.862,5.644,0.32,36.316,-6.173,4.549,300.566,86.883,100573.836,21.091,110.163
广东,潮州市,10.299,23.002,6.439,11.482,0.614,35.191,-2.567,1.878,299.412,86.675,99407.875,23.755,116.754
广东,珠海市,1.957,9.587,1.327,3.237,0.125,36.967,-7.867,3.272,300.263,89.953,101052.097,22.095,113.317
广东,肇庆市,12.286,19.324,5.559,18.979,0.519,33.995,-6.931,3.403,299.835,82.408,99064.967,23.505,112.199
广东,茂名市,5.289,9.461,2.75,6.086,0.274,29.591,-6.702,4.264,299.438,87.385,98910.041,22.013,110.952
广东,阳江市,3.255,6.805,1.172,3.882,0.16,30.511,-6.626,3.885,299.748,87.986,99489.398,22.042,111.786
广东,韶关市,10.665,17.928,3.717,10.136,0.59,36.782,-3.741,3.253,298.864,79.57,96824.509,24.785,113.819
广西,北海市,7.278,17.337,4.679,6.201,0.381,35.371,-6.554,4.04,300.852,84.701,100569.621,21.674,109.37
广西,南宁市,11.515,19.89,6.548,8.322,0.522,34.029,-5.016,3.717,299.3,84.533,98763.773,23.051,108.469
广西,崇左市,13.737,25.339,8.885,5.227,0.428,45.315,-3.098,3.393,298.395,84.443,97437.273,22.483,107.291
广西,来宾市,10.686,16.796,6.367,7.136,0.438,36.303,-6.298,4.67,299.09,83.811,97690.037,23.859,109.417
广西,柳州市,12.319,18.235,7.413,8.699,0.406,36.483,-4.928,4.113,299.175,80.695,97132.976,24.956,109.372
广西,桂林市,18.831,22.745,9.03,9.661,0.355,35.607,-5.537,3.864,298.333,80.814,95642.949,25.353,110.513
广西,梧州市,9.87,16.351,6.255,10.182,0.541,27.46,-6.96,3.82,299.696,82.511,98601.16,23.484,110.996
广西,河池市,15.214,25.554,9.576,5.76,0.506,47.622,-6.012,4.238,296.942,87.05,94764.511,24.628,107.843
广西,玉林市,8.721,14.893,4.859,8.514,0.488,29.047,-6.086,4.694,299.696,84.852,98915.769,22.452,110.164
广西,百色市,21.008,33.802,12.799,4.991,0.583,51.953,-3.926,2.946,295.007,90.676,92621.189,23.981,106.292
广西,贵港市,10.899,17.699,5.93,8.664,0.564,29.233,-6.04,3.293,300.179,81.496,99348.981,23.322,110.021
广西,贺州市,12.079,19.345,9.741,10.963,0.465,33.429,-6.655,4.513,298.805,82.42,96883.33,24.364,111.394
广西,钦州市,8.655,18.303,5.482,7.502,0.493,31.311,-5.414,3.979,300.241,84.439,99865.228,22.173,109.01
广西,防城港市,13.524,23.801,7.666,5.766,0.418,41.808,-3.735,4.044,298.892,88.06,98274.965,21.88,108.002
新疆,乌鲁木齐市,15.47,28.829,3.549,9.291,0.279,63.282,2.137,-2.605,283.967,44.414,84419.373,43.746,87.818
新疆,五家渠市,13.057,30.52,3.957,13.917,0.357,56.27,0.493,-3.063,290.403,35.663,96592.42,44.363,87.517
新疆,伊犁哈萨克自治州,9.856,15.518,2.58,3.977,0.288,71.641,2.275,-0.41,282.444,47.332,80682.344,43.438,82.146
新疆,克孜勒苏柯尔克孜自治州,16.491,25.113,0.642,1.761,0.19,83.82,1.997,-1.353,280.513,38.062,70869.68,39.661,75.949
新疆,克拉玛依市,9.032,20.588,4.324,4.994,0.409,64.213,0.1,-3.418,290.377,35.782,97485.478,45.457,85.207
新疆,北屯市,4.774,3.906,8.58,1.712,0.528,57.824,4.912,-7.02,283.884,59.96,95645.056,47.27,87.868
新疆,博尔塔拉蒙古自治州,27.971,32.41,2.439,2.458,0.227,65.615,2.101,-1.063,284.242,38.855,86460.647,44.714,82.114
新疆,双河市,28.724,32.776,2.45,1.898,0.212,63.358,-0.452,-10.12,290.884,30.554,97968.112,44.87,82.474
新疆,可克达拉市,16.328,33.108,5.87,11.466,0.59,55.904,0.468,-0.444,291.95,31.288,94803.874,43.918,80.786
新疆,和田地区,30.883,32.838,0.342,0.906,0.136,87.125,0.301,-0.172,282.882,29.429,74239.613,37.059,80.934
新疆,哈密市,27.187,29.862,1.458,3.211,0.175,65.462,3.27,0.767,290.411,20.885,88200.53,43.042,93.517
新疆,喀什地区,40.861,49.494,0.771,2.324,0.197,79.83,0.548,0.964,284.552,29.419,76349.675,38.125,77.178
新疆,图木舒克市,64.103,64.717,1.413,1.207,0.14,61.025,1.248,1.192,294.088,24.587,89204.035,39.892,79.182
新疆,塔城地区,8.096,10.385,2.9,1.681,0.23,66.677,1.357,-3.254,283.829,48.759,89780.576,45.642,84.789
新疆,巴音郭楞蒙古自治州,24.465,26.484,0.559,0.418,0.133,75.825,2.559,0.016,285.665,31.518,79330.389,39.463,87.481
新疆,新星市,33.35,52.245,2.915,22.745,0.485,41.215,-1.705,-0.35,294.465,15.36,92498.19,42.75,93.68
新疆,昆玉市,54.557,72.677,1.35,6.107,0.23,61.427,-1.06,0.037,293.76,21.593,86991.627,37.457,79.093
新疆,昌吉回族自治州,12.195,17.428,2.993,4.33,0.209,67.7,2.271,-2.393,286.923,40.347,89969.633,44.342,88.608
新疆,石河子市,14.25,31.57,8.68,19.62,0.41,54.075,1.55,-1.375,289.865,39.65,94792.195,44.245,86.035
新疆,胡杨河市,8.776,16.63,3.378,3.578,0.4,65.25,-1.204,-0.932,291.284,38.88,97941.578,44.852,84.772
新疆,铁门关市,48.587,75.003,1.423,1.703,0.207,60.987,3.027,-2.59,294.847,23.113,91488.207,41.773,85.66
新疆,阿克苏地区,30.731,39.044,1.038,2.023,0.148,70.008,1.767,-0.927,290.101,28.54,85337.236,40.965,81.578
新疆,阿勒泰地区,5.066,5.158,4.273,0.938,0.263,65.351,2.277,-3.686,280.722,62.176,88595.308,46.902,88.421
新疆,阿拉尔市,50.189,70.788,1.25,4.438,0.175,59.859,1.302,0.413,293.63,27.206,90038.812,40.629,80.998
江苏,南京市,27.753,44.591,6.487,22.825,0.625,58.374,-4.0,-2.892,298.671,85.685,101441.557,31.899,118.876
江苏,南通市,15.532,22.103,5.585,10.143,0.366,69.79,-4.813,-3.073,298.711,87.076,101618.355,32.201,120.979
江苏,宿迁市,20.527,35.827,6.974,15.114,0.46,70.342,-4.076,-2.387,296.273,75.151,101681.35,33.765,118.495
江苏,常州市,27.118,44.618,9.151,32.988,0.748,53.302,-3.752,-2.667,299.082,87.657,101476.395,31.613,119.666
江苏,徐州市,23.559,45.707,10.087,23.91,0.534,65.789,-3.499,-0.722,294.475,81.647,101467.817,34.363,117.513
江苏,扬州市,20.037,31.969,5.991,11.76,0.461,64.441,-4.824,-3.14,298.268,80.157,101646.652,32.709,119.486
江苏,无锡市,25.992,44.673,9.942,35.346,0.738,54.224,-3.615,-2.362,299.101,88.06,101387.406,31.546,120.066
江苏,泰州市,17.808,27.407,6.182,12.492,0.459,64.669,-4.966,-3.28,298.422,81.921,101607.188,32.605,120.048
江苏,淮安市,19.888,32.717,6.254,11.07,0.404,71.214,-4.392,-2.626,297.238,75.066,101647.571,33.362,118.985
江苏,盐城市,13.684,20.018,4.817,5.294,0.298,87.956,-4.665,-2.748,297.73,72.897,101723.211,33.529,120.156
江苏,苏州市,21.183,37.12,7.739,33.36,0.579,56.036,-3.435,-2.054,298.946,90.704,101539.188,31.374,120.661
江苏,连云港市,15.909,27.498,6.229,11.488,0.339,87.483,-3.541,-1.205,296.451,68.584,101607.942,34.519,119.133
江苏,镇江市,27.014,42.356,7.759,24.844,0.645,53.58,-4.482,-3.048,298.635,87.146,101482.79,32.016,119.49
江西,上饶市,10.115,18.98,6.973,6.911,0.424,41.18,-1.808,-0.713,300.999,76.067,99220.45,28.778,117.47
江西,九江市,8.891,20.601,7.628,8.948,0.432,46.813,-3.205,-1.066,299.74,83.221,99177.246,29.313,115.444
江西,南昌市,8.132,18.705,5.536,10.869,0.488,45.483,-2.064,-1.222,301.576,78.419,100975.931,28.671,116.016
江西,吉安市,9.504,15.746,4.66,6.058,0.421,41.454,-2.28,2.533,301.015,71.66,98750.318,26.954,114.831
江西,宜春市,9.799,20.102,5.605,10.61,0.459,41.106,-2.876,-0.209,300.307,80.602,99112.423,28.29,114.974
江西,抚州市,8.617,14.262,5.737,5.418,0.319,47.374,-1.214,0.752,300.816,75.546,98798.562,27.514,116.42
江西,新余市,11.523,24.291,7.745,12.915,0.645,35.559,-2.769,0.299,300.931,78.488,99991.527,27.847,114.836
江西,景德镇市,8.877,18.665,7.225,6.803,0.427,36.804,-2.44,-1.301,301.051,77.55,100026.988,29.287,117.24
江西,萍乡市,9.886,18.739,4.827,7.068,0.556,38.574,-4.409,2.806,300.59,71.498,97762.054,27.505,113.908
江西,赣州市,11.813,18.677,4.412,8.227,0.491,42.471,-2.111,2.486,299.852,74.265,97176.92,25.692,115.279
江西,鹰潭市,9.708,17.457,6.614,6.359,0.419,46.386,-1.277,0.211,301.503,74.648,99715.7,28.222,117.094
河北,保定市,33.362,48.848,7.246,24.277,0.526,59.101,1.381,1.131,291.335,62.816,97978.212,39.018,115.159
河北,唐山市,28.646,63.462,12.378,46.347,0.772,54.55,2.287,0.576,292.554,43.968,101115.247,39.731,118.354
河北,廊坊市,38.501,59.586,7.299,33.107,0.658,57.38,1.792,2.507,292.878,48.063,101673.905,39.267,116.632
河北,张家口市,22.813,43.517,9.521,13.174,0.346,63.389,2.184,0.424,287.262,42.81,88046.774,40.877,115.042
河北,承德市,17.131,35.371,8.397,18.556,0.453,46.925,2.804,-0.363,288.181,37.738,91285.957,41.339,117.578
河北,沧州市,45.676,67.061,8.111,34.512,0.66,66.671,1.443,1.591,293.428,58.691,101742.603,38.258,116.744
河北,石家庄市,31.242,51.845,9.789,33.145,0.782,42.543,0.163,0.477,291.743,76.45,98515.099,38.135,114.407
河北,秦皇岛市,27.344,64.192,15.148,46.68,0.964,51.194,3.717,0.182,291.828,40.227,98854.1,40.12,119.193
河北,衡水市,41.558,64.064,8.103,30.968,0.758,56.065,0.776,1.515,292.723,74.682,101616.9,37.755,115.813
河北,邢台市,37.717,60.156,8.79,35.961,1.339,38.585,0.046,2.172,291.891,80.809,100139.042,37.195,114.815
河北,邯郸市,36.778,59.628,11.005,38.825,1.641,37.541,-0.11,1.307,291.012,85.012,99686.427,36.538,114.596
河南,三门峡市,27.571,40.716,8.133,18.038,0.927,52.017,-2.806,1.81,290.696,94.995,92071.779,34.362,111.101
河南,信阳市,25.49,41.345,10.56,14.101,0.539,46.717,-4.269,-1.896,297.527,83.888,100358.579,32.091,114.907
河南,南阳市,25.616,43.147,6.891,18.184,0.804,55.063,-3.366,-1.923,293.745,93.785,98365.013,33.034,112.323
河南,周口市,26.487,47.731,8.457,15.877,0.737,49.932,-3.522,-1.2,294.418,89.516,101204.933,33.738,114.884
河南,商丘市,26.363,46.62,9.292,19.401,0.704,55.135,-3.428,-0.364,294.122,87.009,101327.345,34.277,115.718
河南,安阳市,41.979,62.404,12.529,35.514,1.494,45.656,-0.786,0.435,291.507,84.403,99291.902,35.888,114.318
河南,平顶山市,35.161,45.985,6.059,23.136,1.04,49.469,-1.849,-1.406,293.305,93.603,99052.503,33.8,113.025
河南,开封市,32.49,51.466,8.526,22.1,0.811,58.194,-2.271,-1.174,293.621,91.262,100984.69,34.594,114.514
河南,新乡市,43.938,63.735,9.658,33.248,1.206,52.884,-1.259,-1.004,292.02,88.731,100099.816,35.256,114.111
河南,洛阳市,30.955,46.053,6.769,22.0,1.102,52.995,-2.239,0.066,291.144,95.981,94470.446,34.274,112.019
河南,济源市,39.504,57.977,6.819,27.893,1.232,52.745,-2.127,-0.114,291.254,93.945,96321.602,35.105,112.445
河南,漯河市,31.932,51.594,7.685,20.082,0.835,50.425,-2.918,-1.645,294.312,92.076,101033.985,33.652,113.945
河南,濮阳市,38.079,63.304,12.58,34.709,0.95,52.109,-1.073,-0.319,292.433,82.453,101319.701,35.809,115.283
河南,焦作市,41.777,60.805,6.766,34.254,1.333,47.825,-2.288,-0.904,292.538,89.17,99896.182,35.121,113.163
河南,许昌市,34.12,48.721,7.4,25.321,0.996,51.346,-2.445,-1.907,293.755,91.455,100390.655,34.075,113.707
河南,郑州市,36.463,52.83,7.403,31.543,1.101,50.232,-1.995,-1.286,292.367,91.406,99126.478,34.634,113.438
河南,驻马店市,32.696,49.141,7.892,15.108,0.641,45.592,-3.666,-2.067,295.101,90.244,100695.179,32.925,114.174
河南,鹤壁市,43.841,67.431,12.867,37.277,1.438,47.196,-0.667,-0.186,291.662,82.663,100455.374,35.716,114.319
浙江,丽水市,9.159,14.765,3.107,8.109,0.282,41.214,-1.916,1.845,297.919,82.423,94697.856,28.194,119.51
浙江,台州市,10.336,17.499,5.942,14.453,0.333,34.872,-1.26,2.826,298.706,88.951,98873.896,28.742,121.109
浙江,嘉兴市,22.484,34.651,3.375,28.497,0.557,71.921,-2.061,-0.617,299.459,89.601,101513.847,30.635,120.754
浙江,宁波市,12.576,19.91,5.954,16.493,0.396,47.997,-1.154,2.41,299.353,88.863,100331.733,29.706,121.49
浙江,杭州市,14.085,27.554,5.42,16.56,0.504,42.954,-2.115,-1.142,298.924,85.942,98667.414,29.891,119.464
浙江,温州市,9.827,17.961,5.12,13.874,0.386,32.504,-1.782,1.529,297.977,91.726,97717.56,27.897,120.411
浙江,湖州市,17.45,32.159,4.304,26.8,0.525,62.321,-2.413,-1.673,298.869,90.296,100275.993,30.757,119.871
浙江,绍兴市,16.26,25.775,5.391,17.838,0.512,54.746,-1.4,1.041,299.603,81.535,99478.792,29.709,120.64
浙江,舟山市,3.722,7.81,2.938,6.65,0.13,36.738,-0.79,2.352,299.508,93.555,101338.025,30.038,122.23
浙江,衢州市,11.251,18.516,5.797,11.827,0.377,37.982,-1.93,-0.939,300.278,75.964,97879.529,28.912,118.675
浙江,金华市,12.251,19.918,4.328,14.996,0.409,43.41,-1.937,1.527,299.776,78.236,98150.46,29.109,119.967
海南,万宁市,2.741,6.977,0.79,1.46,0.132,42.786,-3.15,4.847,299.663,90.273,99565.112,18.842,110.294
海南,三亚市,7.591,16.331,2.534,3.104,0.389,42.246,-5.151,2.366,298.88,91.246,98321.373,18.413,109.407
海南,东方市,11.205,13.891,2.363,2.345,0.17,52.533,-3.635,3.987,300.687,77.782,98864.443,18.971,108.838
海南,临高县,12.187,17.883,2.5,3.74,0.297,42.249,-5.109,4.493,300.861,80.599,100070.086,19.821,109.733
海南,乐东黎族自治县,10.028,14.072,1.851,2.413,0.223,46.738,-4.743,2.898,298.787,88.111,97422.65,18.659,109.072
海南,五指山市,11.32,14.39,1.886,2.882,0.188,45.048,-4.556,4.272,296.844,92.162,94297.488,18.81,109.518
海南,儋州市,14.058,17.901,2.417,2.856,0.226,47.139,-4.079,3.374,301.015,77.059,99704.454,19.568,109.399
海南,定安县,5.535,11.635,1.595,3.65,0.292,38.483,-4.052,4.505,299.97,87.263,99832.21,19.47,110.28
海南,屯昌县,7.094,11.94,1.464,2.788,0.238,41.99,-3.97,4.468,299.566,87.106,99046.278,19.342,110.076
海南,文昌市,1.444,6.788,0.692,1.577,0.155,40.063,-4.962,5.31,300.612,88.068,100619.498,19.707,110.773
海南,昌江黎族自治县,14.652,17.533,3.043,2.962,0.194,55.009,-1.947,3.097,299.969,78.807,97879.533,19.233,109.016
海南,海口市,4.909,11.809,1.845,4.308,0.322,35.669,-4.686,4.705,300.683,84.421,100397.641,19.842,110.393
海南,澄迈县,9.126,15.396,2.4,4.186,0.33,39.513,-4.687,4.57,300.526,82.973,99924.897,19.676,109.989
海南,琼中黎族苗族自治县,9.181,12.768,1.409,2.344,0.185,44.343,-3.546,4.97,298.495,87.976,96888.683,19.087,109.847
海南,琼海市,2.987,7.998,1.015,2.275,0.173,40.618,-3.382,4.33,300.17,88.482,100387.77,19.22,110.43
海南,白沙黎族自治县,11.644,14.319,2.062,2.305,0.184,47.625,-3.004,4.71,299.379,79.452,96563.661,19.2,109.388
海南,陵水黎族自治县,6.197,10.349,0.877,2.109,0.199,44.059,-2.97,2.554,298.937,92.427,98900.12,18.581,109.913
湖北,仙桃市,17.741,31.691,5.111,17.605,0.743,46.043,-3.087,-1.345,300.533,77.523,101159.118,30.284,113.417
湖北,十堰市,17.629,36.635,11.56,14.588,0.677,45.97,-2.897,0.007,291.482,95.673,93531.908,32.462,110.476
湖北,咸宁市,12.61,24.823,6.131,8.254,0.535,57.204,-3.576,0.822,300.38,78.578,99340.6,29.621,114.178
湖北,天门市,21.277,34.649,5.583,16.657,0.809,48.349,-2.401,-2.267,299.336,80.147,101139.173,30.633,113.053
湖北,孝感市,20.168,32.222,7.599,12.884,0.657,51.544,-3.305,-1.976,299.327,79.278,100596.906,31.116,113.869
湖北,宜昌市,25.011,37.188,10.631,18.012,0.718,38.952,-2.116,-1.013,293.404,93.607,94290.129,30.746,111.129
湖北,恩施土家族苗族自治州,20.545,31.812,11.846,10.122,0.565,38.948,-4.953,2.389,293.31,89.394,89759.677,30.195,109.552
湖北,武汉市,16.505,29.448,7.902,18.335,0.714,48.093,-3.328,-0.448,300.582,76.894,101090.557,30.606,114.349
湖北,潜江市,23.626,37.593,4.74,21.339,0.942,40.952,-2.091,-2.59,299.35,79.833,101129.281,30.33,112.77
湖北,神农架林区,23.255,30.058,11.203,5.746,0.367,50.498,-2.698,4.627,289.239,95.785,83408.998,31.592,110.49
湖北,荆州市,22.225,37.49,8.047,19.183,0.92,41.486,-1.771,-2.864,298.863,80.977,100893.324,30.01,112.512
湖北,荆门市,23.191,35.406,8.467,18.273,0.825,41.906,-1.085,-3.388,296.664,86.877,100197.466,31.059,112.616
湖北,襄阳市,24.156,40.879,9.867,16.823,0.818,43.493,-0.904,-1.644,293.705,94.019,97582.403,31.919,111.96
湖北,鄂州市,13.931,27.744,9.643,16.556,0.713,49.477,-3.856,0.794,300.727,78.443,101138.147,30.337,114.794
湖北,随州市,25.53,35.653,9.152,13.217,0.641,46.354,-4.141,-2.104,296.97,86.236,99550.272,31.809,113.43
湖北,黄冈市,13.492,25.712,10.027,11.995,0.523,49.969,-4.146,-0.597,299.611,78.839,99486.751,30.702,115.358
湖北,黄石市,11.957,26.069,9.846,12.465,0.605,52.338,-4.433,0.568,299.938,82.779,100189.02,29.925,115.034
湖南,娄底市,30.728,46.929,8.871,12.999,1.065,48.626,-3.935,0.832,298.706,80.599,97127.982,27.715,111.632
湖南,岳阳市,19.272,32.392,5.254,10.514,0.58,51.611,-2.819,0.799,301.106,74.041,99976.057,29.081,113.275
湖南,常德市,19.547,38.915,11.602,19.074,0.956,38.42,-1.877,-3.509,296.936,85.017,99225.938,29.271,111.524
湖南,张家界市,15.036,30.983,10.317,16.229,0.785,43.04,-4.73,-1.451,294.926,90.61,95387.224,29.379,110.526
湖南,怀化市,14.024,25.698,7.01,8.54,0.743,46.61,-4.941,0.642,298.018,79.295,96152.996,27.535,110.071
湖南,株洲市,10.942,18.791,4.122,7.266,0.446,39.797,-3.788,2.679,301.192,66.979,97846.878,27.109,113.513
湖南,永州市,19.82,24.994,6.758,8.354,0.419,35.557,-4.21,3.835,299.199,76.523,96414.547,25.748,111.723
湖南,湘潭市,29.736,48.109,6.593,14.533,0.815,54.34,-2.885,0.775,301.417,70.704,100024.504,27.744,112.619
湖南,湘西土家族苗族自治州,15.595,30.989,7.642,10.878,0.87,43.787,-6.371,-0.822,295.737,87.344,95230.691,28.708,109.718
湖南,益阳市,26.133,47.117,8.166,13.92,0.947,48.213,-2.502,-1.216,298.369,82.952,98696.291,28.525,111.919
湖南,衡阳市,24.161,35.918,6.951,11.119,0.647,40.617,-2.911,2.766,302.015,66.103,99523.772,26.781,112.565
湖南,邵阳市,26.404,34.359,6.77,8.363,0.666,42.901,-4.995,2.474,297.786,81.112,94911.661,26.893,110.881
湖南,郴州市,9.625,17.427,5.132,8.701,0.648,34.081,-3.868,4.75,299.12,74.749,95683.954,25.769,113.109
湖南,长沙市,27.452,45.873,5.959,14.692,0.719,53.487,-3.772,1.394,301.005,73.929,99488.705,28.235,113.159
甘肃,临夏回族自治州,22.432,35.725,9.201,14.901,0.622,53.302,-1.203,-2.552,283.819,83.214,77731.532,35.617,103.291
甘肃,兰州市,18.594,30.413,8.646,12.213,0.527,54.017,-2.466,-2.273,283.904,81.96,79379.003,36.359,103.633
甘肃,嘉峪关市,13.233,45.228,10.418,35.043,0.497,76.19,1.637,0.548,287.393,21.777,81951.655,39.798,98.145
甘肃,天水市,17.659,30.589,10.393,8.675,0.365,44.076,-3.426,3.675,286.48,94.771,82897.432,34.645,105.739
甘肃,定西市,19.912,35.516,10.376,6.681,0.38,52.623,-3.227,3.716,284.663,90.947,77488.685,35.124,104.432
甘肃,平凉市,13.63,25.786,8.461,12.378,0.467,39.711,-1.516,2.686,287.124,90.636,84773.157,35.304,106.644
甘肃,庆阳市,18.687,34.565,12.921,11.718,0.613,37.98,-1.718,1.262,286.741,87.902,86088.892,36.149,107.596
甘肃,张掖市,15.346,20.483,4.543,4.599,0.201,71.272,0.238,0.384,281.229,63.013,75026.49,38.94,99.855
甘肃,武威市,26.393,33.246,10.451,4.105,0.297,65.706,-0.136,0.309,283.738,78.983,81720.987,38.163,103.073
甘肃,甘南藏族自治州,23.114,28.57,6.207,2.369,0.251,82.789,-1.192,3.561,281.934,83.255,67953.98,34.331,102.768
甘肃,白银市,19.72,36.247,12.026,10.825,0.511,49.291,-1.486,-0.712,284.502,86.76,81764.83,36.59,104.646
甘肃,酒泉市,13.559,15.25,1.355,2.154,0.143,78.899,2.244,0.101,285.544,22.407,79377.118,40.236,96.062
甘肃,金昌市,17.402,28.86,10.257,7.113,0.264,66.466,0.287,0.602,283.809,72.535,80940.473,38.44,102.048
甘肃,陇南市,24.408,38.37,12.88,6.622,0.4,42.713,-2.537,2.869,285.888,98.376,82422.875,33.599,105.224
福建,三明市,12.236,18.249,5.815,7.414,0.432,39.604,-0.954,0.666,298.587,78.132,95253.68,26.29,117.395
福建,南平市,9.902,16.795,5.612,4.828,0.343,46.24,-1.345,0.409,298.915,80.201,96015.302,27.324,118.143
福建,厦门市,19.015,35.185,7.407,21.01,0.533,50.09,-0.435,-0.372,300.347,80.037,100289.022,24.642,118.11
福建,宁德市,6.338,12.628,2.505,4.1,0.217,39.969,-2.269,-0.594,297.159,90.662,95410.482,26.968,119.474
福建,泉州市,16.341,27.089,5.062,12.346,0.406,45.419,-0.593,-0.646,298.648,81.081,96638.451,25.201,118.249
福建,漳州市,13.831,23.857,4.083,11.457,0.388,41.115,-1.134,0.77,298.993,85.087,98184.821,24.372,117.444
福建,福州市,9.783,19.308,4.803,7.842,0.311,44.638,-1.876,-3.049,298.162,89.285,97413.591,26.083,119.206
福建,莆田市,16.455,26.553,6.076,10.459,0.369,49.331,-1.001,-3.083,299.235,80.808,98125.654,25.445,118.864
福建,龙岩市,10.896,16.429,4.258,9.123,0.335,34.73,-1.439,1.72,298.779,76.09,95227.528,25.256,116.739
西藏,山南市,15.703,17.082,0.924,1.502,0.15,133.168,1.122,2.043,282.894,61.755,66380.418,28.295,92.274
西藏,拉萨市,6.52,8.834,0.53,3.817,0.124,134.729,3.172,3.84,278.498,39.575,56980.535,30.043,91.093
西藏,日喀则市,5.722,6.308,0.273,0.71,0.12,124.55,4.483,3.635,275.077,38.415,55715.312,29.483,86.493
西藏,昌都市,11.385,13.057,0.9,1.15,0.122,148.218,2.927,4.956,279.066,61.799,59500.214,30.753,97.044
西藏,林芝市,14.045,14.696,0.894,1.24,0.127,134.466,-0.28,1.648,282.042,77.102,66678.39,29.184,95.25
西藏,玉树藏族自治州,5.543,5.874,0.199,0.473,0.13,97.13,1.251,1.533,276.219,66.22,57673.943,34.196,94.317
西藏,那曲市,5.774,6.203,0.148,0.287,0.133,100.251,4.103,1.665,276.181,43.778,55807.912,32.709,89.262
西藏,阿里地区,4.925,5.079,0.195,0.298,0.134,95.122,2.812,-0.512,271.586,37.796,55195.606,33.013,82.553
贵州,六盘水市,13.024,21.559,8.465,11.534,0.591,46.911,-3.727,-2.486,289.607,94.326,83063.201,26.106,104.896
贵州,安顺市,15.829,26.136,8.278,6.674,0.432,45.802,-5.329,1.791,292.707,93.148,88028.464,25.986,105.978
贵州,毕节市,12.241,22.324,8.225,12.366,0.728,44.061,-2.227,-2.5,289.162,95.853,83484.606,27.063,105.211
贵州,贵阳市,9.384,18.693,4.403,15.186,0.52,31.038,-5.269,3.739,293.491,88.49,88130.978,26.845,106.71
贵州,遵义市,19.304,26.729,11.166,8.336,0.384,42.165,-5.901,2.5,293.971,88.968,90341.503,28.167,107.102
贵州,铜仁市,16.767,28.763,10.908,6.079,0.522,47.376,-6.784,1.268,295.327,86.665,92702.564,27.937,108.534
贵州,黔东南苗族侗族自治州,11.249,17.605,7.863,5.051,0.312,37.634,-5.414,3.334,296.155,86.054,92546.708,26.495,108.574
贵州,黔南布依族苗族自治州,14.187,23.116,8.418,5.152,0.362,41.571,-6.081,4.239,294.538,89.546,90240.394,26.0,107.265
贵州,黔西南布依族苗族自治州,19.375,30.789,10.934,5.07,0.461,53.627,-4.464,-0.298,292.749,92.307,88339.498,25.256,105.467
辽宁,丹东市,15.482,27.055,7.514,12.655,0.511,60.482,-0.156,-0.191,290.517,54.029,98825.727,40.554,124.376
辽宁,大连市,29.436,50.789,9.601,21.374,0.687,105.682,1.981,1.198,292.787,58.785,100974.956,39.591,122.22
辽宁,抚顺市,14.405,26.713,6.823,13.526,0.524,62.524,0.296,2.612,290.332,48.182,97115.034,41.841,124.65
辽宁,朝阳市,21.03,40.162,10.721,22.379,0.601,65.263,2.736,0.542,291.524,34.452,96525.065,41.545,120.053
辽宁,本溪市,14.409,26.386,6.961,13.247,0.556,56.688,0.172,2.056,290.095,48.967,96497.331,41.232,124.544
辽宁,沈阳市,29.227,62.626,18.154,37.822,0.999,63.817,0.781,4.858,292.049,50.39,101066.151,42.081,123.159
辽宁,盘锦市,28.874,54.657,14.877,29.131,0.879,92.508,1.164,3.834,292.329,62.1,101691.007,41.13,122.01
辽宁,营口市,26.052,45.77,8.303,19.572,0.663,104.246,1.838,3.268,292.256,52.034,99593.891,40.395,122.478
辽宁,葫芦岛市,27.915,50.271,12.049,33.594,0.828,66.207,4.443,1.07,292.739,35.682,99210.587,40.66,120.215
辽宁,辽阳市,22.036,47.534,12.149,27.5,0.943,69.921,0.577,4.109,292.097,46.021,99792.998,41.153,123.261
辽宁,铁岭市,19.411,42.133,11.53,26.336,0.73,68.403,0.765,4.91,291.422,47.777,99569.285,42.653,124.158
辽宁,锦州市,30.186,56.789,16.846,32.278,0.863,79.094,1.172,3.371,292.517,47.627,100857.061,41.502,121.659
辽宁,阜新市,25.799,46.328,14.137,23.162,0.603,73.839,1.536,3.294,292.458,39.7,99397.443,42.289,121.968
辽宁,鞍山市,22.34,43.813,9.513,21.695,0.763,81.391,0.775,2.838,291.733,51.012,99865.259,40.731,123.007
重庆,重庆城区,21.761,31.538,11.844,18.764,0.548,36.634,-3.779,-0.383,295.0,89.537,94827.135,29.824,107.125
重庆,重庆郊县,21.294,30.673,14.246,9.052,0.437,42.869,-5.48,1.602,293.79,87.715,91203.518,30.334,108.755
陕西,咸阳市,17.55,31.075,7.259,26.565,0.764,31.592,-3.524,0.804,290.644,88.058,91644.661,34.779,108.367
陕西,商洛市,28.184,43.719,11.812,12.338,0.607,45.49,-2.505,1.783,289.178,98.991,89645.062,33.64,109.889
陕西,安康市,20.416,30.848,11.295,12.047,0.569,41.712,-3.985,1.233,290.204,95.335,90104.404,32.735,108.932
陕西,宝鸡市,15.075,25.099,6.459,15.403,0.499,37.74,-2.185,1.76,287.756,94.562,86602.648,34.386,107.193
陕西,延安市,17.813,31.489,10.623,21.502,0.97,31.296,-1.131,1.07,287.284,89.566,87877.269,36.432,109.316
陕西,榆林市,23.75,46.168,13.117,23.867,0.895,31.731,0.239,0.393,285.266,89.121,88268.923,38.041,109.581
陕西,汉中市,18.098,27.975,10.93,9.364,0.515,44.281,-3.873,0.89,289.076,96.757,89127.979,33.088,107.098
陕西,渭南市,26.056,39.066,6.911,30.187,1.061,37.568,-2.787,-0.045,291.783,89.047,93987.25,34.919,109.855
陕西,西安市,21.629,36.055,7.94,24.287,0.718,33.105,-2.482,1.73,290.397,91.65,90721.578,34.12,108.77
陕西,铜川市,22.913,39.564,9.946,28.028,1.079,32.248,-2.761,1.278,288.991,94.019,89436.731,35.198,109.058
青海,保亭黎族苗族自治县,11.628,18.41,2.828,4.19,0.366,42.766,-3.622,1.414,297.452,96.114,96784.112,18.566,109.618
青海,吐鲁番市,38.532,46.158,2.316,2.967,0.178,64.334,2.935,-0.955,292.236,22.865,90134.684,42.386,89.851
青海,果洛藏族自治州,10.292,10.698,1.075,0.698,0.132,108.954,1.608,2.836,279.186,72.853,60377.759,34.127,99.404
青海,海东市,26.808,33.124,10.443,6.48,0.331,64.726,-2.741,-0.422,280.544,89.816,73106.528,36.347,102.34
青海,海北藏族自治州,21.346,23.906,4.55,2.442,0.196,76.133,-0.837,0.217,275.224,91.559,65794.508,37.775,100.288
青海,海南藏族自治州,21.605,24.032,5.08,1.918,0.209,72.494,-1.209,-1.373,278.587,88.694,66860.002,35.89,100.272
青海,海西蒙古族藏族自治州,9.266,9.503,0.513,0.449,0.127,74.777,1.567,-0.38,277.373,52.402,64951.05,36.677,94.519
青海,西宁市,21.524,31.097,9.244,10.217,0.488,66.766,-1.616,0.333,278.64,91.923,69950.513,36.842,101.423
青海,黄南藏族自治州,25.838,28.949,6.569,2.171,0.228,78.811,-1.613,0.852,280.431,87.988,66157.616,35.022,101.631
香港,香港特别行政区,3.075,9.735,2.31,9.43,0.15,35.425,-7.585,2.6,300.015,90.44,100745.02,22.45,114.22
黑龙江,七台河市,10.246,24.953,4.228,9.427,0.31,52.743,6.326,-1.123,286.977,57.356,98256.622,45.87,130.943
黑龙江,伊春市,5.995,9.534,1.556,2.853,0.222,51.182,4.8,-2.53,284.865,53.374,96818.187,47.772,129.184
黑龙江,佳木斯市,5.306,10.377,2.057,4.338,0.268,55.092,6.716,-1.564,286.692,53.25,100031.473,47.207,132.11
黑龙江,双鸭山市,5.844,10.347,2.946,5.585,0.262,54.723,7.03,-1.439,286.75,52.599,99629.004,46.722,132.643
黑龙江,哈尔滨市,11.017,20.55,5.465,11.061,0.306,54.524,2.781,0.758,287.957,57.208,98674.243,45.634,127.964
黑龙江,大兴安岭地区,3.771,4.037,1.206,1.196,0.189,58.318,3.865,-1.568,282.54,59.477,95005.895,52.286,124.212
黑龙江,大庆市,7.206,14.673,3.292,8.456,0.279,55.298,0.358,-1.929,289.913,48.814,99953.852,46.327,124.687
黑龙江,牡丹江市,9.959,17.91,4.24,8.029,0.241,53.112,5.71,0.324,287.228,57.108,95633.108,44.592,129.883
黑龙江,绥化市,7.87,12.569,2.08,4.867,0.262,55.711,1.178,-2.01,287.869,52.263,99165.105,46.89,126.634
黑龙江,鸡西市,8.277,15.45,3.77,7.469,0.262,53.978,6.533,-1.402,287.888,54.18,99445.682,45.626,132.289
黑龙江,鹤岗市,5.565,10.697,1.993,3.965,0.285,53.962,6.276,-2.937,286.29,50.141,99127.322,47.661,130.778
黑龙江,黑河市,5.292,8.102,1.334,2.087,0.214,55.566,3.743,-2.033,284.681,53.163,97231.579,49.268,127.004
黑龙江,齐齐哈尔市,6.315,9.342,2.412,3.825,0.224,55.47,0.742,-2.315,287.622,49.885,99190.205,47.715,124.57
