province,city,PM2.5,PM10,SO2,NO2,CO,O3,U,V,TEMP,RH,PSFC,lat,lon
上海,上海市,12.07,24.666,8.153,23.62,0.41,63.236,-4.82,-3.53,297.563,80.84,101374.866,31.173,121.42
云南,临沧市,14.599,21.478,3.626,3.088,0.317,43.59,2.843,0.545,292.292,87.71,83736.189,23.935,99.686
云南,丽江市,17.077,22.108,5.512,4.191,0.331,46.69,1.468,2.486,287.283,86.588,74574.784,26.96,100.515
云南,保山市,12.266,18.282,4.668,4.184,0.326,36.52,2.905,0.638,290.548,90.267,81735.447,24.953,98.962
云南,大理白族自治州,13.066,18.622,3.775,3.737,0.346,47.896,3.754,1.286,289.172,85.377,78004.442,25.726,100.053
云南,德宏傣族景颇族自治州,14.825,19.091,6.373,3.442,0.284,33.999,1.754,0.614,292.452,93.347,85872.999,24.535,98.052
云南,怒江傈僳族自治州,15.212,17.467,1.734,1.213,0.215,52.335,3.601,2.328,285.061,95.876,72753.857,26.916,98.885
云南,文山壮族苗族自治州,40.08,53.429,10.584,3.862,0.481,78.982,-0.871,4.125,292.541,91.384,86350.699,23.696,104.735
云南,昆明市,24.797,34.943,9.445,11.743,0.514,42.473,2.264,2.788,290.06,88.583,79113.178,25.384,102.863
云南,昭通市,29.262,40.352,12.115,6.292,0.57,56.959,-1.742,-1.423,287.141,93.271,84043.502,27.667,103.985
云南,普洱市,23.872,32.448,6.101,2.642,0.289,46.611,1.248,1.487,293.503,87.276,85758.785,23.159,100.718
云南,曲靖市,30.818,42.967,15.558,10.884,0.659,49.195,-1.7,1.633,288.243,95.046,79920.789,25.737,103.929
云南,楚雄彝族自治州,18.811,24.033,4.821,3.747,0.298,50.076,2.738,2.35,291.567,82.568,80814.741,25.328,101.567
云南,玉溪市,26.701,35.489,6.871,5.184,0.333,52.75,1.534,3.58,292.508,87.187,83293.909,24.136,102.217
云南,红河哈尼族彝族自治州,30.192,43.813,9.855,3.736,0.379,68.699,-0.331,3.572,292.362,91.818,84977.482,23.451,103.034
云南,西双版纳傣族自治州,29.148,40.899,9.351,2.705,0.398,50.768,0.798,1.629,295.002,86.471,88697.441,21.939,100.912
云南,迪庆藏族自治州,17.364,19.212,2.43,1.409,0.196,55.687,5.079,3.679,282.459,92.934,67289.515,27.957,99.459
内蒙古,乌兰察布市,36.137,42.86,9.695,9.655,0.307,63.05,4.254,2.815,288.498,45.914,85864.8,41.691,112.44
内蒙古,乌海市,32.438,64.886,35.059,33.625,0.721,60.971,-0.469,1.158,293.378,29.135,87512.054,39.396,106.856
内蒙古,兴安盟,13.33,15.532,5.494,3.101,0.217,59.648,5.429,4.337,289.56,55.063,94284.479,46.244,121.341
内蒙古,包头市,32.366,38.14,7.37,9.873,0.256,62.21,3.934,2.059,289.514,31.591,85807.246,41.549,110.276
内蒙古,呼伦贝尔市,11.211,12.218,4.44,1.84,0.206,59.959,4.543,6.147,286.292,65.294,92695.05,49.636,121.171
内蒙古,呼和浩特市,29.369,43.829,13.535,19.554,0.497,65.62,3.064,3.436,289.337,54.394,86266.837,40.578,111.513
内蒙古,巴彦淖尔市,24.656,26.836,2.427,3.016,0.16,64.934,4.69,1.066,291.059,19.884,87137.808,41.446,107.582
内蒙古,赤峰市,30.797,39.061,11.431,7.477,0.335,74.73,4.945,4.152,289.919,58.21,91733.135,43.226,118.892
内蒙古,通辽市,22.009,29.49,11.728,5.61,0.323,81.932,3.209,6.797,292.868,59.727,97551.446,43.814,121.591
内蒙古,鄂尔多斯市,27.883,36.481,10.274,8.458,0.309,70.538,1.28,2.4,292.075,41.393,86906.308,39.407,108.63
内蒙古,锡林郭勒盟,22.398,23.88,4.186,2.145,0.182,57.94,3.759,2.446,287.342,48.442,88804.785,44.179,115.482
内蒙古,阿拉善盟,18.096,19.879,2.319,2.212,0.156,67.64,-0.085,-0.946,291.825,21.608,87328.72,40.473,102.467
北京,北京市,48.363,71.134,12.677,28.178,0.668,96.222,0.369,3.559,293.297,65.735,97625.05,40.158,116.395
台湾,台湾省,7.91,10.241,3.935,13.072,0.111,42.951,-2.025,0.273,296.867,78.041,92674.514,23.757,120.975
吉林,吉林市,9.263,13.259,4.739,6.62,0.314,69.608,0.92,7.249,290.132,69.132,97338.347,43.573,126.859
吉林,四平市,14.514,22.463,10.394,11.991,0.439,71.873,1.949,9.602,292.149,68.791,99313.543,43.472,124.386
吉林,延边朝鲜族自治州,7.429,10.957,2.824,4.131,0.243,68.929,-0.455,4.155,287.425,77.205,94653.009,43.141,129.147
吉林,松原市,16.653,23.654,11.976,8.817,0.356,76.157,2.417,9.734,292.379,70.44,99492.292,44.785,124.496
吉林,白城市,17.748,21.213,9.077,4.715,0.265,75.989,3.278,7.804,293.69,57.131,99372.63,45.35,123.031
吉林,白山市,8.221,14.025,3.991,5.695,0.383,64.818,0.667,4.737,287.348,68.679,92754.915,42.063,127.256
吉林,辽源市,8.861,12.669,4.363,5.982,0.361,72.35,1.59,8.406,290.794,69.216,97656.39,42.836,125.32
吉林,通化市,8.794,14.795,4.879,6.997,0.422,63.019,0.744,6.697,289.29,68.75,96055.587,41.939,125.927
吉林,长春市,12.531,20.795,6.821,10.71,0.406,67.516,2.171,9.101,291.701,68.235,99242.653,44.268,125.611
四川,乐山市,35.091,43.735,12.143,8.757,0.51,62.039,-0.789,-0.253,289.108,90.791,89480.252,29.218,103.569
四川,内江市,38.11,49.517,20.57,18.347,0.684,55.395,-1.114,-0.201,292.552,85.009,96481.028,29.62,104.95
四川,凉山彝族自治州,24.235,33.019,11.147,4.94,0.455,48.738,-1.691,0.928,284.563,91.495,74164.908,27.883,102.065
四川,南充市,37.696,49.758,12.771,18.216,0.631,53.637,-1.434,0.304,291.445,88.626,96555.705,31.19,106.199
四川,宜宾市,39.331,49.873,14.179,13.671,0.657,54.976,-0.581,-0.325,291.627,87.906,94847.782,28.573,104.621
四川,巴中市,37.298,48.182,10.105,11.96,0.525,63.4,-1.192,0.916,289.7,86.541,92362.368,32.033,107.031
四川,广元市,32.871,46.197,12.794,11.144,0.563,49.103,-0.706,2.078,289.527,91.006,91463.25,32.261,105.788
四川,广安市,32.086,44.633,13.001,16.093,0.626,58.128,-2.083,-0.216,291.952,84.983,96561.332,30.43,106.628
四川,德阳市,33.308,50.668,16.847,17.427,0.578,57.053,-1.088,1.077,291.253,84.971,92993.451,31.13,104.436
四川,成都市,35.784,49.123,19.296,18.952,0.588,58.182,-0.759,0.885,291.474,84.685,93127.59,30.64,103.929
四川,攀枝花市,21.134,31.806,15.557,9.902,0.576,46.306,-1.569,0.23,291.392,76.668,81304.131,26.791,101.734
四川,泸州市,31.407,43.166,13.929,15.671,0.569,46.792,-0.704,0.437,290.271,91.249,93262.417,28.424,105.675
四川,甘孜藏族自治州,19.891,22.604,4.266,1.225,0.208,80.248,0.075,2.596,276.863,89.752,61297.607,30.936,100.009
四川,眉山市,29.781,38.795,12.82,11.646,0.546,61.751,-0.914,0.389,291.503,86.258,93575.706,29.912,103.766
四川,绵阳市,34.546,48.364,13.206,10.65,0.493,59.885,-0.852,1.651,288.133,90.802,87896.08,31.86,104.704
四川,自贡市,42.548,51.724,17.492,18.2,0.683,53.855,-0.987,-0.193,292.483,86.286,96451.673,29.307,104.659
四川,资阳市,33.454,46.373,17.488,13.393,0.604,61.358,-1.589,-0.101,292.759,82.58,96732.43,30.102,105.149
四川,达州市,39.826,52.073,13.548,20.228,0.551,67.959,-2.203,0.644,290.137,85.044,93941.112,31.335,107.636
四川,遂宁市,34.429,47.726,15.581,15.054,0.577,57.081,-1.495,-0.165,292.404,84.865,96982.383,30.642,105.457
四川,阿坝藏族羌族自治州,20.472,27.489,7.865,2.1,0.245,80.896,-2.518,1.715,277.676,86.956,65664.554,32.406,102.61
四川,雅安市,28.623,37.294,12.221,6.894,0.416,67.648,-0.866,0.042,284.221,96.269,80070.651,29.932,102.689
天津,天津市,46.036,73.873,18.988,32.879,0.812,107.608,0.194,5.169,296.235,54.426,101277.721,39.315,117.308
宁夏,中卫市,28.627,46.224,12.784,8.622,0.429,77.597,-0.979,3.401,291.201,54.539,83469.694,37.018,105.509
宁夏,吴忠市,29.413,44.533,12.344,7.474,0.369,80.296,-1.02,4.604,291.875,52.795,85015.661,37.454,106.577
宁夏,固原市,25.559,46.606,12.43,16.456,0.414,71.307,-0.044,4.981,287.476,72.116,81020.592,35.905,106.183
宁夏,石嘴山市,31.728,62.841,27.982,27.709,0.596,67.091,0.006,0.967,292.877,33.996,86630.757,39.013,106.499
宁夏,银川市,29.925,57.105,15.661,22.191,0.498,69.666,-1.179,1.783,293.254,43.037,86901.975,38.287,106.342
安徽,亳州市,38.288,65.675,10.565,19.253,0.555,82.859,-3.489,0.462,295.814,68.557,101180.664,33.44,116.162
安徽,六安市,41.553,63.614,10.439,19.986,0.535,90.167,-3.299,-0.146,294.736,81.498,98697.227,31.617,116.209
安徽,合肥市,34.16,60.013,11.377,29.205,0.584,70.798,-4.348,-0.727,296.605,75.285,101012.61,31.766,117.359
安徽,安庆市,35.277,50.742,9.743,13.317,0.503,86.041,-3.948,-3.46,295.895,78.328,99047.342,30.557,116.473
安徽,宣城市,22.438,38.438,9.48,19.235,0.477,64.913,-4.939,-1.198,295.31,83.821,99017.753,30.676,118.846
安徽,宿州市,33.392,58.731,9.112,24.505,0.478,72.299,-3.801,0.42,295.817,71.609,101164.163,33.844,117.23
安徽,池州市,22.303,35.538,8.358,10.665,0.421,73.266,-4.35,-1.992,296.062,78.641,99180.348,30.296,117.379
安徽,淮北市,36.702,64.658,11.729,26.382,0.523,73.796,-3.86,0.38,295.797,69.09,101197.597,33.722,116.747
安徽,淮南市,37.642,66.095,15.235,29.12,0.562,72.157,-4.202,-0.008,296.655,71.582,101197.532,32.463,116.746
安徽,滁州市,26.147,48.17,11.679,25.788,0.421,62.907,-4.118,-0.183,296.692,71.104,100952.513,32.55,118.076
安徽,芜湖市,30.354,53.203,12.068,22.726,0.596,70.205,-5.304,-1.337,296.418,80.447,101153.428,31.167,118.162
安徽,蚌埠市,32.723,54.857,10.886,23.892,0.463,68.531,-3.791,-0.129,296.225,70.3,101210.71,33.121,117.263
安徽,铜陵市,30.739,49.519,11.389,18.036,0.531,74.843,-5.024,-1.994,296.586,78.443,100979.324,30.883,117.531
安徽,阜阳市,48.153,86.714,14.651,23.749,0.652,80.13,-3.429,0.182,295.901,70.346,101135.283,32.937,115.723
安徽,马鞍山市,30.634,58.594,12.722,28.691,0.645,61.94,-5.044,-0.842,296.582,77.681,101187.442,31.622,118.386
安徽,黄山市,16.624,28.671,8.252,9.73,0.41,58.945,-4.927,-1.325,295.134,81.46,97016.549,29.869,118.09
山东,东营市,40.709,72.614,23.351,27.46,0.611,98.524,-0.831,3.985,295.978,60.415,101491.339,37.57,118.572
山东,临沂市,24.925,51.349,9.331,20.582,0.378,80.663,-1.908,1.385,294.193,76.579,99808.509,35.289,118.27
山东,威海市,7.361,14.007,5.688,6.15,0.253,93.279,-1.748,3.523,294.88,75.289,101038.998,37.148,122.028
山东,德州市,45.099,82.353,18.129,30.387,0.592,110.568,0.657,4.755,295.094,54.553,101322.982,37.233,116.679
山东,日照市,19.384,39.157,5.987,17.583,0.304,77.785,-1.311,1.442,294.308,79.272,99931.863,35.566,119.108
山东,枣庄市,31.173,64.762,14.406,26.198,0.422,82.934,-3.19,1.726,295.197,71.275,100488.088,34.925,117.383
山东,泰安市,35.977,70.686,16.87,28.137,0.543,96.957,-1.331,2.599,294.331,65.836,99674.408,35.993,117.04
山东,济南市,37.981,73.529,17.033,33.354,0.594,96.97,-0.207,3.947,294.932,58.675,99632.664,36.639,117.254
山东,济宁市,34.767,67.538,17.326,25.547,0.532,98.893,-1.652,2.857,295.111,65.126,100903.799,35.375,116.697
山东,淄博市,33.241,64.347,17.248,28.54,0.687,92.469,0.343,3.817,294.94,62.015,99052.718,36.623,118.062
山东,滨州市,42.885,73.387,19.796,30.057,0.658,105.553,0.634,3.809,295.951,53.839,101415.917,37.516,117.852
山东,潍坊市,25.529,51.135,10.157,20.93,0.466,79.462,-0.598,3.291,294.85,71.679,100480.394,36.53,119.092
山东,烟台市,12.735,25.299,6.338,10.62,0.281,77.13,-1.059,3.957,294.401,79.769,100507.205,37.25,120.789
山东,聊城市,41.755,79.728,15.855,24.856,0.632,113.136,-0.228,4.951,294.602,58.261,101120.888,36.458,115.863
山东,菏泽市,37.509,73.214,13.808,24.391,0.644,107.53,-1.395,2.782,294.78,61.652,101029.435,35.134,115.69
山东,青岛市,14.796,34.717,7.558,17.571,0.335,69.108,-1.646,2.773,294.831,81.052,101055.519,36.46,120.172
山西,临汾市,39.593,68.051,19.367,22.799,0.654,95.677,-0.871,3.952,290.944,61.262,90091.589,36.227,111.398
山西,吕梁市,34.451,51.364,18.638,15.513,0.58,79.414,1.302,4.893,290.51,59.351,87724.971,37.663,111.27
山西,大同市,37.852,54.237,19.469,16.045,0.602,76.421,2.35,3.797,288.973,68.185,87261.787,39.911,113.713
山西,太原市,39.395,60.554,17.295,25.63,0.728,71.533,2.27,4.082,290.375,60.257,87634.675,37.967,112.321
山西,忻州市,33.761,46.491,14.935,10.434,0.499,85.099,2.382,3.774,289.588,61.75,86161.262,38.877,112.391
山西,晋中市,42.226,66.699,15.405,22.984,0.686,86.017,2.247,3.533,290.276,60.764,88572.397,37.328,112.997
山西,晋城市,47.789,86.81,18.693,36.648,0.704,105.936,-0.232,3.621,290.304,63.633,90529.062,35.625,112.752
山西,朔州市,30.644,43.773,14.525,11.879,0.523,77.094,3.689,3.866,289.768,62.179,86591.477,39.619,112.655
山西,运城市,39.717,67.07,18.365,23.492,0.629,108.094,-3.423,2.861,293.92,52.518,94118.075,35.205,111.071
山西,长治市,44.215,76.23,17.094,27.184,0.7,99.306,1.687,3.803,289.841,62.246,88887.84,36.48,112.915
山西,阳泉市,38.352,58.099,15.945,20.723,0.681,80.647,3.732,2.312,292.45,55.187,90346.214,38.031,113.512
广东,东莞市,29.309,41.471,10.17,23.907,0.564,69.396,-2.977,-3.548,300.452,68.696,100553.496,22.931,113.81
广东,中山市,33.808,53.187,14.314,32.904,0.628,75.722,-2.113,-4.532,300.133,69.801,100555.996,22.5,113.383
广东,云浮市,35.629,47.431,7.86,15.217,0.533,71.224,-2.082,-3.992,298.983,64.737,98666.102,22.776,111.818
广东,佛山市,35.549,53.17,13.529,31.8,0.632,77.709,-1.676,-5.135,300.431,64.116,100628.592,23.035,112.979
广东,广州市,30.108,39.186,9.118,19.001,0.499,75.52,-2.465,-4.516,300.064,67.079,99744.168,23.339,113.525
广东,惠州市,22.33,27.166,5.973,7.754,0.374,72.729,-4.14,-4.287,299.357,73.375,98771.216,23.244,114.485
广东,揭阳市,21.542,27.264,9.731,15.493,0.742,48.745,-5.582,-3.392,299.302,81.903,99367.25,23.323,116.123
广东,梅州市,18.488,24.049,6.759,11.216,0.607,51.437,-3.38,-1.672,298.633,78.103,97436.403,24.169,116.07
广东,汕头市,17.607,23.923,9.225,14.154,0.582,52.206,-6.668,-3.926,299.588,84.038,100470.738,23.339,116.614
广东,汕尾市,18.659,24.654,6.561,8.953,0.472,61.925,-5.507,-4.176,299.288,80.824,99067.917,23.024,115.527
广东,江门市,36.132,51.125,12.185,25.622,0.549,86.763,-1.737,-5.52,299.839,67.28,100022.385,22.289,112.676
广东,河源市,22.499,27.735,5.99,7.293,0.407,69.107,-2.927,-4.41,298.413,75.07,97621.11,24.021,114.969
广东,深圳市,24.128,38.18,10.496,23.634,0.504,67.782,-4.333,-4.462,299.989,73.372,100055.889,22.667,114.143
广东,清远市,29.718,37.271,8.499,9.122,0.434,84.644,-2.298,-5.241,297.794,66.344,97203.781,24.295,112.871
广东,湛江市,42.354,59.334,10.419,12.433,0.651,102.722,-1.274,-1.259,300.438,68.923,100473.848,21.091,110.163
广东,潮州市,18.125,22.601,8.022,13.309,0.644,48.526,-5.78,-2.579,299.216,79.468,98859.167,23.755,116.754
广东,珠海市,31.975,48.813,17.118,27.775,0.532,83.308,-2.048,-5.622,300.113,71.813,100614.838,22.095,113.317
广东,肇庆市,30.846,40.567,7.532,11.464,0.469,76.092,-2.574,-4.481,299.285,61.376,98777.41,23.505,112.199
广东,茂名市,40.615,53.385,8.559,12.256,0.58,82.78,-2.374,-3.385,299.508,63.842,98727.412,22.013,110.952
广东,阳江市,38.321,47.695,7.845,12.274,0.493,81.378,-1.892,-5.095,299.584,64.945,99222.905,22.042,111.786
广东,韶关市,28.112,35.923,9.059,7.822,0.555,84.424,-2.583,-4.678,297.083,71.506,96455.2,24.785,113.819
广西,北海市,41.85,62.522,9.806,13.739,0.837,83.386,-2.935,-2.801,301.066,60.66,100527.911,21.674,109.37
广西,南宁市,45.112,61.385,11.71,12.373,0.671,92.992,-3.206,-2.301,299.268,62.716,98787.476,23.051,108.469
广西,崇左市,46.643,63.728,11.478,9.326,0.605,84.545,-2.972,-1.148,298.784,70.11,97514.399,22.483,107.291
广西,来宾市,43.058,56.164,11.243,7.702,0.567,100.73,-3.081,-2.903,298.517,59.97,97661.804,23.859,109.417
广西,柳州市,44.819,56.066,13.844,6.055,0.534,97.729,-2.887,-3.458,297.22,65.961,97124.91,24.956,109.372
广西,桂林市,44.818,54.8,13.751,5.965,0.492,110.43,-3.909,-3.517,295.955,68.175,95550.144,25.353,110.513
广西,梧州市,37.884,51.794,10.048,10.07,0.583,79.555,-2.646,-3.52,298.823,59.86,98437.105,23.484,110.996
广西,河池市,41.868,55.98,10.704,6.038,0.536,70.781,-3.746,-0.771,296.055,72.052,94827.732,24.628,107.843
广西,玉林市,44.357,60.812,10.95,14.264,0.734,82.556,-3.124,-3.579,299.222,61.988,98817.702,22.452,110.164
广西,百色市,48.525,62.016,12.478,6.189,0.636,76.966,-3.069,1.695,295.129,83.573,92746.456,23.981,106.292
广西,贵港市,41.83,57.591,10.128,9.891,0.621,92.955,-3.385,-3.071,299.308,58.931,99268.849,23.322,110.021
广西,贺州市,35.752,46.418,10.885,6.636,0.485,90.958,-2.755,-4.454,297.423,63.118,96691.867,24.364,111.394
广西,钦州市,44.563,64.077,10.03,13.923,0.79,83.646,-3.387,-3.244,300.272,59.965,99852.646,22.173,109.01
广西,防城港市,44.247,60.87,10.726,11.297,0.656,85.331,-3.06,-2.558,299.511,65.242,98306.523,21.88,108.002
新疆,乌鲁木齐市,10.22,16.762,4.099,9.664,0.232,57.685,1.745,-3.375,282.475,56.277,84267.087,43.746,87.818
新疆,五家渠市,8.14,13.463,3.483,6.953,0.237,57.837,0.333,-3.133,289.333,41.657,96500.64,44.363,87.517
新疆,伊犁哈萨克自治州,9.003,13.93,3.164,2.44,0.236,68.925,3.701,-1.128,279.916,66.843,80556.437,43.438,82.146
新疆,克孜勒苏柯尔克孜自治州,7.297,11.987,0.504,1.445,0.171,84.431,6.284,-6.859,281.455,35.886,70657.373,39.661,75.949
新疆,克拉玛依市,6.694,11.052,4.502,3.536,0.347,59.627,-0.603,-2.697,288.553,45.398,97420.278,45.457,85.207
新疆,北屯市,9.224,10.496,9.78,0.94,0.464,61.122,4.978,-7.672,282.026,55.372,95628.022,47.27,87.868
新疆,博尔塔拉蒙古自治州,19.447,24.948,2.708,1.311,0.19,64.025,2.591,-1.291,282.024,52.23,86339.619,44.714,82.114
新疆,双河市,22.944,29.878,3.118,1.028,0.188,62.638,0.0,-9.22,288.912,37.924,97926.67,44.87,82.474
新疆,可克达拉市,23.186,31.994,5.356,3.582,0.296,62.002,7.93,0.234,290.762,34.056,94765.644,43.918,80.786
新疆,和田地区,48.615,52.753,0.619,0.839,0.137,73.5,2.024,-1.775,285.98,34.974,73960.966,37.059,80.934
新疆,哈密市,11.998,13.419,1.769,1.942,0.202,70.563,0.798,-2.141,288.865,29.459,87979.166,43.042,93.517
新疆,喀什地区,13.583,23.188,0.667,2.792,0.177,80.486,2.8,-3.164,287.845,29.426,76103.37,38.125,77.178
新疆,图木舒克市,37.095,38.097,1.4,0.98,0.14,60.06,-3.16,0.503,296.695,24.388,88737.635,39.892,79.182
新疆,塔城地区,6.133,7.278,2.844,1.283,0.21,62.781,1.326,-3.35,281.995,58.074,89671.739,45.642,84.789
新疆,巴音郭楞蒙古自治州,48.668,49.388,0.915,0.458,0.135,68.294,-1.114,-2.18,286.46,37.942,78985.968,39.463,87.481
新疆,新星市,10.775,20.585,3.18,13.175,0.53,58.23,-2.585,-1.7,293.575,18.79,92222.75,42.75,93.68
新疆,昆玉市,37.903,61.993,1.763,3.233,0.183,68.417,2.673,-1.7,298.197,18.42,86606.607,37.457,79.093
新疆,昌吉回族自治州,8.145,9.942,2.929,3.2,0.183,62.672,1.86,-2.496,285.504,50.609,89846.71,44.342,88.608
新疆,石河子市,10.525,17.04,8.19,12.47,0.295,55.155,1.27,-1.605,287.99,49.45,94707.675,44.245,86.035
新疆,胡杨河市,12.2,16.772,4.302,3.71,0.43,60.002,-2.074,-0.928,289.076,48.91,97890.982,44.852,84.772
新疆,铁门关市,14.463,24.717,2.487,2.293,0.217,73.21,0.293,-5.717,294.857,28.173,91180.85,41.773,85.66
新疆,阿克苏地区,60.523,65.132,1.388,1.257,0.142,65.21,-2.265,-2.87,291.004,33.11,84944.198,40.965,81.578
新疆,阿勒泰地区,5.662,6.325,4.699,0.743,0.26,63.949,2.949,-4.07,278.761,64.077,88491.432,46.902,88.421
新疆,阿拉尔市,78.158,87.325,1.407,2.247,0.145,61.618,-3.937,-0.898,295.812,26.585,89600.561,40.629,80.998
江苏,南京市,26.868,54.599,13.813,31.703,0.557,53.44,-4.654,-0.557,296.625,76.729,101258.137,31.899,118.876
江苏,南通市,9.994,17.713,4.285,7.333,0.261,80.924,-4.936,-2.144,296.947,78.818,101439.984,32.201,120.979
江苏,宿迁市,24.072,40.566,7.092,17.207,0.412,65.262,-3.866,0.297,296.206,75.896,101429.081,33.765,118.495
江苏,常州市,24.082,50.622,13.175,30.608,0.584,56.387,-5.109,-1.476,296.724,79.898,101309.936,31.613,119.666
江苏,徐州市,31.246,58.641,10.208,26.182,0.464,73.251,-3.353,0.84,295.409,74.214,101185.392,34.363,117.513
江苏,扬州市,18.642,35.756,7.244,14.669,0.381,62.621,-4.324,-0.453,296.784,74.367,101448.464,32.709,119.486
江苏,无锡市,21.664,46.844,13.15,30.114,0.545,56.164,-4.986,-2.045,296.754,81.167,101219.599,31.546,120.066
江苏,泰州市,16.599,30.721,6.735,12.445,0.377,67.748,-4.301,-1.066,296.58,76.854,101419.889,32.605,120.048
江苏,淮安市,19.895,34.954,6.479,13.735,0.373,64.406,-3.951,0.128,296.399,74.851,101417.853,33.362,118.985
江苏,盐城市,9.855,18.671,3.814,7.118,0.267,78.691,-3.529,-0.314,296.131,78.391,101508.134,33.529,120.156
江苏,苏州市,16.843,35.131,9.606,25.488,0.43,59.099,-4.948,-2.879,297.211,81.05,101358.956,31.374,120.661
江苏,连云港市,17.238,30.334,5.301,12.369,0.327,71.633,-2.775,0.482,295.293,79.348,101360.09,34.519,119.133
江苏,镇江市,24.329,50.799,12.63,29.996,0.528,54.449,-4.843,-0.646,296.801,76.764,101306.132,32.016,119.49
江西,上饶市,16.856,27.102,7.919,7.257,0.415,71.632,-3.842,-2.637,297.665,76.107,98917.867,28.778,117.47
江西,九江市,30.08,46.395,9.449,10.499,0.49,87.881,-2.523,-3.422,296.316,77.832,98943.192,29.313,115.444
江西,南昌市,22.615,40.045,10.356,11.49,0.518,91.432,-2.344,-3.986,298.557,72.275,100713.504,28.671,116.016
江西,吉安市,30.608,47.363,14.668,9.264,0.543,90.535,-1.161,-3.727,296.914,73.91,98474.14,26.954,114.831
江西,宜春市,26.321,42.435,11.109,9.778,0.48,87.926,-2.181,-3.598,296.91,74.552,98857.71,28.29,114.974
江西,抚州市,20.918,28.962,7.395,6.586,0.362,85.573,-1.628,-3.335,297.512,77.041,98454.846,27.514,116.42
江西,新余市,29.821,51.101,16.46,14.37,0.579,88.132,-1.523,-3.774,297.4,73.395,99744.929,27.847,114.836
江西,景德镇市,16.388,27.522,8.189,6.718,0.402,65.023,-3.868,-2.267,298.007,73.169,99752.591,29.287,117.24
江西,萍乡市,28.87,48.231,13.013,11.879,0.521,84.958,-2.703,-2.97,296.282,71.426,97552.322,27.505,113.908
江西,赣州市,26.55,34.183,10.001,5.884,0.546,85.135,-1.018,-4.512,296.866,76.15,96792.54,25.692,115.279
江西,鹰潭市,19.547,28.796,8.709,8.225,0.422,83.023,-2.894,-2.613,298.209,74.68,99392.128,28.222,117.094
河北,保定市,51.642,76.363,22.826,25.607,0.655,100.848,0.193,2.555,294.138,59.288,97583.997,39.018,115.159
河北,唐山市,43.384,72.469,20.918,28.566,0.807,120.431,-0.04,4.521,295.347,64.843,100831.815,39.731,118.354
河北,廊坊市,45.275,73.252,18.589,32.01,0.709,96.505,0.357,5.379,296.33,51.904,101278.335,39.267,116.632
河北,张家口市,39.539,54.398,14.621,12.649,0.465,83.16,1.494,4.52,288.17,72.952,87696.638,40.877,115.042
河北,承德市,44.944,65.596,15.046,17.588,0.573,102.453,1.854,5.192,288.383,80.312,91023.632,41.339,117.578
河北,沧州市,45.326,72.549,19.454,26.758,0.637,112.785,0.459,5.645,295.916,51.357,101365.113,38.258,116.744
河北,石家庄市,46.608,74.379,20.4,29.527,0.801,86.89,-0.258,3.202,295.492,52.542,98070.857,38.135,114.407
河北,秦皇岛市,42.472,67.619,16.137,21.861,0.658,123.493,1.321,4.531,293.532,71.907,98649.493,40.12,119.193
河北,衡水市,40.095,69.265,15.537,21.803,0.613,114.691,0.356,6.57,296.139,51.748,101203.704,37.755,115.813
河北,邢台市,40.671,79.389,19.004,30.469,0.784,94.882,0.388,5.721,295.965,51.314,99722.906,37.195,114.815
河北,邯郸市,41.638,85.078,19.083,33.577,0.776,92.529,0.827,4.791,295.077,54.983,99310.838,36.538,114.596
河南,三门峡市,39.858,60.698,15.414,14.244,0.509,108.375,-0.773,4.564,291.789,56.897,91810.529,34.362,111.101
河南,信阳市,43.919,73.54,14.33,21.18,0.537,86.228,-3.163,0.15,295.663,72.292,100148.8,32.091,114.907
河南,南阳市,39.018,70.886,11.63,17.306,0.557,102.679,-2.047,-0.047,294.551,59.053,98135.725,33.034,112.323
河南,周口市,49.839,92.441,14.012,28.805,0.7,90.493,-3.007,1.005,295.549,65.051,100938.444,33.738,114.884
河南,商丘市,40.418,77.372,14.418,25.312,0.646,92.6,-2.928,1.449,295.376,63.897,101043.563,34.277,115.718
河南,安阳市,42.297,81.88,16.274,29.771,0.7,101.028,0.696,4.308,295.068,54.981,98942.945,35.888,114.318
河南,平顶山市,44.883,81.557,15.643,32.174,0.654,101.67,-1.494,1.3,294.551,59.455,98787.658,33.8,113.025
河南,开封市,44.901,85.85,14.241,28.655,0.693,102.11,-1.651,2.217,294.768,62.965,100702.141,34.594,114.514
河南,新乡市,43.864,85.026,17.698,34.983,0.719,101.874,0.141,2.837,294.704,59.001,99779.627,35.256,114.111
河南,洛阳市,43.251,71.852,16.534,20.723,0.582,114.975,-0.793,2.967,292.485,59.386,94196.662,34.274,112.019
河南,济源市,47.883,88.966,19.751,40.56,0.727,101.789,-1.291,0.999,293.777,55.213,96029.144,35.105,112.445
河南,漯河市,50.002,99.078,17.162,41.676,0.688,87.102,-2.111,0.716,295.129,65.154,100774.829,33.652,113.945
河南,濮阳市,39.622,78.971,14.427,26.494,0.693,107.228,-0.428,4.304,294.637,59.49,100992.642,35.809,115.283
河南,焦作市,45.381,95.598,22.631,47.236,0.804,95.709,-0.858,0.772,295.598,53.407,99568.073,35.121,113.163
河南,许昌市,49.376,95.769,20.672,45.97,0.767,91.95,-1.704,1.198,294.865,62.173,100121.3,34.075,113.707
河南,郑州市,45.672,91.9,21.409,45.937,0.781,96.758,-0.974,2.878,294.815,58.149,98829.227,34.634,113.438
河南,驻马店市,45.235,88.118,13.509,28.835,0.576,83.875,-2.882,0.293,295.489,67.015,100449.685,32.925,114.174
河南,鹤壁市,41.551,79.697,15.803,30.292,0.68,99.993,1.204,4.698,295.554,55.384,100098.154,35.716,114.319
浙江,丽水市,14.02,20.932,4.875,9.883,0.34,61.419,-3.412,-2.04,294.305,91.893,94321.564,28.194,119.51
浙江,台州市,8.999,13.966,4.967,12.583,0.29,52.975,-3.863,-3.207,296.778,89.628,98505.579,28.742,121.109
浙江,嘉兴市,16.031,30.31,9.463,31.153,0.485,51.585,-4.177,-3.225,297.198,82.183,101312.999,30.635,120.754
浙江,宁波市,9.616,15.569,4.984,14.686,0.291,64.366,-3.741,-3.696,297.07,88.42,100047.86,29.706,121.49
浙江,杭州市,21.228,35.628,10.095,21.357,0.5,55.173,-4.326,-3.007,295.23,88.241,98435.89,29.891,119.464
浙江,温州市,10.764,17.058,6.494,17.052,0.361,48.323,-3.264,-2.702,296.238,91.984,97293.704,27.897,120.411
浙江,湖州市,22.083,40.623,9.531,28.045,0.514,55.505,-4.385,-2.174,296.057,85.377,100087.167,30.757,119.871
浙江,绍兴市,15.248,23.761,7.1,20.001,0.412,55.613,-3.949,-3.608,296.344,86.789,99224.686,29.709,120.64
浙江,舟山市,4.718,7.958,1.308,1.978,0.15,83.708,-5.355,-4.045,298.222,84.928,101039.165,30.038,122.23
浙江,衢州市,15.424,26.569,8.332,12.07,0.414,58.362,-5.138,-2.965,296.166,82.593,97591.151,28.912,118.675
浙江,金华市,16.214,25.886,7.434,17.11,0.428,53.775,-3.663,-3.635,295.773,86.862,97867.554,29.109,119.967
海南,万宁市,37.156,47.989,10.892,3.574,0.368,110.223,-2.19,-2.844,299.169,79.062,99470.797,18.842,110.294
海南,三亚市,25.461,40.273,8.993,11.167,0.411,77.391,-3.603,-1.051,299.003,75.286,98256.304,18.413,109.407
海南,东方市,33.15,40.355,9.035,3.17,0.304,95.433,-2.24,-1.205,300.048,70.112,98866.027,18.971,108.838
海南,临高县,40.779,53.747,10.681,5.796,0.473,111.694,-2.119,-0.781,299.443,76.184,100051.686,19.821,109.733
海南,乐东黎族自治县,30.988,40.409,8.246,4.533,0.321,86.361,-2.312,-0.741,298.783,74.157,97381.28,18.659,109.072
海南,五指山市,32.134,41.19,8.574,3.646,0.32,90.392,-3.53,-1.848,297.002,74.822,94237.726,18.81,109.518
海南,儋州市,38.504,48.591,9.925,3.865,0.388,104.722,-2.746,-0.629,299.474,75.308,99709.259,19.568,109.399
海南,定安县,38.908,52.687,9.365,6.48,0.498,112.277,-1.518,-1.705,299.307,76.197,99748.293,19.47,110.28
海南,屯昌县,37.876,50.24,9.61,4.892,0.438,110.764,-1.748,-1.222,299.01,76.638,98980.23,19.342,110.076
海南,文昌市,38.098,49.155,9.072,3.915,0.431,118.875,-1.139,-2.464,299.708,75.802,100503.548,19.707,110.773
海南,昌江黎族自治县,35.014,42.763,9.751,3.137,0.321,100.531,-3.422,-1.646,299.046,71.75,97878.779,19.233,109.016
海南,海口市,39.735,54.839,10.028,8.542,0.545,115.394,-1.443,-1.474,299.402,75.824,100319.115,19.842,110.393
海南,澄迈县,39.494,53.697,10.463,7.809,0.51,111.91,-1.831,-1.044,299.34,76.084,99878.456,19.676,109.989
海南,琼中黎族苗族自治县,35.669,45.858,9.13,3.341,0.358,98.927,-2.367,-0.93,297.818,79.019,96835.265,19.087,109.847
海南,琼海市,37.688,49.335,9.912,4.203,0.417,114.582,-1.683,-1.962,299.685,76.447,100286.663,19.22,110.43
海南,白沙黎族自治县,33.984,42.646,9.076,2.838,0.334,97.865,-3.366,-0.57,298.134,74.23,96554.756,19.2,109.388
海南,陵水黎族自治县,31.339,43.206,9.329,4.98,0.363,89.997,-3.081,-2.909,299.127,76.746,98802.257,18.581,109.913
湖北,仙桃市,52.75,87.67,24.569,30.527,0.861,86.662,-0.833,-2.411,294.121,75.86,101072.233,30.284,113.417
湖北,十堰市,34.941,50.959,15.18,8.064,0.573,86.631,-1.377,1.067,291.58,61.569,93337.563,32.462,110.476
湖北,咸宁市,38.889,60.051,13.231,16.564,0.663,90.217,-1.919,-2.104,295.404,75.232,99190.618,29.621,114.178
湖北,天门市,47.699,78.707,19.483,29.206,0.844,90.9,-1.06,-1.784,294.221,69.044,101043.039,30.633,113.053
湖北,孝感市,40.554,65.702,17.266,22.328,0.691,89.683,-1.623,-0.959,295.287,69.733,100459.03,31.116,113.869
湖北,宜昌市,36.105,50.541,17.556,11.768,0.601,84.943,0.677,-0.787,291.514,63.827,94141.211,30.746,111.129
湖北,恩施土家族苗族自治州,35.532,48.255,15.108,6.993,0.528,63.532,-1.538,0.109,287.563,87.195,89673.982,30.195,109.552
湖北,武汉市,48.734,77.122,26.255,36.272,0.9,79.274,-1.941,-1.746,295.577,76.315,100960.457,30.606,114.349
湖北,潜江市,48.986,82.92,21.119,34.622,0.992,90.16,-0.768,-2.363,294.121,67.5,101046.834,30.33,112.77
湖北,神农架林区,27.848,34.46,10.058,2.345,0.343,92.012,-0.608,1.772,285.587,73.402,83175.8,31.592,110.49
湖北,荆州市,46.327,74.471,19.988,27.206,0.891,83.436,0.152,-3.02,294.52,67.547,100811.767,30.01,112.512
湖北,荆门市,39.184,58.727,15.431,20.298,0.683,96.352,-0.367,-1.453,295.242,59.378,100049.806,31.059,112.616
湖北,襄阳市,37.407,59.256,16.356,13.82,0.607,98.911,-0.039,0.539,294.046,57.596,97383.567,31.919,111.96
湖北,鄂州市,44.881,70.524,15.961,29.47,0.817,83.824,-1.979,-2.146,295.966,76.691,100990.121,30.337,114.794
湖北,随州市,34.139,56.615,13.312,16.339,0.56,87.288,-1.754,0.053,295.513,61.162,99369.02,31.809,113.43
湖北,黄冈市,34.464,51.971,10.692,13.998,0.572,88.469,-3.118,-1.724,295.967,74.055,99296.768,30.702,115.358
湖北,黄石市,40.864,64.18,13.168,21.797,0.702,89.73,-1.979,-2.071,296.041,78.04,100006.887,29.925,115.034
湖南,娄底市,38.331,54.124,12.599,10.078,0.791,103.585,-1.471,-3.749,294.434,71.908,97058.424,27.715,111.632
湖南,岳阳市,39.631,57.433,14.439,15.156,0.675,91.61,-1.527,-3.036,295.847,69.398,99873.168,29.081,113.275
湖南,常德市,34.451,53.479,17.357,15.115,0.772,72.106,0.2,-3.262,294.304,65.583,99158.205,29.271,111.524
湖南,张家界市,29.423,42.881,12.851,7.351,0.614,64.3,-0.047,-2.496,291.27,77.767,95322.286,29.379,110.526
湖南,怀化市,29.761,44.708,10.125,6.001,0.589,74.923,-1.207,-3.283,292.098,83.588,96202.395,27.535,110.071
湖南,株洲市,32.464,48.688,12.295,11.657,0.502,89.545,-2.252,-3.314,296.308,69.668,97670.422,27.109,113.513
湖南,永州市,43.538,57.38,13.426,8.327,0.54,108.974,-3.037,-4.079,295.68,70.687,96289.556,25.748,111.723
湖南,湘潭市,48.134,68.625,18.244,19.227,0.817,98.597,-0.355,-4.664,296.206,67.272,99952.733,27.744,112.619
湖南,湘西土家族苗族自治州,30.139,43.074,8.987,6.988,0.608,54.531,-0.954,-2.229,290.488,87.651,95255.655,28.708,109.718
湖南,益阳市,37.431,56.46,14.046,11.946,0.806,89.043,-0.31,-3.463,294.355,72.111,98637.228,28.525,111.919
湖南,衡阳市,43.757,61.304,14.832,14.292,0.661,104.326,-1.121,-4.456,296.933,66.74,99425.446,26.781,112.565
湖南,邵阳市,41.969,55.245,13.608,8.692,0.627,106.746,-2.826,-3.087,293.852,75.193,94850.976,26.893,110.881
湖南,郴州市,31.907,45.152,10.781,9.621,0.612,95.185,-1.653,-4.01,295.434,72.988,95450.178,25.769,113.109
湖南,长沙市,38.509,53.51,12.36,12.624,0.62,90.769,-0.915,-3.807,296.276,67.608,99369.953,28.235,113.159
甘肃,临夏回族自治州,24.984,35.227,6.461,6.828,0.31,74.987,-0.696,1.163,288.073,54.586,77499.624,35.617,103.291
甘肃,兰州市,28.95,45.029,13.279,14.121,0.392,76.06,-1.884,0.633,288.921,55.176,79099.544,36.359,103.633
甘肃,嘉峪关市,15.928,58.23,8.312,26.028,0.497,75.065,-1.365,1.757,289.138,23.43,81554.25,39.798,98.145
甘肃,天水市,25.316,45.475,13.96,8.179,0.398,69.351,-0.882,4.962,287.862,77.667,82703.972,34.645,105.739
甘肃,定西市,25.345,41.431,10.588,4.565,0.334,75.281,-1.846,3.39,286.392,71.578,77328.086,35.124,104.432
甘肃,平凉市,25.815,46.286,12.295,13.917,0.436,72.26,-0.256,4.812,289.341,69.575,84513.336,35.304,106.644
甘肃,庆阳市,27.554,45.207,13.393,11.291,0.463,80.249,-0.952,4.605,290.084,64.017,85786.499,36.149,107.596
甘肃,张掖市,18.98,21.783,1.728,2.387,0.152,72.881,-0.507,0.289,284.228,40.249,74726.229,38.94,99.855
甘肃,武威市,26.992,31.175,3.902,2.201,0.178,71.979,-2.148,0.747,290.195,38.533,81336.392,38.163,103.073
甘肃,甘南藏族自治州,18.421,22.016,4.34,1.581,0.19,82.222,-1.071,1.536,279.798,77.565,67907.826,34.331,102.768
甘肃,白银市,29.472,46.699,15.282,7.729,0.403,76.998,-1.986,2.954,289.434,61.453,81450.103,36.59,104.646
甘肃,酒泉市,17.906,19.4,1.149,1.479,0.141,72.513,-0.559,-0.043,286.469,27.51,79009.209,40.236,96.062
甘肃,金昌市,22.29,32.539,5.434,3.861,0.179,78.805,-2.609,1.669,289.548,35.64,80570.748,38.44,102.048
甘肃,陇南市,28.414,44.606,17.557,4.684,0.424,67.564,-0.812,4.02,286.648,86.216,82283.216,33.599,105.224
福建,三明市,16.911,21.725,5.729,6.608,0.374,62.884,-2.125,-1.93,296.355,84.54,94810.728,26.29,117.395
福建,南平市,12.91,17.067,4.131,4.745,0.278,67.637,-2.15,-2.077,296.741,81.166,95585.758,27.324,118.143
福建,厦门市,19.313,31.828,11.172,19.722,0.515,56.84,-3.6,-3.172,299.647,80.02,99785.162,24.642,118.11
福建,宁德市,9.651,13.901,4.37,6.679,0.233,57.995,-3.181,-2.562,295.799,91.229,94947.866,26.968,119.474
福建,泉州市,15.846,24.464,6.944,11.855,0.409,61.019,-2.619,-1.669,297.521,85.497,96156.015,25.201,118.249
福建,漳州市,18.985,27.123,8.215,13.635,0.439,56.807,-3.769,-1.892,298.19,83.486,97678.765,24.372,117.444
福建,福州市,10.337,17.138,5.951,9.102,0.309,59.606,-2.838,-4.2,297.374,89.123,96926.239,26.083,119.206
福建,莆田市,12.27,20.293,7.094,10.36,0.362,63.824,-2.619,-3.878,298.456,84.915,97631.812,25.445,118.864
福建,龙岩市,18.955,24.363,6.842,8.739,0.389,63.272,-2.212,-1.483,297.087,80.989,94749.634,25.256,116.739
西藏,山南市,31.108,33.86,4.218,1.552,0.289,97.008,3.974,4.228,282.183,85.608,66147.106,28.295,92.274
西藏,拉萨市,13.647,15.543,1.687,1.242,0.187,87.997,4.832,2.081,278.289,74.695,56692.811,30.043,91.093
西藏,日喀则市,14.212,15.164,1.662,0.485,0.187,93.234,6.988,0.671,277.461,63.867,55559.364,29.483,86.493
西藏,昌都市,21.377,22.824,2.51,0.729,0.218,89.779,3.184,5.042,277.271,83.354,59181.193,30.753,97.044
西藏,林芝市,26.232,28.454,3.356,1.559,0.24,80.481,1.812,5.256,280.899,94.789,66410.452,29.184,95.25
西藏,玉树藏族自治州,9.42,9.672,0.362,0.345,0.125,83.775,-4.239,-0.866,271.055,87.336,57579.017,34.196,94.317
西藏,那曲市,6.835,7.097,0.357,0.221,0.131,85.995,1.158,-1.267,274.766,69.262,55639.028,32.709,89.262
西藏,阿里地区,4.399,4.58,0.398,0.281,0.13,96.634,3.191,-3.173,274.205,52.565,55162.784,33.013,82.553
贵州,六盘水市,23.825,34.304,16.962,12.249,0.593,48.513,-2.724,-1.397,287.402,96.565,83100.602,26.106,104.896
贵州,安顺市,22.923,32.312,9.229,9.518,0.461,61.05,-3.256,0.036,289.722,96.57,88100.963,25.986,105.978
贵州,毕节市,26.088,34.783,12.783,10.723,0.598,49.126,-2.048,-1.077,286.523,96.932,83493.049,27.063,105.211
贵州,贵阳市,25.669,35.678,12.628,15.624,0.571,47.405,-2.465,-0.575,288.114,98.366,88206.111,26.845,106.71
贵州,遵义市,36.39,45.193,14.701,8.212,0.475,59.521,-2.528,0.522,288.424,96.291,90411.28,28.167,107.102
贵州,铜仁市,31.112,47.341,14.453,6.168,0.522,60.366,-2.25,-1.137,289.148,94.469,92768.059,27.937,108.534
贵州,黔东南苗族侗族自治州,36.509,50.864,17.15,4.739,0.511,73.625,-2.63,-2.457,290.797,90.151,92598.235,26.495,108.574
贵州,黔南布依族苗族自治州,33.157,42.381,12.148,4.599,0.45,70.069,-3.371,-0.086,290.77,92.676,90305.17,26.0,107.265
贵州,黔西南布依族苗族自治州,29.427,38.938,10.401,5.331,0.473,68.777,-2.355,0.138,290.996,95.826,88437.729,25.256,105.467
辽宁,丹东市,10.81,16.913,5.586,7.996,0.458,68.406,-2.263,5.074,290.199,77.051,98909.225,40.554,124.376
辽宁,大连市,13.061,21.951,6.723,8.022,0.334,93.654,-1.112,5.335,293.95,81.852,100898.608,39.591,122.22
辽宁,抚顺市,9.299,13.091,5.046,6.339,0.449,72.594,-0.357,8.037,290.112,72.6,97120.737,41.841,124.65
辽宁,朝阳市,35.546,56.092,15.836,12.183,0.624,117.107,3.223,6.052,292.283,71.943,96344.284,41.545,120.053
辽宁,本溪市,9.94,14.519,5.132,7.085,0.484,69.808,-1.331,7.539,288.997,77.279,96542.105,41.232,124.544
辽宁,沈阳市,16.409,32.71,16.179,14.73,0.502,76.118,0.214,8.907,293.511,67.966,100971.674,42.081,123.159
辽宁,盘锦市,15.924,31.161,11.443,11.424,0.435,99.601,0.533,7.816,294.624,74.977,101578.552,41.13,122.01
辽宁,营口市,12.358,20.294,6.075,7.181,0.313,93.651,-2.063,6.725,293.023,78.363,99526.821,40.395,122.478
辽宁,葫芦岛市,32.482,51.819,14.038,12.523,0.567,123.364,2.135,5.618,293.588,75.348,99072.285,40.66,120.215
辽宁,辽阳市,11.679,20.302,7.917,9.287,0.513,73.888,-2.284,8.493,292.105,74.941,99749.623,41.153,123.261
辽宁,铁岭市,13.51,23.456,11.753,13.244,0.491,68.895,0.733,9.093,292.012,68.482,99502.331,42.653,124.158
辽宁,锦州市,18.907,34.899,12.109,10.415,0.462,101.828,1.143,7.644,293.853,78.251,100730.59,41.502,121.659
辽宁,阜新市,20.106,34.423,13.502,9.192,0.414,103.153,1.77,8.202,292.974,76.734,99248.656,42.289,121.968
辽宁,鞍山市,11.865,20.033,6.188,7.903,0.406,80.573,-2.409,6.41,291.893,80.282,99834.622,40.731,123.007
重庆,重庆城区,35.601,47.174,20.211,18.913,0.585,51.867,-2.275,0.125,291.096,86.066,94911.187,29.824,107.125
重庆,重庆郊县,33.911,45.374,16.558,8.561,0.469,64.761,-2.339,-0.004,288.78,84.699,91181.628,30.334,108.755
陕西,咸阳市,35.016,60.495,14.68,23.738,0.689,81.645,-2.275,1.383,293.193,56.128,91328.717,34.779,108.367
陕西,商洛市,37.355,55.104,15.609,8.926,0.536,87.706,-1.6,2.514,289.352,64.182,89438.548,33.64,109.889
陕西,安康市,35.447,47.877,14.224,6.517,0.478,74.943,-1.422,1.423,290.042,69.485,89932.932,32.735,108.932
陕西,宝鸡市,27.26,45.601,9.338,13.357,0.446,69.425,-0.109,3.114,289.735,71.915,86354.288,34.386,107.193
陕西,延安市,29.556,51.936,17.061,23.077,0.706,72.596,-0.588,4.689,290.483,59.762,87567.451,36.432,109.316
陕西,榆林市,26.301,41.387,16.291,16.185,0.534,74.81,0.859,5.727,291.923,54.166,87853.642,38.041,109.581
陕西,汉中市,32.558,43.979,12.271,6.006,0.425,67.794,-0.672,1.983,289.805,78.259,88982.642,33.088,107.098
陕西,渭南市,36.221,63.515,18.11,23.163,0.701,90.489,-2.137,1.252,294.614,49.355,93655.445,34.919,109.855
陕西,西安市,35.565,56.501,13.539,17.41,0.611,78.079,-0.649,4.471,292.684,57.903,90434.666,34.12,108.77
陕西,铜川市,35.756,58.581,17.289,20.159,0.722,86.038,-2.572,2.39,291.453,58.171,89139.649,35.198,109.058
青海,保亭黎族苗族自治县,28.884,41.69,8.962,8.88,0.38,81.056,-3.27,-1.928,298.07,76.544,96694.688,18.566,109.618
青海,吐鲁番市,16.092,18.885,2.839,3.647,0.189,68.286,-0.981,-2.799,290.276,33.343,89954.742,42.386,89.851
青海,果洛藏族自治州,11.399,11.722,0.724,0.67,0.122,91.303,-3.337,-0.8,272.998,85.771,60315.538,34.127,99.404
青海,海东市,32.365,36.832,7.01,6.794,0.249,71.279,-1.245,0.657,284.387,51.843,72938.069,36.347,102.34
青海,海北藏族自治州,19.869,20.745,1.641,1.623,0.138,75.216,0.83,0.779,277.086,56.676,65653.564,37.775,100.288
青海,海南藏族自治州,22.271,22.757,0.525,1.319,0.13,74.074,0.944,0.27,280.03,46.796,66787.29,35.89,100.272
青海,海西蒙古族藏族自治州,17.589,17.74,0.252,0.317,0.121,78.68,1.043,-0.885,278.354,46.687,64784.785,36.677,94.519
青海,西宁市,31.049,36.248,5.586,9.38,0.307,69.975,-0.357,0.709,281.274,52.907,69810.753,36.842,101.423
青海,黄南藏族自治州,18.762,19.231,0.948,1.112,0.131,78.523,-0.365,0.937,278.821,66.132,66132.253,35.022,101.631
香港,香港特别行政区,21.7,34.195,10.84,21.605,0.385,70.425,-5.04,-5.645,299.95,76.71,100218.63,22.45,114.22
黑龙江,七台河市,11.093,20.947,4.497,8.97,0.33,52.492,0.485,6.653,289.963,70.541,98552.106,45.87,130.943
黑龙江,伊春市,11.873,14.079,4.593,3.402,0.301,65.46,1.055,7.274,289.084,75.915,96829.671,47.772,129.184
黑龙江,佳木斯市,9.069,13.091,3.268,5.273,0.265,60.018,-0.689,6.759,290.096,71.976,100487.837,47.207,132.11
黑龙江,双鸭山市,7.466,10.408,2.961,4.359,0.234,62.802,-1.042,7.511,289.466,73.733,100160.702,46.722,132.643
黑龙江,哈尔滨市,10.303,14.071,4.534,5.44,0.296,72.069,1.229,7.289,290.601,70.847,98683.016,45.634,127.964
黑龙江,大兴安岭地区,16.585,17.392,7.738,1.849,0.243,68.078,0.201,6.739,287.349,73.912,94032.729,52.286,124.212
黑龙江,大庆市,16.535,23.396,9.887,7.479,0.366,78.51,1.82,9.047,292.077,70.272,99532.593,46.327,124.687
黑龙江,牡丹江市,8.65,13.938,2.762,4.639,0.251,63.116,0.649,6.489,288.237,75.638,95893.925,44.592,129.883
黑龙江,绥化市,15.379,20.565,8.733,8.127,0.372,67.103,0.384,8.857,290.1,76.825,98921.382,46.89,126.634
黑龙江,鸡西市,6.746,11.142,2.425,4.329,0.24,58.527,-0.238,7.208,288.97,75.894,99979.109,45.626,132.289
黑龙江,鹤岗市,13.426,19.04,5.322,7.934,0.321,58.712,-0.19,6.236,290.073,72.672,99348.545,47.661,130.778
黑龙江,黑河市,16.463,19.578,9.616,6.122,0.321,66.895,0.218,8.715,288.606,80.16,96799.605,49.268,127.004
黑龙江,齐齐哈尔市,16.11,19.844,9.378,5.806,0.298,69.604,1.732,8.664,291.641,65.65,98558.788,47.715,124.57
