province,city,PM2.5,PM10,SO2,NO2,CO,O3,U,V,TEMP,RH,PSFC,lat,lon
上海,上海市,6.195,12.756,3.56,24.418,0.386,19.081,-3.784,-0.572,299.326,93.56,101518.739,31.173,121.42
云南,临沧市,24.694,37.189,12.213,4.795,0.472,49.272,-2.734,-1.181,294.496,69.008,83559.451,23.935,99.686
云南,丽江市,22.915,36.193,11.599,5.833,0.654,46.263,-3.477,0.123,287.213,78.675,74683.989,26.96,100.515
云南,保山市,23.134,40.37,11.009,8.813,0.52,30.006,-2.838,-0.798,292.995,73.741,81619.768,24.953,98.962
云南,大理白族自治州,21.294,35.907,10.055,7.517,0.566,41.817,-3.855,-1.91,289.959,74.421,78005.578,25.726,100.053
云南,德宏傣族景颇族自治州,33.3,45.422,12.614,5.704,0.41,42.798,-1.564,-1.071,295.271,75.639,85675.953,24.535,98.052
云南,怒江傈僳族自治州,28.865,40.442,9.309,3.479,0.455,45.693,-1.337,1.671,286.618,87.001,72797.203,26.916,98.885
云南,文山壮族苗族自治州,25.048,36.052,18.808,5.128,0.419,63.693,-0.374,-11.662,290.92,82.391,85826.255,23.696,104.735
云南,昆明市,16.832,28.043,9.865,6.552,0.385,62.77,-6.228,-7.697,288.657,73.396,79032.572,25.384,102.863
云南,昭通市,15.663,28.999,10.919,6.339,0.496,64.189,-0.66,-4.423,287.176,91.196,84126.691,27.667,103.985
云南,普洱市,22.147,33.743,11.546,5.325,0.434,56.593,-2.23,-2.966,295.486,63.734,85518.154,23.159,100.718
云南,曲靖市,15.079,28.427,10.186,6.066,0.403,65.483,-3.086,-10.273,286.939,86.157,79805.678,25.737,103.929
云南,楚雄彝族自治州,22.246,31.119,10.445,5.829,0.483,61.483,-4.192,-4.998,291.612,62.607,80776.726,25.328,101.567
云南,玉溪市,18.837,29.859,13.198,8.358,0.387,63.342,-4.098,-5.88,293.02,63.904,83094.001,24.136,102.217
云南,红河哈尼族彝族自治州,20.22,30.307,16.858,5.925,0.384,65.763,-2.989,-7.289,293.285,65.464,84631.569,23.451,103.034
云南,西双版纳傣族自治州,20.699,32.914,9.302,7.409,0.515,46.92,-0.882,-2.805,297.096,64.882,88375.297,21.939,100.912
云南,迪庆藏族自治州,21.441,33.702,9.53,2.878,0.416,48.2,-0.751,2.552,283.073,88.67,67426.738,27.957,99.459
内蒙古,乌兰察布市,15.875,27.798,10.009,15.842,0.32,54.966,2.291,2.944,284.86,31.583,86486.056,41.691,112.44
内蒙古,乌海市,20.214,37.626,26.902,28.001,0.636,49.651,-4.084,5.502,287.401,43.086,88039.654,39.396,106.856
内蒙古,兴安盟,4.7,5.987,1.52,1.963,0.161,58.193,4.668,-1.044,287.486,48.459,94956.508,46.244,121.341
内蒙古,包头市,19.989,36.887,13.952,30.653,0.438,40.853,1.71,3.675,285.452,28.258,86430.642,41.549,110.276
内蒙古,呼伦贝尔市,4.364,5.209,1.909,1.898,0.179,56.346,5.06,-1.701,283.642,56.774,93504.996,49.636,121.171
内蒙古,呼和浩特市,19.154,44.127,8.203,31.473,0.538,42.818,0.258,1.741,284.984,33.895,86865.752,40.578,111.513
内蒙古,巴彦淖尔市,18.127,27.842,12.807,16.381,0.348,55.094,-0.643,3.798,287.513,27.841,87713.375,41.446,107.582
内蒙古,赤峰市,14.355,17.63,2.876,5.603,0.188,55.01,3.498,0.044,287.404,35.305,92320.851,43.226,118.892
内蒙古,通辽市,7.079,9.776,2.908,5.427,0.21,55.215,2.675,-0.667,289.934,43.07,98112.965,43.814,121.591
内蒙古,鄂尔多斯市,17.717,34.991,13.36,20.516,0.476,44.953,-2.306,3.704,285.919,40.798,87473.867,39.407,108.63
内蒙古,锡林郭勒盟,14.251,15.428,3.332,2.826,0.161,59.0,3.223,3.035,285.326,36.481,89450.469,44.179,115.482
内蒙古,阿拉善盟,15.601,19.171,8.793,4.621,0.234,66.603,-1.233,1.102,289.217,34.722,87761.479,40.473,102.467
北京,北京市,11.474,27.571,2.792,26.299,0.322,48.078,1.472,-1.818,291.12,28.332,98216.239,40.158,116.395
台湾,台湾省,4.495,7.08,3.405,11.791,0.105,39.061,-2.715,0.138,297.634,77.94,92984.681,23.757,120.975
吉林,吉林市,10.903,21.101,6.48,13.118,0.38,53.306,3.908,1.763,286.327,56.897,97345.49,43.573,126.859
吉林,四平市,9.326,17.317,3.313,12.116,0.34,51.096,2.837,0.139,289.105,47.204,99599.586,43.472,124.386
吉林,延边朝鲜族自治州,9.511,17.718,6.482,9.092,0.261,50.498,7.02,-0.494,285.486,55.241,94349.589,43.141,129.147
吉林,松原市,4.837,8.38,2.144,5.334,0.216,52.703,4.476,-1.075,289.711,42.756,99868.392,44.785,124.496
吉林,白城市,4.618,5.882,1.77,2.903,0.173,54.738,4.364,-0.732,290.423,41.2,99966.537,45.35,123.031
吉林,白山市,15.005,27.569,9.922,11.055,0.548,48.314,3.226,0.336,284.599,55.757,92650.15,42.063,127.256
吉林,辽源市,14.011,25.709,6.13,16.103,0.517,47.918,4.175,0.778,287.873,52.042,97778.588,42.836,125.32
吉林,通化市,17.845,33.918,9.416,13.567,0.678,44.198,2.205,-0.097,286.863,53.363,96053.594,41.939,125.927
吉林,长春市,8.097,16.619,2.535,11.234,0.312,49.934,4.5,0.252,288.511,47.722,99435.353,44.268,125.611
四川,乐山市,21.938,33.552,8.353,9.043,0.499,61.323,0.047,-2.048,291.489,74.137,89590.323,29.218,103.569
四川,内江市,13.214,21.33,8.111,11.599,0.537,44.093,-0.415,-2.462,294.486,75.225,96516.585,29.62,104.95
四川,凉山彝族自治州,20.94,31.142,9.61,3.21,0.418,70.867,-3.937,-1.932,285.168,82.776,74308.517,27.883,102.065
四川,南充市,10.508,23.739,9.752,13.605,0.563,34.258,-2.833,-2.13,294.567,75.395,96552.768,31.19,106.199
四川,宜宾市,15.177,30.921,10.223,15.752,0.638,46.837,1.349,-0.715,292.623,79.527,94910.189,28.573,104.621
四川,巴中市,15.348,30.918,8.249,12.158,0.589,34.205,-5.267,-1.837,292.143,79.873,92436.05,32.033,107.031
四川,广元市,12.056,25.022,11.925,9.806,0.545,37.559,-2.422,-1.686,291.08,82.684,91578.07,32.261,105.788
四川,广安市,14.064,27.302,7.688,13.917,0.589,31.076,-1.632,-2.5,294.26,81.452,96530.361,30.43,106.628
四川,德阳市,15.051,29.403,7.792,14.252,0.488,53.253,-1.787,-1.618,293.06,71.556,93092.484,31.13,104.436
四川,成都市,17.638,30.958,8.163,18.982,0.524,53.577,-1.298,-1.367,293.548,69.471,93228.008,30.64,103.929
四川,攀枝花市,22.273,32.731,12.501,8.408,0.663,54.818,-4.3,-2.849,291.675,61.081,81404.324,26.791,101.734
四川,泸州市,16.418,31.145,10.509,15.422,0.533,39.129,2.296,-2.485,290.474,91.304,93261.815,28.424,105.675
四川,甘孜藏族自治州,17.745,21.022,3.898,1.2,0.188,100.924,1.495,4.624,280.038,74.156,61490.146,30.936,100.009
四川,眉山市,15.642,27.458,7.829,12.088,0.515,55.619,-0.48,-1.345,293.708,70.473,93668.836,29.912,103.766
四川,绵阳市,19.219,31.957,10.732,7.214,0.425,60.743,-1.243,-0.651,289.765,80.004,88012.536,31.86,104.704
四川,自贡市,16.377,25.712,9.023,14.728,0.577,43.853,-0.171,-2.021,294.623,73.272,96494.414,29.307,104.659
四川,资阳市,11.784,21.671,8.635,8.94,0.512,43.826,-0.806,-2.695,294.603,74.584,96762.62,30.102,105.149
四川,达州市,18.066,34.747,10.587,15.781,0.543,38.924,-4.489,-1.194,293.602,77.393,93953.175,31.335,107.636
四川,遂宁市,9.389,20.992,10.328,12.031,0.523,38.278,-1.383,-2.723,294.836,72.535,96995.546,30.642,105.457
四川,阿坝藏族羌族自治州,22.255,27.803,6.08,1.853,0.234,70.249,-0.221,6.146,280.839,82.472,65789.348,32.406,102.61
四川,雅安市,23.238,33.768,7.552,5.385,0.369,74.339,-1.093,0.124,286.176,86.389,80242.133,29.932,102.689
天津,天津市,26.815,58.547,8.434,48.285,0.658,47.859,1.334,-0.79,291.912,33.873,101851.408,39.315,117.308
宁夏,中卫市,16.373,35.757,13.613,8.87,0.445,57.493,-1.639,3.708,285.565,72.528,83851.312,37.018,105.509
宁夏,吴忠市,21.149,40.98,14.225,10.543,0.45,52.642,-2.519,4.231,285.64,65.908,85451.912,37.454,106.577
宁夏,固原市,15.327,32.896,10.091,12.705,0.457,50.397,-2.155,4.709,282.971,86.266,81316.579,35.905,106.183
宁夏,石嘴山市,22.776,40.741,20.349,23.837,0.935,53.953,-1.896,2.887,286.722,47.402,87137.158,39.013,106.499
宁夏,银川市,21.358,38.754,11.915,22.028,0.746,49.279,-2.587,1.882,286.977,54.16,87404.789,38.287,106.342
安徽,亳州市,41.499,64.149,11.246,16.642,0.752,62.14,-4.281,-3.487,295.348,82.137,101483.668,33.44,116.162
安徽,六安市,28.327,41.573,8.973,15.551,0.567,56.05,-4.132,-3.534,295.964,92.492,98871.59,31.617,116.209
安徽,合肥市,16.668,26.148,4.989,13.671,0.52,55.192,-5.034,-4.252,298.268,85.53,101155.567,31.766,117.359
安徽,安庆市,14.327,23.341,8.051,12.133,0.573,54.205,-5.176,-5.36,298.241,87.443,99157.421,30.557,116.473
安徽,宣城市,9.233,15.717,4.573,16.399,0.468,28.544,-4.339,-1.754,298.826,87.881,99114.675,30.676,118.846
安徽,宿州市,34.281,53.547,10.621,18.844,0.667,71.275,-4.545,-3.179,295.664,79.39,101460.539,33.844,117.23
安徽,池州市,12.562,19.776,7.075,13.393,0.521,36.736,-4.374,-3.367,298.805,87.029,99290.024,30.296,117.379
安徽,淮北市,40.491,59.868,11.842,21.574,0.736,67.669,-4.819,-3.269,295.751,78.277,101498.27,33.722,116.747
安徽,淮南市,28.552,43.637,9.751,14.142,0.566,64.172,-5.427,-4.78,296.787,85.065,101407.636,32.463,116.746
安徽,滁州市,18.378,28.518,6.238,8.295,0.421,74.096,-5.358,-4.691,297.049,85.978,101142.905,32.55,118.076
安徽,芜湖市,14.959,22.34,5.614,20.997,0.697,28.603,-5.004,-3.786,299.234,88.112,101245.094,31.167,118.162
安徽,蚌埠市,34.922,49.498,9.749,14.752,0.618,64.691,-4.7,-3.873,295.508,87.097,101471.135,33.121,117.263
安徽,铜陵市,15.21,22.809,7.345,21.854,0.696,31.915,-4.633,-4.186,299.162,88.026,101082.422,30.883,117.531
安徽,阜阳市,40.18,63.873,11.443,14.833,0.723,56.523,-4.638,-4.206,295.36,83.86,101417.725,32.937,115.723
安徽,马鞍山市,15.131,23.156,4.944,18.381,0.624,34.97,-4.959,-4.201,298.798,88.164,101294.729,31.622,118.386
安徽,黄山市,9.601,16.282,5.229,8.237,0.359,34.597,-4.702,-1.385,298.688,84.309,97134.239,29.869,118.09
山东,东营市,26.813,52.7,11.823,30.821,0.58,86.798,0.233,-0.01,294.132,55.228,101950.752,37.57,118.572
山东,临沂市,21.385,46.588,8.681,18.607,0.517,77.734,-3.763,-2.186,293.717,69.977,100145.261,35.289,118.27
山东,威海市,16.361,32.789,9.679,15.477,0.583,89.907,0.06,-3.13,293.568,58.659,101282.209,37.148,122.028
山东,德州市,32.612,68.282,10.607,33.382,0.55,76.213,-0.41,-0.35,293.505,59.178,101838.955,37.233,116.679
山东,日照市,19.763,42.617,7.247,18.193,0.441,72.646,-2.982,-2.616,293.313,69.587,100274.201,35.566,119.108
山东,枣庄市,24.934,53.425,11.782,20.752,0.551,84.283,-4.222,-1.59,295.172,68.297,100817.694,34.925,117.383
山东,泰安市,35.191,69.917,11.181,31.249,0.797,65.104,-3.012,-2.234,293.599,69.675,100067.278,35.993,117.04
山东,济南市,38.522,77.052,12.578,36.14,0.807,70.346,-1.757,-1.194,293.23,64.73,100078.008,36.639,117.254
山东,济宁市,33.043,61.081,13.1,27.302,0.756,66.367,-2.745,-2.097,294.632,72.58,101282.677,35.375,116.697
山东,淄博市,37.895,72.357,15.056,33.306,0.97,78.328,-1.17,-0.656,292.955,63.489,99476.92,36.623,118.062
山东,滨州市,27.584,54.582,9.69,31.208,0.615,76.423,0.216,0.167,294.084,52.861,101902.256,37.516,117.852
山东,潍坊市,29.343,55.979,11.67,26.855,0.678,83.481,-0.425,-1.516,293.046,67.661,100876.044,36.53,119.092
山东,烟台市,22.601,44.661,9.351,21.197,0.595,84.671,0.358,-1.645,293.046,65.129,100821.13,37.25,120.789
山东,聊城市,33.431,79.458,14.108,39.831,0.786,59.761,-1.223,-1.417,292.49,77.012,101633.902,36.458,115.863
山东,菏泽市,40.902,70.584,12.555,26.522,0.885,63.857,-2.37,-2.695,294.029,81.598,101437.896,35.134,115.69
山东,青岛市,19.271,42.083,7.764,23.003,0.509,74.846,-0.247,-2.576,293.229,69.427,101392.725,36.46,120.172
山西,临汾市,48.407,69.84,8.261,27.622,1.117,29.732,-1.997,0.612,287.784,79.677,90528.251,36.227,111.398
山西,吕梁市,28.349,57.142,12.226,32.766,0.769,21.316,-1.937,1.154,285.002,71.364,88208.917,37.663,111.27
山西,大同市,17.662,35.862,7.096,14.403,0.402,55.776,0.727,0.523,285.919,32.078,87813.186,39.911,113.713
山西,太原市,28.718,67.289,11.362,36.976,0.676,22.202,-1.189,-0.088,285.204,66.626,88140.33,37.967,112.321
山西,忻州市,22.084,42.191,8.736,18.595,0.445,43.364,-0.45,1.764,285.194,50.714,86667.871,38.877,112.391
山西,晋中市,37.831,65.008,9.292,30.708,0.822,29.364,-0.841,1.027,285.976,78.198,89050.981,37.328,112.997
山西,晋城市,41.697,63.701,7.089,20.951,1.099,53.831,-2.311,1.606,288.8,77.972,90934.147,35.625,112.752
山西,朔州市,20.545,49.543,8.292,21.474,0.522,47.067,0.285,1.45,285.501,39.084,87145.891,39.619,112.655
山西,运城市,32.549,50.503,7.41,23.428,0.901,42.995,-3.885,1.105,291.602,70.808,94575.934,35.205,111.071
山西,长治市,47.103,75.533,8.906,28.468,1.479,28.394,-1.159,0.101,286.2,83.5,89326.786,36.48,112.915
山西,阳泉市,31.185,56.71,13.891,32.906,0.667,32.302,0.339,1.081,287.874,62.606,90909.153,38.031,113.512
广东,东莞市,9.968,21.123,5.608,11.451,0.488,42.927,-11.957,8.342,301.112,81.093,100265.286,22.931,113.81
广东,中山市,6.179,17.429,3.7,4.76,0.256,47.253,-10.818,10.971,300.773,85.073,100149.569,22.5,113.383
广东,云浮市,10.214,18.071,5.039,3.826,0.325,55.751,-10.761,12.114,299.495,85.367,97676.658,22.776,111.818
广东,佛山市,11.311,19.334,5.277,11.981,0.478,48.081,-11.624,9.628,300.958,81.772,100094.96,23.035,112.979
广东,广州市,9.534,16.831,4.692,11.299,0.427,43.053,-12.541,7.99,300.584,80.678,99384.499,23.339,113.525
广东,惠州市,3.798,10.157,1.594,3.776,0.223,36.093,-10.755,6.627,299.682,85.051,98653.321,23.244,114.485
广东,揭阳市,8.512,19.252,4.744,7.855,0.635,33.15,-9.228,4.118,299.557,89.096,99505.153,23.323,116.123
广东,梅州市,6.948,12.887,3.387,6.82,0.526,33.262,-9.099,4.78,298.949,82.996,97540.593,24.169,116.07
广东,汕头市,4.063,15.213,3.312,5.881,0.31,38.432,-9.69,4.03,300.345,89.3,100642.939,23.339,116.614
广东,汕尾市,4.57,14.136,1.379,3.202,0.325,33.842,-9.672,4.915,299.367,90.16,99154.934,23.024,115.527
广东,江门市,9.946,19.378,2.912,2.984,0.243,59.753,-8.387,12.787,300.53,85.783,99418.465,22.289,112.676
广东,河源市,6.419,11.224,2.07,5.396,0.33,32.468,-9.784,5.347,299.213,82.083,97575.785,24.021,114.969
广东,深圳市,7.281,20.02,5.042,9.471,0.374,39.762,-11.68,8.169,300.404,86.733,99862.792,22.667,114.143
广东,清远市,7.226,10.839,3.784,7.094,0.299,41.464,-13.023,5.744,299.1,80.765,96724.282,24.295,112.871
广东,湛江市,13.99,27.533,8.733,4.717,0.438,61.634,6.487,7.013,299.876,85.183,99472.271,21.091,110.163
广东,潮州市,6.476,14.204,3.523,7.133,0.436,36.568,-9.108,3.308,299.149,89.217,99056.759,23.755,116.754
广东,珠海市,5.377,16.953,1.248,1.547,0.153,52.373,-9.38,12.235,300.82,87.125,100206.932,22.095,113.317
广东,肇庆市,10.781,16.812,5.603,8.411,0.379,53.028,-13.814,7.749,299.574,84.523,98017.714,23.505,112.199
广东,茂名市,10.109,19.766,6.788,4.182,0.362,59.322,-0.422,11.848,298.859,88.634,97504.461,22.013,110.952
广东,阳江市,10.153,19.862,4.667,2.498,0.263,60.213,-4.06,14.472,299.59,88.677,98311.674,22.042,111.786
广东,韶关市,6.468,11.076,2.49,5.93,0.572,33.062,-11.018,4.548,298.766,80.11,96197.188,24.785,113.819
广西,北海市,17.174,30.057,12.009,4.739,0.523,60.597,8.311,3.53,299.511,82.636,99320.176,21.674,109.37
广西,南宁市,13.257,20.778,9.336,6.872,0.555,52.718,-1.669,-4.223,298.036,81.959,97324.015,23.051,108.469
广西,崇左市,19.249,29.592,13.025,5.13,0.493,55.567,5.514,-6.315,297.217,76.951,96344.744,22.483,107.291
广西,来宾市,13.123,19.909,9.217,5.082,0.467,54.829,-11.047,-2.545,298.441,83.149,96300.813,23.859,109.417
广西,柳州市,13.357,17.929,8.385,5.746,0.408,51.788,-11.026,-4.857,298.671,79.497,96074.081,24.956,109.372
广西,桂林市,13.97,15.205,6.592,6.44,0.334,46.967,-13.696,-2.707,297.785,81.265,94724.596,25.353,110.513
广西,梧州市,10.818,18.619,6.949,4.801,0.425,54.336,-13.822,5.953,299.368,83.527,97216.733,23.484,110.996
广西,河池市,17.084,27.006,12.381,5.182,0.518,58.787,-8.123,-9.311,296.211,82.221,93765.924,24.628,107.843
广西,玉林市,12.437,22.051,10.149,5.226,0.517,57.4,-0.74,5.56,298.516,87.484,97255.017,22.452,110.164
广西,百色市,24.132,36.832,15.787,5.65,0.601,58.404,-0.225,-11.418,294.18,81.192,91844.035,23.981,106.292
广西,贵港市,11.113,19.596,9.651,5.084,0.512,56.546,-10.168,0.594,299.357,82.561,97717.755,23.322,110.021
广西,贺州市,9.356,14.248,6.809,6.185,0.346,49.745,-15.559,3.555,298.458,83.604,95814.349,24.364,111.394
广西,钦州市,13.936,23.623,10.057,5.871,0.579,55.001,5.677,0.092,298.757,82.112,98471.693,22.173,109.01
广西,防城港市,18.552,28.817,10.372,4.793,0.573,56.962,7.922,-3.151,298.051,76.64,97160.77,21.88,108.002
新疆,乌鲁木齐市,20.256,38.134,3.586,16.279,0.308,61.826,0.333,0.558,285.756,26.922,84415.861,43.746,87.818
新疆,五家渠市,20.513,51.93,8.153,30.0,0.527,58.387,0.087,-0.097,292.647,19.203,96443.703,44.363,87.517
新疆,伊犁哈萨克自治州,15.046,23.86,2.814,4.859,0.343,74.148,1.336,0.256,282.117,57.737,80677.309,43.438,82.146
新疆,克孜勒苏柯尔克孜自治州,27.289,38.114,0.649,1.909,0.175,81.572,1.14,-1.253,278.399,48.963,70842.782,39.661,75.949
新疆,克拉玛依市,11.239,26.755,3.371,10.248,0.478,67.772,-0.235,-1.026,292.684,23.814,97233.688,45.457,85.207
新疆,北屯市,5.168,12.072,5.126,3.936,0.606,56.142,-0.164,-1.734,288.528,30.048,95454.016,47.27,87.868
新疆,博尔塔拉蒙古自治州,12.242,21.425,2.546,3.302,0.256,68.609,2.24,0.424,286.369,38.356,86325.859,44.714,82.114
新疆,双河市,15.35,29.048,3.286,4.944,0.24,62.744,-0.182,-2.596,294.078,22.934,97696.702,44.87,82.474
新疆,可克达拉市,20.796,46.658,5.386,13.276,0.664,55.416,0.254,0.802,291.798,33.944,94817.078,43.918,80.786
新疆,和田地区,42.537,45.788,0.416,0.757,0.141,74.733,0.504,-0.318,280.72,40.592,74237.926,37.059,80.934
新疆,哈密市,10.161,11.212,1.216,2.706,0.183,78.787,1.305,0.544,288.663,14.835,88401.637,43.042,93.517
新疆,喀什地区,62.067,73.774,0.775,2.787,0.189,70.606,0.257,0.811,282.254,39.775,76369.362,38.125,77.178
新疆,图木舒克市,97.345,97.863,1.288,1.337,0.143,52.965,1.997,1.915,292.552,23.977,89329.725,39.892,79.182
新疆,塔城地区,9.044,13.036,2.414,2.879,0.241,71.328,1.411,-0.912,287.444,36.374,89616.031,45.642,84.789
新疆,巴音郭楞蒙古自治州,25.299,27.574,0.684,0.512,0.137,72.569,1.275,-0.021,283.831,37.075,79388.43,39.463,87.481
新疆,新星市,10.195,20.04,4.305,21.895,0.58,53.225,-1.695,-0.475,292.01,11.09,92750.785,42.75,93.68
新疆,昆玉市,82.503,106.703,1.22,3.983,0.2,54.33,0.47,-0.09,291.487,26.987,87106.297,37.457,79.093
新疆,昌吉回族自治州,12.013,18.741,3.095,7.472,0.232,75.104,0.321,0.302,288.665,23.606,89940.636,44.342,88.608
新疆,石河子市,18.965,35.55,10.545,26.525,0.51,65.24,2.28,0.095,292.54,28.765,94609.63,44.245,86.035
新疆,胡杨河市,14.034,24.666,2.976,6.744,0.454,78.33,1.108,-0.042,293.286,28.926,97701.446,44.852,84.772
新疆,铁门关市,72.44,127.04,2.347,4.257,0.28,55.61,1.307,-2.447,293.467,24.777,91646.66,41.773,85.66
新疆,阿克苏地区,55.35,62.96,1.05,1.911,0.15,62.781,2.251,0.276,288.695,33.338,85436.177,40.965,81.578
新疆,阿勒泰地区,6.173,8.823,2.564,1.622,0.248,70.052,1.294,0.221,285.058,36.07,88553.607,46.902,88.421
新疆,阿拉尔市,73.887,85.068,0.879,2.758,0.159,54.968,2.983,1.934,292.84,23.882,90164.597,40.629,80.998
江苏,南京市,14.084,22.371,5.383,18.034,0.532,41.304,-4.636,-4.043,298.584,88.151,101377.378,31.899,118.876
江苏,南通市,9.178,14.066,5.018,8.64,0.292,50.447,-4.348,-2.413,298.522,92.243,101560.626,32.201,120.979
江苏,宿迁市,21.089,34.765,8.464,11.069,0.498,77.475,-5.348,-4.157,296.579,79.102,101685.764,33.765,118.495
江苏,常州市,12.409,20.964,6.231,24.97,0.612,18.798,-4.699,-2.758,299.118,90.507,101399.261,31.613,119.666
江苏,徐州市,27.979,52.679,10.905,21.609,0.636,75.48,-4.2,-2.751,295.436,74.48,101499.309,34.363,117.513
江苏,扬州市,14.104,23.538,6.38,8.102,0.407,70.801,-5.025,-4.802,297.662,86.308,101606.805,32.709,119.486
江苏,无锡市,10.85,19.972,6.828,27.136,0.588,15.636,-4.6,-2.3,299.154,91.162,101313.802,31.546,120.066
江苏,泰州市,12.845,21.172,6.355,9.576,0.409,61.941,-4.838,-3.962,297.946,88.981,101555.977,32.605,120.048
江苏,淮安市,17.574,29.179,7.608,7.806,0.428,79.926,-5.254,-4.568,296.722,81.605,101640.159,33.362,118.985
江苏,盐城市,14.868,23.028,6.226,4.113,0.323,87.591,-5.24,-4.697,297.248,82.052,101701.037,33.529,120.156
江苏,苏州市,8.519,16.287,5.719,28.727,0.456,15.246,-4.62,-1.894,299.242,92.308,101468.836,31.374,120.661
江苏,连云港市,16.444,28.996,7.474,9.358,0.376,85.46,-5.149,-4.289,295.973,75.673,101646.199,34.519,119.133
江苏,镇江市,13.566,22.24,6.058,18.653,0.534,34.441,-4.591,-3.352,298.53,90.571,101418.12,32.016,119.49
江西,上饶市,11.888,18.995,5.178,6.335,0.4,43.365,-3.863,-1.658,301.395,72.201,99008.029,28.778,117.47
江西,九江市,12.102,22.408,6.792,8.692,0.446,65.131,-5.937,-3.297,299.744,81.438,98971.238,29.313,115.444
江西,南昌市,16.761,29.739,5.849,10.479,0.579,52.265,-4.393,-3.044,302.072,72.002,100733.952,28.671,116.016
江西,吉安市,11.544,18.092,5.19,5.377,0.46,42.089,-7.402,2.09,301.696,62.799,98371.278,26.954,114.831
江西,宜春市,20.653,33.279,7.438,10.78,0.568,57.274,-6.651,-1.944,300.672,75.513,98826.947,28.29,114.974
江西,抚州市,11.412,15.774,4.977,5.793,0.365,43.329,-5.168,0.982,301.578,68.287,98517.431,27.514,116.42
江西,新余市,26.139,42.705,9.217,12.243,0.699,49.503,-6.807,-1.355,301.716,69.773,99669.536,27.847,114.836
江西,景德镇市,11.789,18.859,5.445,6.307,0.358,41.31,-3.997,-2.421,301.362,73.684,99832.857,29.287,117.24
江西,萍乡市,18.579,28.846,7.04,7.391,0.582,51.128,-9.986,0.654,300.877,65.955,97376.579,27.505,113.908
江西,赣州市,7.219,12.388,4.004,5.826,0.499,34.338,-7.952,4.22,299.955,70.87,96756.027,25.692,115.279
江西,鹰潭市,16.811,23.884,5.867,7.813,0.577,42.951,-3.282,-1.035,301.943,69.021,99473.334,28.222,117.094
河北,保定市,22.557,41.949,6.041,27.497,0.389,56.585,0.551,-0.828,291.43,30.561,98213.615,39.018,115.159
河北,唐山市,21.566,46.982,14.779,45.863,0.691,44.571,1.466,-1.801,291.433,34.68,101327.178,39.731,118.354
河北,廊坊市,23.337,51.607,5.948,42.437,0.497,43.716,0.849,-1.745,292.314,29.439,101904.241,39.267,116.632
河北,张家口市,11.428,21.075,3.24,9.12,0.24,66.806,1.494,0.124,285.363,30.428,88266.246,40.877,115.042
河北,承德市,12.694,18.887,2.638,11.46,0.244,53.198,1.818,-1.873,286.732,32.935,91504.984,41.339,117.578
河北,沧州市,34.711,65.752,10.541,37.29,0.546,66.951,0.453,-0.089,293.267,35.178,101941.074,38.258,116.744
河北,石家庄市,32.529,61.369,11.08,33.839,0.665,43.467,0.93,-0.124,292.071,43.447,98748.738,38.135,114.407
河北,秦皇岛市,17.876,34.647,8.426,33.11,0.57,46.146,0.937,-1.776,291.075,35.938,99057.002,40.12,119.193
河北,衡水市,37.22,73.541,10.411,37.206,0.651,63.803,0.256,-0.037,293.221,48.592,101815.776,37.755,115.813
河北,邢台市,43.699,89.275,14.256,42.767,1.067,41.742,0.816,-0.179,292.494,60.531,100354.998,37.195,114.815
河北,邯郸市,47.646,100.908,19.584,50.032,1.596,31.329,0.265,-1.479,291.431,70.342,99897.175,36.538,114.596
河南,三门峡市,37.662,54.302,9.404,15.871,0.667,48.198,-3.818,1.91,289.859,81.321,92203.987,34.362,111.101
河南,信阳市,42.468,62.185,10.584,14.654,0.622,55.574,-4.545,-5.088,295.342,86.606,100384.916,32.091,114.907
河南,南阳市,34.238,56.306,9.167,17.014,0.778,65.495,-3.717,-4.188,292.544,80.406,98498.885,33.034,112.323
河南,周口市,36.724,67.396,9.578,18.188,0.847,56.283,-3.621,-3.908,294.444,84.239,101300.792,33.738,114.884
河南,商丘市,40.214,70.517,10.448,20.614,0.852,66.354,-3.139,-2.885,294.649,82.457,101407.772,34.277,115.718
河南,安阳市,39.486,78.105,17.79,37.976,1.468,41.458,-0.434,-3.135,292.12,69.481,99485.834,35.888,114.318
河南,平顶山市,37.864,58.05,10.785,26.337,0.947,48.051,-2.275,-3.252,292.782,79.579,99206.187,33.8,113.025
河南,开封市,34.211,64.63,10.645,23.277,0.916,65.343,-2.349,-2.795,293.932,80.999,101117.714,34.594,114.514
河南,新乡市,34.324,63.159,13.218,29.899,1.076,56.744,-2.682,-3.369,294.239,65.34,100241.945,35.256,114.111
河南,洛阳市,39.44,57.724,9.752,21.799,0.826,46.157,-2.316,-0.196,290.059,83.493,94626.044,34.274,112.019
河南,济源市,33.661,56.771,8.405,27.716,0.96,44.962,-2.898,0.059,292.308,68.448,96480.034,35.105,112.445
河南,漯河市,36.454,66.818,10.762,23.926,0.882,51.238,-3.14,-4.046,293.838,83.623,101164.518,33.652,113.945
河南,濮阳市,32.547,71.037,15.133,33.871,0.912,56.992,-2.239,-2.963,293.228,79.32,101478.089,35.809,115.283
河南,焦作市,33.942,59.094,9.562,32.309,1.012,46.276,-3.102,-0.776,294.763,60.566,100042.188,35.121,113.163
河南,许昌市,34.134,61.615,11.517,28.391,0.985,50.715,-2.965,-3.606,293.697,78.972,100535.525,34.075,113.707
河南,郑州市,32.567,60.263,11.1,32.315,1.021,49.221,-2.828,-1.785,293.293,71.689,99276.947,34.634,113.438
河南,驻马店市,45.492,73.272,9.209,20.894,0.785,45.68,-3.538,-4.827,293.872,86.217,100783.37,32.925,114.174
河南,鹤壁市,35.601,73.589,17.809,38.268,1.453,43.324,-0.741,-4.324,293.352,63.446,100634.308,35.716,114.319
浙江,丽水市,6.31,11.468,2.906,7.018,0.254,32.936,-4.33,2.434,297.817,86.064,94535.81,28.194,119.51
浙江,台州市,6.343,14.429,4.557,10.615,0.262,20.063,-3.864,3.175,298.829,91.406,98776.35,28.742,121.109
浙江,嘉兴市,5.405,12.365,2.77,22.235,0.307,16.695,-4.446,-0.384,300.065,91.291,101425.815,30.635,120.754
浙江,宁波市,4.524,10.947,3.983,13.522,0.253,19.464,-3.644,3.537,299.625,90.759,100251.095,29.706,121.49
浙江,杭州市,9.045,15.851,5.038,15.619,0.434,27.002,-4.038,-1.127,299.054,86.877,98544.726,29.891,119.464
浙江,温州市,6.428,15.16,3.934,9.99,0.331,25.633,-4.287,1.755,298.108,93.758,97574.343,27.897,120.411
浙江,湖州市,7.171,13.916,3.387,22.516,0.415,20.75,-4.583,-1.304,299.169,91.701,100174.211,30.757,119.871
浙江,绍兴市,7.198,12.585,4.152,15.362,0.366,18.231,-3.447,2.278,299.953,82.265,99375.539,29.709,120.64
浙江,舟山市,1.328,6.51,1.39,3.278,0.09,31.49,-3.465,3.8,299.93,93.08,101273.98,30.038,122.23
浙江,衢州市,8.574,14.784,5.03,9.604,0.305,35.395,-4.169,-1.021,300.486,75.513,97702.178,28.912,118.675
浙江,金华市,8.506,14.816,4.096,12.561,0.33,22.102,-4.242,2.318,299.753,80.252,98026.55,29.109,119.967
海南,万宁市,24.662,35.389,6.5,2.349,0.319,72.716,3.478,6.151,300.728,81.472,98885.901,18.842,110.294
海南,三亚市,19.251,37.157,6.8,5.804,0.439,58.993,5.071,2.994,299.514,88.507,97728.011,18.413,109.407
海南,东方市,30.6,41.149,8.982,2.752,0.329,77.594,4.868,3.424,300.024,85.035,98271.895,18.971,108.838
海南,临高县,19.674,32.481,8.819,3.711,0.397,60.369,4.643,3.787,300.127,83.261,99323.429,19.821,109.733
海南,乐东黎族自治县,25.952,38.915,7.168,3.2,0.345,64.87,4.679,2.878,298.767,90.686,96835.906,18.659,109.072
海南,五指山市,26.948,39.198,7.858,3.356,0.342,59.158,4.428,3.95,296.718,93.49,93705.05,18.81,109.518
海南,儋州市,24.401,36.239,9.389,3.184,0.368,68.434,4.736,2.611,300.497,80.404,99015.466,19.568,109.399
海南,定安县,15.967,29.042,6.303,4.247,0.402,53.732,2.82,4.68,300.397,82.46,99091.49,19.47,110.28
海南,屯昌县,19.22,31.848,6.92,3.142,0.378,57.234,3.342,3.88,300.354,80.048,98331.952,19.342,110.076
海南,文昌市,14.14,25.054,5.495,3.196,0.324,58.7,2.479,7.089,300.398,84.81,99840.029,19.707,110.773
海南,昌江黎族自治县,29.52,40.287,9.873,3.256,0.341,76.043,4.689,3.512,299.408,84.331,97251.382,19.233,109.016
海南,海口市,12.963,25.165,6.394,5.624,0.417,50.922,3.362,6.076,300.135,84.576,99612.52,19.842,110.393
海南,澄迈县,16.329,29.53,7.403,4.627,0.424,53.331,3.631,4.124,300.163,83.063,99182.053,19.676,109.989
海南,琼中黎族苗族自治县,23.853,35.727,7.584,2.9,0.351,61.036,4.549,4.351,299.251,81.487,96222.371,19.087,109.847
海南,琼海市,19.033,30.718,6.252,2.95,0.342,63.603,2.493,5.085,301.287,78.503,99654.452,19.22,110.43
海南,白沙黎族自治县,25.799,37.586,8.762,3.004,0.351,66.864,4.892,4.014,298.826,83.514,95929.176,19.2,109.388
海南,陵水黎族自治县,24.37,37.476,7.261,4.131,0.36,63.949,4.474,3.967,300.121,83.619,98251.346,18.581,109.913
湖北,仙桃市,28.357,40.989,6.813,10.398,0.73,79.376,-5.281,-6.695,299.199,75.493,101054.334,30.284,113.417
湖北,十堰市,25.195,47.342,10.815,13.285,0.65,50.836,-2.788,-0.688,289.134,90.89,93678.066,32.462,110.476
湖北,咸宁市,21.398,33.262,6.322,9.719,0.625,80.01,-6.42,-2.924,299.677,80.55,99156.952,29.621,114.178
湖北,天门市,31.127,44.835,8.589,12.212,0.739,67.903,-4.592,-7.478,297.857,75.395,101089.543,30.633,113.053
湖北,孝感市,32.654,46.468,7.197,10.036,0.67,69.389,-5.102,-6.88,297.348,78.96,100563.518,31.116,113.869
湖北,宜昌市,34.396,48.626,9.585,18.409,0.76,51.152,-3.144,-5.051,291.658,88.527,94272.119,30.746,111.129
湖北,恩施土家族苗族自治州,24.742,36.921,10.398,9.875,0.612,56.632,-7.56,-2.297,291.391,88.018,89655.439,30.195,109.552
湖北,武汉市,24.711,37.362,6.662,12.21,0.761,78.483,-4.78,-5.194,299.741,75.701,100985.452,30.606,114.349
湖北,潜江市,32.847,47.16,8.664,14.154,0.786,67.817,-4.474,-7.892,298.002,75.146,101057.468,30.33,112.77
湖北,神农架林区,36.31,47.181,11.663,7.006,0.475,58.253,-4.851,0.839,286.733,96.106,83406.892,31.592,110.49
湖北,荆州市,32.784,49.181,8.908,16.411,0.873,65.237,-3.904,-8.247,297.614,75.823,100794.907,30.01,112.512
湖北,荆门市,38.141,53.931,10.523,17.757,0.837,52.445,-2.12,-8.007,294.866,80.443,100207.921,31.059,112.616
湖北,襄阳市,39.556,56.978,9.806,17.507,0.819,51.855,-0.848,-4.599,291.637,86.851,97691.376,31.919,111.96
湖北,鄂州市,19.363,33.599,6.921,12.773,0.764,79.903,-4.589,-2.199,300.821,74.647,100995.176,30.337,114.794
湖北,随州市,43.656,63.288,9.271,16.007,0.747,52.051,-4.696,-6.037,294.28,85.447,99590.834,31.809,113.43
湖北,黄冈市,19.132,30.856,8.854,11.614,0.565,70.209,-6.33,-3.513,299.114,78.872,99364.47,30.702,115.358
湖北,黄石市,15.881,29.059,8.04,12.232,0.658,73.891,-6.045,-1.625,299.913,80.861,100022.78,29.925,115.034
湖南,娄底市,34.039,49.785,8.493,11.404,1.071,64.617,-8.366,-5.861,297.98,81.413,96721.462,27.715,111.632
湖南,岳阳市,26.07,39.054,6.714,8.879,0.637,76.397,-7.042,-4.021,300.668,74.023,99728.913,29.081,113.275
湖南,常德市,32.848,52.124,9.8,17.836,0.948,60.656,-4.563,-9.798,295.824,79.82,99041.81,29.271,111.524
湖南,张家界市,25.24,39.743,7.824,14.823,0.78,64.892,-7.905,-7.316,293.701,84.895,95186.749,29.379,110.526
湖南,怀化市,20.946,34.773,5.581,9.181,0.803,65.289,-8.536,-7.478,295.443,83.95,95730.139,27.535,110.071
湖南,株洲市,16.177,23.285,5.478,6.212,0.479,48.064,-10.889,1.401,300.994,64.687,97396.423,27.109,113.513
湖南,永州市,17.374,17.897,5.079,6.545,0.47,41.791,-12.05,0.033,298.891,75.164,95695.231,25.748,111.723
湖南,湘潭市,36.814,54.066,7.281,13.106,0.849,65.615,-8.246,-1.925,302.06,65.245,99621.866,27.744,112.619
湖南,湘西土家族苗族自治州,22.274,36.151,5.266,10.117,0.801,65.348,-8.611,-5.715,293.952,86.35,94984.172,28.708,109.718
湖南,益阳市,35.041,56.311,8.059,13.518,1.04,64.882,-5.969,-7.443,297.577,84.246,98398.415,28.525,111.919
湖南,衡阳市,22.521,24.927,5.429,7.634,0.622,45.87,-9.782,-0.178,302.336,60.092,99000.548,26.781,112.565
湖南,邵阳市,25.318,28.595,6.841,7.04,0.658,56.881,-11.486,-4.32,297.035,81.882,94363.176,26.893,110.881
湖南,郴州市,9.669,14.366,4.042,6.44,0.893,35.273,-11.442,3.449,298.821,74.202,95065.601,25.769,113.109
湖南,长沙市,34.341,52.543,7.315,12.667,0.737,71.746,-8.305,-1.607,301.416,69.703,99145.803,28.235,113.159
甘肃,临夏回族自治州,23.485,37.701,9.616,10.572,0.489,61.524,-1.846,-0.502,283.851,77.974,77697.206,35.617,103.291
甘肃,兰州市,18.963,33.851,10.422,12.203,0.459,57.541,-3.31,-0.119,284.026,76.151,79356.103,36.359,103.633
甘肃,嘉峪关市,12.423,37.35,10.137,25.168,0.492,79.975,1.207,0.125,285.92,33.655,82005.142,39.798,98.145
甘肃,天水市,16.721,37.252,11.333,8.989,0.38,54.366,-3.563,3.425,284.643,89.394,82962.334,34.645,105.739
甘肃,定西市,22.486,43.095,12.597,5.321,0.382,66.532,-3.242,3.997,283.129,86.915,77505.927,35.124,104.432
甘肃,平凉市,15.012,32.241,9.816,13.075,0.454,48.623,-1.42,2.565,285.204,80.036,84859.796,35.304,106.644
甘肃,庆阳市,17.142,32.96,11.474,13.785,0.549,40.292,-1.83,2.184,285.023,75.899,86191.466,36.149,107.596
甘肃,张掖市,14.037,17.535,3.972,3.524,0.187,74.562,0.098,-0.892,279.861,72.781,75021.446,38.94,99.855
甘肃,武威市,21.8,27.738,11.153,4.199,0.267,67.471,-0.863,-0.351,285.118,64.188,81669.877,38.163,103.073
甘肃,甘南藏族自治州,25.426,31.237,6.691,1.985,0.264,78.84,-2.271,3.114,280.677,88.253,67919.761,34.331,102.768
甘肃,白银市,16.507,34.427,14.223,7.829,0.427,61.084,-1.731,2.453,284.761,75.494,81759.499,36.59,104.646
甘肃,酒泉市,9.814,11.061,1.673,1.633,0.146,77.249,1.048,-0.712,283.879,29.304,79412.529,40.236,96.062
甘肃,金昌市,14.097,21.675,7.489,4.596,0.218,74.457,0.929,-2.001,284.519,67.171,80913.329,38.44,102.048
甘肃,陇南市,21.729,41.6,15.302,7.052,0.427,49.843,-2.634,2.67,284.58,95.59,82481.177,33.599,105.224
福建,三明市,10.127,16.289,6.355,7.653,0.393,31.86,-4.597,2.37,298.492,77.089,95007.76,26.29,117.395
福建,南平市,8.141,11.957,3.226,4.473,0.267,40.849,-2.907,0.652,299.228,79.095,95797.134,27.324,118.143
福建,厦门市,16.772,35.042,9.007,17.903,0.427,35.538,-3.475,-0.065,300.237,80.517,100066.535,24.642,118.11
福建,宁德市,4.781,10.413,1.755,3.243,0.164,40.514,-4.093,-0.093,297.475,92.246,95218.625,26.968,119.474
福建,泉州市,14.837,29.088,7.25,12.975,0.37,37.546,-2.493,1.372,298.336,82.859,96426.821,25.201,118.249
福建,漳州市,8.59,17.279,3.591,9.192,0.265,36.191,-6.072,1.959,298.326,89.725,97920.665,24.372,117.444
福建,福州市,9.062,21.259,5.043,8.598,0.298,46.555,-2.173,-1.992,298.785,89.66,97195.7,26.083,119.206
福建,莆田市,14.188,29.748,6.95,11.833,0.368,48.758,-0.089,-0.629,299.828,79.284,97917.515,25.445,118.864
福建,龙岩市,7.208,11.332,4.472,7.595,0.28,29.043,-6.488,4.296,298.216,76.769,94915.339,25.256,116.739
西藏,山南市,15.293,16.654,1.21,1.443,0.179,117.928,1.621,2.228,282.649,61.138,66304.114,28.295,92.274
西藏,拉萨市,5.196,6.921,0.635,2.69,0.158,100.909,3.227,4.004,278.307,49.629,56890.224,30.043,91.093
西藏,日喀则市,5.23,5.627,0.396,0.687,0.151,98.662,4.77,3.562,275.353,46.405,55631.553,29.483,86.493
西藏,昌都市,7.773,9.277,0.507,0.938,0.142,126.086,2.874,5.054,278.957,61.064,59420.372,30.753,97.044
西藏,林芝市,12.511,13.138,0.898,1.304,0.152,117.689,-0.165,1.885,281.862,76.58,66602.181,29.184,95.25
西藏,玉树藏族自治州,7.872,8.113,0.322,0.456,0.151,82.106,1.872,2.459,276.667,67.261,57560.939,34.196,94.317
西藏,那曲市,8.375,8.785,0.221,0.276,0.151,83.727,4.597,2.019,276.294,46.599,55697.285,32.709,89.262
西藏,阿里地区,5.578,5.722,0.204,0.328,0.144,87.584,5.72,0.286,271.84,37.889,55058.843,33.013,82.553
贵州,六盘水市,12.96,22.606,9.097,9.413,0.454,62.881,-0.74,-12.358,288.02,85.98,82897.191,26.106,104.896
贵州,安顺市,16.749,28.455,10.315,8.167,0.457,59.995,-2.557,-13.918,290.827,83.385,87685.891,25.986,105.978
贵州,毕节市,10.156,20.314,8.362,7.448,0.536,59.61,0.966,-8.904,286.23,96.351,83411.333,27.063,105.211
贵州,贵阳市,14.174,22.836,5.861,12.139,0.523,43.531,-0.739,-10.183,289.359,96.04,87896.298,26.845,106.71
贵州,遵义市,25.423,36.747,12.889,10.875,0.465,41.515,-1.961,-6.119,290.515,94.998,90239.803,28.167,107.102
贵州,铜仁市,23.223,39.832,13.419,7.442,0.586,63.49,-7.492,-6.493,292.718,90.071,92430.316,27.937,108.534
贵州,黔东南苗族侗族自治州,18.598,30.401,15.182,7.172,0.467,62.778,-8.043,-9.102,293.342,90.484,91984.218,26.495,108.574
贵州,黔南布依族苗族自治州,16.39,26.359,12.508,7.282,0.439,56.181,-5.367,-11.32,292.328,88.473,89698.929,26.0,107.265
贵州,黔西南布依族苗族自治州,19.065,31.945,14.107,6.91,0.438,62.918,-1.16,-13.428,291.417,81.726,87977.777,25.256,105.467
辽宁,丹东市,15.541,27.548,8.209,14.128,0.572,55.08,1.25,-1.946,289.764,53.071,98913.362,40.554,124.376
辽宁,大连市,17.381,32.478,8.602,17.132,0.568,77.448,3.004,0.1,292.916,59.076,101111.408,39.591,122.22
辽宁,抚顺市,16.862,30.221,8.809,18.326,0.63,46.64,2.115,0.191,288.199,55.816,97223.379,41.841,124.65
辽宁,朝阳市,15.116,30.7,8.115,18.359,0.459,51.49,2.28,-1.39,290.36,31.25,96789.594,41.545,120.053
辽宁,本溪市,16.212,29.589,8.644,17.625,0.696,48.086,2.159,-1.221,288.746,53.777,96589.939,41.232,124.544
辽宁,沈阳市,20.923,39.058,12.262,33.419,0.642,43.182,0.511,0.149,290.497,49.864,101256.354,42.081,123.159
辽宁,盘锦市,19.935,38.951,12.005,29.446,0.611,55.732,1.669,-0.424,291.546,47.229,101885.224,41.13,122.01
辽宁,营口市,19.513,37.005,8.772,20.6,0.578,70.45,2.734,0.821,291.693,59.464,99738.411,40.395,122.478
辽宁,葫芦岛市,17.672,34.6,10.495,24.909,0.538,51.639,2.434,-1.34,291.555,34.618,99456.459,40.66,120.215
辽宁,辽阳市,23.866,49.557,13.538,31.628,1.014,48.271,1.249,1.146,290.827,57.069,99932.906,41.153,123.261
辽宁,铁岭市,16.223,28.88,7.804,21.404,0.524,46.411,1.541,1.14,288.87,52.933,99736.553,42.653,124.158
辽宁,锦州市,17.395,32.799,9.847,26.706,0.466,51.643,1.525,-0.994,291.973,40.091,101083.722,41.502,121.659
辽宁,阜新市,12.022,18.756,4.008,15.18,0.285,52.253,1.75,-1.02,291.474,39.595,99637.56,42.289,121.968
辽宁,鞍山市,19.757,38.846,9.312,23.737,0.699,59.538,2.414,0.068,291.513,53.816,99991.835,40.731,123.007
重庆,重庆城区,24.312,37.87,11.833,16.355,0.553,32.882,-1.723,-1.666,293.096,85.566,94876.619,29.824,107.125
重庆,重庆郊县,24.755,37.362,13.854,8.346,0.483,52.119,-5.982,-1.945,292.311,84.584,91142.946,30.334,108.755
陕西,咸阳市,20.54,35.102,8.278,26.851,0.698,34.982,-3.88,1.151,291.057,63.719,91742.837,34.779,108.367
陕西,商洛市,29.684,51.05,10.756,11.606,0.566,43.234,-2.404,0.637,287.533,92.886,89771.477,33.64,109.889
陕西,安康市,25.977,42.868,11.053,12.336,0.575,37.715,-5.265,0.452,288.297,90.784,90218.891,32.735,108.932
陕西,宝鸡市,19.191,34.627,6.996,16.161,0.464,45.228,-2.404,1.593,286.835,82.848,86687.016,34.386,107.193
陕西,延安市,25.553,41.584,10.773,24.609,0.807,26.175,-1.742,1.29,285.31,74.411,88009.477,36.432,109.316
陕西,榆林市,24.415,49.675,14.387,31.402,0.733,27.769,-1.96,1.453,284.477,55.478,88406.715,38.041,109.581
陕西,汉中市,19.89,35.426,10.406,10.778,0.545,37.63,-4.894,0.418,288.301,89.767,89217.724,33.088,107.098
陕西,渭南市,24.781,40.404,7.741,25.676,0.797,34.751,-3.653,0.096,292.442,66.884,94099.802,34.919,109.855
陕西,西安市,24.832,40.328,8.079,22.41,0.64,34.086,-2.67,2.23,290.387,74.978,90814.522,34.12,108.77
陕西,铜川市,24.872,41.067,10.071,25.12,0.88,32.758,-3.682,1.441,289.113,71.797,89544.709,35.198,109.058
青海,保亭黎族苗族自治县,22.498,38.35,7.9,6.22,0.406,57.984,5.208,2.918,298.646,88.072,96158.102,18.566,109.618
青海,吐鲁番市,29.571,34.354,1.85,3.501,0.179,69.016,0.908,0.468,290.913,17.68,90325.514,42.386,89.851
青海,果洛藏族自治州,7.824,8.155,0.617,0.749,0.15,92.218,1.161,3.469,279.03,73.523,60296.769,34.127,99.404
青海,海东市,30.913,36.452,12.172,8.075,0.354,61.688,-3.114,0.107,280.161,88.193,73064.596,36.347,102.34
青海,海北藏族自治州,18.42,20.719,4.68,2.483,0.187,77.448,-1.982,0.398,274.248,93.733,65722.592,37.775,100.288
青海,海南藏族自治州,16.853,18.71,3.725,1.993,0.193,71.172,-1.47,-0.638,277.874,88.739,66790.639,35.89,100.272
青海,海西蒙古族藏族自治州,13.907,14.172,0.598,0.423,0.136,75.792,1.58,-0.507,276.792,54.867,64832.379,36.677,94.519
青海,西宁市,24.414,32.387,9.309,11.262,0.528,62.694,-1.68,-0.052,277.693,91.314,69901.435,36.842,101.423
青海,黄南藏族自治州,21.249,22.74,4.282,1.67,0.214,75.407,-2.287,1.374,279.377,91.012,66106.916,35.022,101.631
香港,香港特别行政区,2.33,14.54,1.795,5.285,0.145,38.4,-11.185,8.595,300.445,88.53,100050.86,22.45,114.22
黑龙江,七台河市,9.224,26.657,4.063,7.462,0.256,56.722,9.005,0.466,286.794,53.845,98049.837,45.87,130.943
黑龙江,伊春市,5.872,8.591,1.877,2.325,0.208,54.01,7.766,-0.808,284.244,53.276,96517.427,47.772,129.184
黑龙江,佳木斯市,6.314,11.711,2.754,4.316,0.236,55.164,7.515,0.669,286.487,53.885,99764.392,47.207,132.11
黑龙江,双鸭山市,7.044,11.325,3.611,5.266,0.232,55.872,7.846,0.921,287.07,54.64,99366.789,46.722,132.643
黑龙江,哈尔滨市,8.773,16.382,4.944,10.138,0.292,49.752,6.469,1.103,286.791,53.768,98608.859,45.634,127.964
黑龙江,大兴安岭地区,1.874,1.985,0.801,0.813,0.2,65.759,6.897,-3.596,281.185,59.701,94673.493,52.286,124.212
黑龙江,大庆市,5.002,8.596,2.604,4.752,0.214,53.689,5.77,-1.005,289.383,44.405,99969.827,46.327,124.687
黑龙江,牡丹江市,9.522,15.702,4.524,7.445,0.222,54.448,7.778,0.174,285.713,54.258,95517.73,44.592,129.883
黑龙江,绥化市,6.785,10.716,2.882,5.4,0.244,50.722,6.588,-0.925,287.265,48.485,99046.65,46.89,126.634
黑龙江,鸡西市,8.61,15.085,4.171,6.787,0.229,55.599,7.964,0.624,287.761,52.825,99244.709,45.626,132.289
黑龙江,鹤岗市,6.098,10.846,2.818,3.791,0.248,55.26,7.783,-0.83,286.012,50.102,98794.397,47.661,130.778
黑龙江,黑河市,4.148,5.869,1.403,1.62,0.2,55.719,6.981,-1.871,284.207,50.559,96894.429,49.268,127.004
黑龙江,齐齐哈尔市,5.245,7.078,2.44,2.861,0.199,55.375,6.069,-1.847,288.072,45.146,99051.803,47.715,124.57
