province,city,PM2.5,PM10,SO2,NO2,CO,O3,U,V,TEMP,RH,PSFC,lat,lon
上海,上海市,14.581,28.527,5.127,33.702,0.498,57.386,0.347,-2.414,298.312,84.849,101307.569,31.173,121.42
云南,临沧市,16.087,26.89,5.125,3.741,0.357,37.295,-0.777,1.35,292.543,88.208,83856.983,23.935,99.686
云南,丽江市,15.813,23.329,6.398,5.25,0.522,44.501,0.741,2.026,287.677,84.028,74791.218,26.96,100.515
云南,保山市,14.295,24.654,3.902,4.444,0.319,42.475,0.265,0.39,291.382,87.263,81862.171,24.953,98.962
云南,大理白族自治州,16.254,26.294,4.73,3.814,0.397,47.866,0.717,1.903,289.496,86.906,78189.908,25.726,100.053
云南,德宏傣族景颇族自治州,18.263,24.177,4.288,3.921,0.269,44.527,-0.215,0.029,293.544,87.537,85964.068,24.535,98.052
云南,怒江傈僳族自治州,18.548,23.749,2.39,1.492,0.219,54.966,0.921,1.414,285.557,90.402,72948.017,26.916,98.885
云南,文山壮族苗族自治州,29.744,40.612,8.574,4.43,0.402,71.509,-3.501,-0.114,292.279,89.045,86522.504,23.696,104.735
云南,昆明市,22.345,36.581,7.794,13.553,0.574,54.848,-2.234,4.423,289.715,88.7,79347.867,25.384,102.863
云南,昭通市,22.744,41.704,12.028,11.038,0.727,48.678,-1.25,-0.933,288.961,95.01,84198.318,27.667,103.985
云南,普洱市,20.353,38.172,7.746,2.782,0.368,44.33,-1.725,1.758,293.395,88.23,85891.671,23.159,100.718
云南,曲靖市,23.531,35.435,9.149,9.243,0.52,63.478,-2.155,4.323,289.624,89.393,80152.5,25.737,103.929
云南,楚雄彝族自治州,24.13,41.913,9.658,6.971,0.637,51.833,-0.192,3.621,290.991,88.294,81032.821,25.328,101.567
云南,玉溪市,24.733,39.421,7.461,5.867,0.402,67.063,-2.404,2.788,291.951,87.672,83488.883,24.136,102.217
云南,红河哈尼族彝族自治州,27.408,38.285,8.054,3.942,0.359,74.772,-3.341,1.463,292.459,87.014,85137.985,23.451,103.034
云南,西双版纳傣族自治州,14.579,33.352,7.95,2.952,0.507,40.858,-2.513,0.862,295.056,85.85,88793.523,21.939,100.912
云南,迪庆藏族自治州,16.887,19.867,2.882,1.738,0.258,58.748,2.612,2.558,282.541,87.735,67521.993,27.957,99.459
内蒙古,乌兰察布市,23.227,33.277,13.153,8.564,0.397,67.546,4.386,1.675,286.759,69.714,86212.86,41.691,112.44
内蒙古,乌海市,22.566,61.184,11.074,11.91,0.319,67.881,2.71,-2.134,289.216,52.28,87953.766,39.396,106.856
内蒙古,兴安盟,12.531,15.248,4.09,2.854,0.264,60.53,0.61,1.906,288.325,57.398,94621.382,46.244,121.341
内蒙古,包头市,21.924,29.417,9.949,8.596,0.34,63.753,3.075,0.354,285.688,70.136,86208.484,41.549,110.276
内蒙古,呼伦贝尔市,6.544,7.559,2.565,1.832,0.198,52.963,3.032,1.188,283.589,68.338,93315.527,49.636,121.171
内蒙古,呼和浩特市,25.974,42.861,11.877,13.408,0.547,71.128,1.944,1.261,287.538,69.462,86555.357,40.578,111.513
内蒙古,巴彦淖尔市,18.165,22.017,5.521,2.751,0.222,62.528,1.384,-2.24,286.427,58.612,87644.493,41.446,107.582
内蒙古,赤峰市,31.786,44.272,11.481,6.613,0.393,80.004,2.698,2.743,290.608,59.181,91915.904,43.226,118.892
内蒙古,通辽市,34.082,48.699,11.819,6.942,0.458,89.502,0.108,4.284,292.945,62.113,97695.429,43.814,121.591
内蒙古,鄂尔多斯市,25.767,37.689,10.215,7.114,0.349,70.503,1.937,-0.375,288.806,61.606,87253.331,39.407,108.63
内蒙古,锡林郭勒盟,22.523,29.011,10.959,3.966,0.26,61.928,3.236,1.912,286.421,68.437,89108.523,44.179,115.482
内蒙古,阿拉善盟,34.055,35.235,1.546,0.962,0.158,65.606,3.254,-4.285,285.964,38.076,88077.87,40.473,102.467
北京,北京市,73.548,98.193,7.548,29.891,0.827,90.092,0.595,2.187,294.233,67.149,97782.516,40.158,116.395
台湾,台湾省,5.097,7.586,3.118,11.069,0.102,29.668,-4.377,-3.133,297.406,65.409,92519.459,23.757,120.975
吉林,吉林市,29.955,43.665,9.1,10.063,0.489,77.5,0.806,4.301,291.763,78.201,97323.731,43.573,126.859
吉林,四平市,30.9,51.465,10.002,17.297,0.693,75.369,0.923,6.255,293.271,75.304,99370.811,43.472,124.386
吉林,延边朝鲜族自治州,23.127,30.003,8.858,5.441,0.325,61.865,2.459,1.582,290.724,73.089,94546.969,43.141,129.147
吉林,松原市,30.188,45.557,10.859,10.71,0.484,73.091,0.042,4.353,292.446,67.964,99643.434,44.785,124.496
吉林,白城市,22.473,29.509,7.762,6.063,0.368,71.333,-1.049,2.465,292.683,55.748,99626.599,45.35,123.031
吉林,白山市,23.458,33.492,9.878,8.357,0.517,60.334,-0.849,2.502,289.359,73.262,92715.137,42.063,127.256
吉林,辽源市,25.96,38.64,8.456,12.585,0.565,69.508,1.455,4.886,292.46,75.841,97658.509,42.836,125.32
吉林,通化市,22.251,37.564,10.239,11.828,0.646,51.987,-0.387,2.865,290.927,75.426,96001.864,41.939,125.927
吉林,长春市,30.678,49.797,7.694,14.173,0.58,72.512,1.533,4.743,292.763,74.497,99300.699,44.268,125.611
四川,乐山市,29.43,41.962,9.44,13.837,0.673,37.074,-0.995,-1.338,289.627,95.391,89623.322,29.218,103.569
四川,内江市,15.93,24.49,6.593,11.745,0.581,46.107,-0.858,-2.737,292.537,90.025,96600.677,29.62,104.95
四川,凉山彝族自治州,23.244,36.075,14.54,7.933,0.655,52.855,-0.128,2.831,286.154,90.442,74365.399,27.883,102.065
四川,南充市,15.487,25.524,8.631,13.793,0.579,44.073,-1.345,-2.44,291.817,89.218,96632.964,31.19,106.199
四川,宜宾市,21.269,33.877,7.767,15.322,0.69,41.571,-0.002,-1.926,292.371,92.423,94978.479,28.573,104.621
四川,巴中市,25.126,34.944,9.141,9.758,0.519,43.731,-2.446,-1.86,290.079,87.299,92434.832,32.033,107.031
四川,广元市,21.087,32.924,11.72,9.167,0.527,40.345,-0.8,-1.494,289.468,87.837,91581.283,32.261,105.788
四川,广安市,15.141,27.784,6.978,16.673,0.648,41.356,-1.531,-2.769,292.068,92.284,96605.385,30.43,106.628
四川,德阳市,16.107,30.137,6.745,15.09,0.569,42.033,-1.65,-1.655,290.807,90.773,93137.297,31.13,104.436
四川,成都市,18.91,32.166,8.054,17.202,0.588,42.058,-1.438,-0.793,291.289,90.037,93274.354,30.64,103.929
四川,攀枝花市,24.415,42.314,34.259,19.784,1.302,35.356,-0.288,3.15,291.877,82.653,81524.173,26.791,101.734
四川,泸州市,24.328,37.197,7.088,15.767,0.552,38.29,0.742,-1.381,292.414,91.926,93355.422,28.424,105.675
四川,甘孜藏族自治州,16.092,18.216,2.609,1.257,0.193,84.312,1.808,4.9,278.121,84.405,61478.25,30.936,100.009
四川,眉山市,19.813,30.669,8.087,14.452,0.598,41.029,-1.07,-1.017,291.348,92.375,93724.06,29.912,103.766
四川,绵阳市,22.547,33.145,8.773,8.641,0.461,52.717,-0.933,-1.394,288.057,90.256,88032.296,31.86,104.704
四川,自贡市,20.063,27.454,6.816,14.769,0.621,43.099,-0.601,-2.09,292.944,89.367,96577.388,29.307,104.659
四川,资阳市,14.009,23.528,6.861,8.918,0.544,49.302,-1.366,-2.469,292.394,90.027,96848.18,30.102,105.149
四川,达州市,23.496,35.973,10.139,21.228,0.567,49.604,-2.153,-0.958,291.122,91.193,93979.434,31.335,107.636
四川,遂宁市,13.603,23.297,7.191,11.041,0.537,48.327,-1.519,-2.256,292.514,88.491,97084.147,30.642,105.457
四川,阿坝藏族羌族自治州,20.4,26.991,6.691,2.459,0.264,67.613,-0.94,3.376,278.33,88.159,65795.644,32.406,102.61
四川,雅安市,28.566,45.253,14.766,10.529,0.546,52.862,-1.148,0.101,285.23,96.729,80220.545,29.932,102.689
天津,天津市,72.228,103.906,12.065,43.716,0.96,95.319,-0.182,2.156,296.828,66.577,101386.769,39.315,117.308
宁夏,中卫市,38.797,53.017,5.641,4.558,0.24,62.279,2.555,-3.855,286.85,54.782,83913.582,37.018,105.509
宁夏,吴忠市,32.213,49.094,9.512,7.371,0.273,67.498,1.05,-2.175,287.997,60.581,85394.835,37.454,106.577
宁夏,固原市,32.483,52.029,8.087,7.181,0.303,70.675,0.07,-2.937,285.042,74.165,81292.173,35.905,106.183
宁夏,石嘴山市,22.95,50.615,8.604,11.514,0.321,66.508,3.418,-3.631,288.7,52.673,87049.333,39.013,106.499
宁夏,银川市,25.146,49.761,8.534,13.942,0.351,67.218,0.248,-2.073,289.483,53.351,87325.343,38.287,106.342
安徽,亳州市,25.364,39.976,6.67,13.708,0.493,66.659,-1.341,-1.285,295.942,82.968,101184.998,33.44,116.162
安徽,六安市,29.216,44.743,5.77,16.362,0.454,69.531,-1.039,-1.405,296.437,78.492,98718.897,31.617,116.209
安徽,合肥市,28.421,46.16,5.419,25.961,0.592,62.262,-1.191,-2.247,297.704,75.913,101004.355,31.766,117.359
安徽,安庆市,31.799,47.364,7.065,11.526,0.569,81.91,-2.267,-3.34,297.797,77.03,99079.74,30.557,116.473
安徽,宣城市,29.051,42.143,5.149,18.844,0.535,69.51,-2.145,-1.372,297.876,79.804,99013.992,30.676,118.846
安徽,宿州市,23.357,33.806,5.627,16.414,0.45,68.126,-2.173,-1.396,295.612,85.338,101148.554,33.844,117.23
安徽,池州市,32.439,47.31,7.892,13.948,0.601,72.395,-2.294,-2.701,298.14,78.607,99218.74,30.296,117.379
安徽,淮北市,25.46,38.404,8.186,19.424,0.492,67.018,-1.74,-1.365,295.797,85.237,101192.022,33.722,116.747
安徽,淮南市,30.226,48.765,8.33,24.008,0.502,54.264,-0.891,-1.688,296.754,78.645,101206.013,32.463,116.746
安徽,滁州市,24.777,36.851,4.575,15.523,0.399,64.865,-0.874,-1.838,296.991,79.943,100923.725,32.55,118.076
安徽,芜湖市,36.832,55.99,7.317,29.894,0.789,70.586,-1.934,-2.316,298.407,78.502,101129.713,31.167,118.162
安徽,蚌埠市,30.531,42.592,5.707,17.598,0.447,63.528,-1.148,-1.367,296.028,84.702,101201.963,33.121,117.263
安徽,铜陵市,37.724,56.122,8.087,26.008,0.733,70.444,-2.107,-3.0,298.395,77.443,100980.846,30.883,117.531
安徽,阜阳市,25.721,45.939,7.7,14.83,0.491,57.485,-1.114,-1.059,295.757,83.0,101156.772,32.937,115.723
安徽,马鞍山市,31.31,49.951,6.426,30.359,0.706,67.609,-1.78,-2.432,298.069,77.689,101149.857,31.622,118.386
安徽,黄山市,24.714,39.559,7.378,8.712,0.514,61.176,-2.99,-1.816,297.72,79.966,97065.13,29.869,118.09
山东,东营市,32.156,57.62,13.211,27.843,0.579,86.054,-2.423,2.064,296.568,68.75,101499.01,37.57,118.572
山东,临沂市,21.993,44.465,5.846,22.454,0.404,65.011,-2.066,-0.927,293.546,83.485,99789.6,35.289,118.27
山东,威海市,18.018,34.212,6.343,14.754,0.433,96.396,-2.999,-1.287,295.104,83.959,100923.515,37.148,122.028
山东,德州市,53.259,91.865,10.486,33.188,0.671,92.219,0.306,0.073,296.924,65.402,101352.127,37.233,116.679
山东,日照市,19.105,39.564,3.295,20.436,0.347,64.432,-1.432,-1.704,293.65,88.284,99898.777,35.566,119.108
山东,枣庄市,24.832,50.861,9.622,23.874,0.401,65.471,-3.426,0.118,294.789,78.008,100480.098,34.925,117.383
山东,泰安市,37.301,68.512,9.671,29.268,0.64,65.199,-2.07,1.226,295.302,68.207,99670.344,35.993,117.04
山东,济南市,43.486,78.699,10.963,34.625,0.709,75.087,-0.155,1.354,296.514,62.487,99627.722,36.639,117.254
山东,济宁市,27.442,48.356,8.537,23.6,0.542,68.59,-2.371,1.297,295.97,69.838,100896.932,35.375,116.697
山东,淄博市,31.126,57.261,11.22,30.751,0.799,70.941,-1.167,1.953,296.009,60.867,99036.948,36.623,118.062
山东,滨州市,40.915,68.362,15.022,34.203,0.785,89.3,-1.661,1.104,297.536,61.927,101417.641,37.516,117.852
山东,潍坊市,26.73,59.698,6.94,28.203,0.53,65.217,-1.355,1.623,294.664,78.043,100464.417,36.53,119.092
山东,烟台市,25.282,50.167,6.532,22.456,0.524,86.438,-1.874,-0.019,294.159,80.631,100456.938,37.25,120.789
山东,聊城市,33.406,63.487,7.008,25.995,0.558,81.682,-0.132,-0.001,296.169,69.774,101154.657,36.458,115.863
山东,菏泽市,21.173,35.907,6.084,16.418,0.612,88.234,-0.858,-0.045,295.881,79.162,101028.121,35.134,115.69
山东,青岛市,24.771,55.858,4.88,29.084,0.472,71.978,-1.791,-1.198,294.087,88.304,101007.145,36.46,120.172
山西,临汾市,36.684,55.628,6.693,15.812,0.708,74.999,-0.257,0.411,290.023,82.44,90190.212,36.227,111.398
山西,吕梁市,40.299,63.827,12.673,22.665,0.695,55.12,-0.341,1.319,289.004,77.497,87874.824,37.663,111.27
山西,大同市,31.77,53.777,12.846,13.489,0.625,75.236,1.823,2.84,289.689,62.356,87474.905,39.911,113.713
山西,太原市,48.019,89.332,11.787,39.549,0.899,38.282,-0.41,1.073,288.804,74.15,87795.324,37.967,112.321
山西,忻州市,41.494,66.798,13.544,17.729,0.665,62.675,0.169,2.296,288.201,70.266,86356.058,38.877,112.391
山西,晋中市,46.888,69.624,9.904,23.882,0.805,59.797,-0.492,1.146,289.324,77.538,88693.782,37.328,112.997
山西,晋城市,34.036,55.751,6.074,18.69,0.705,69.195,-0.894,1.188,290.063,89.517,90565.83,35.625,112.752
山西,朔州市,31.641,55.83,12.813,15.691,0.675,67.709,2.007,2.785,289.218,63.895,86812.556,39.619,112.655
山西,运城市,28.514,50.018,5.249,23.112,0.741,67.502,-0.51,0.098,292.758,73.65,94240.679,35.205,111.071
山西,长治市,38.123,57.488,7.776,19.269,0.871,70.924,-1.012,0.092,288.966,86.277,88963.025,36.48,112.915
山西,阳泉市,45.719,72.369,14.911,28.311,0.893,50.417,-1.068,0.951,290.799,71.106,90535.966,38.031,113.512
广东,东莞市,25.1,40.734,7.243,28.858,0.574,54.471,-2.439,-2.272,301.78,74.306,100619.806,22.931,113.81
广东,中山市,24.744,40.923,6.399,28.101,0.55,80.979,-2.71,-2.596,301.698,77.29,100615.957,22.5,113.383
广东,云浮市,22.729,36.115,8.067,19.481,0.51,48.134,-2.512,-2.507,300.407,76.686,98711.019,22.776,111.818
广东,佛山市,26.949,46.03,10.233,36.334,0.663,57.475,-1.849,-3.559,302.091,72.405,100673.328,23.035,112.979
广东,广州市,24.665,38.252,6.987,25.713,0.532,49.054,-1.844,-3.294,301.774,72.888,99799.971,23.339,113.525
广东,惠州市,21.45,33.426,6.521,13.565,0.461,50.3,-2.25,-2.695,300.632,77.285,98846.209,23.244,114.485
广东,揭阳市,22.816,43.35,10.587,15.527,0.741,61.843,-3.367,-3.356,300.656,76.006,99406.977,23.323,116.123
广东,梅州市,17.501,32.973,7.02,13.356,0.656,45.869,-2.336,-2.747,300.339,74.578,97465.375,24.169,116.07
广东,汕头市,19.907,35.336,10.735,15.638,0.623,63.342,-4.303,-4.399,300.708,76.123,100490.426,23.339,116.614
广东,汕尾市,19.717,35.008,7.62,11.813,0.555,62.085,-2.958,-2.648,300.444,78.513,99147.645,23.024,115.527
广东,江门市,25.297,41.139,8.377,24.275,0.501,76.073,-2.629,-3.256,301.097,79.034,100079.88,22.289,112.676
广东,河源市,21.331,33.652,6.359,10.956,0.502,45.581,-1.798,-4.064,300.256,76.995,97664.237,24.021,114.969
广东,深圳市,21.811,36.533,7.463,27.854,0.527,60.523,-2.892,-1.807,300.927,79.734,100144.217,22.667,114.143
广东,清远市,26.39,36.755,7.107,12.178,0.501,53.614,-1.864,-4.293,300.144,74.302,97251.44,24.295,112.871
广东,湛江市,13.738,23.584,6.503,6.957,0.376,46.323,-4.405,0.063,300.638,81.006,100489.194,21.091,110.163
广东,潮州市,16.423,29.969,7.464,12.821,0.639,53.695,-3.91,-4.642,300.654,69.34,98864.36,23.755,116.754
广东,珠海市,24.178,37.437,8.23,19.235,0.407,101.057,-2.927,-1.967,300.873,84.14,100690.008,22.095,113.317
广东,肇庆市,22.932,35.075,6.37,17.585,0.473,46.981,-2.307,-3.08,301.085,72.543,98822.498,23.505,112.199
广东,茂名市,15.443,25.688,7.448,9.708,0.424,49.764,-4.244,-1.799,300.482,75.612,98760.693,22.013,110.952
广东,阳江市,19.95,31.209,7.541,14.124,0.417,57.116,-3.285,-3.36,300.563,78.747,99266.825,22.042,111.786
广东,韶关市,27.157,37.075,7.834,9.103,0.65,55.51,-2.487,-4.579,299.781,75.181,96498.278,24.785,113.819
广西,北海市,15.84,28.179,7.015,9.418,0.572,38.52,-4.832,0.104,301.37,75.096,100537.942,21.674,109.37
广西,南宁市,25.405,36.453,8.215,10.4,0.601,54.88,-4.426,-1.145,300.522,74.091,98805.641,23.051,108.469
广西,崇左市,24.331,35.627,8.129,6.936,0.496,63.643,-5.258,-2.232,299.275,78.927,97521.411,22.483,107.291
广西,来宾市,28.364,38.973,7.895,7.351,0.526,59.323,-3.673,-1.51,300.411,72.311,97695.25,23.859,109.417
广西,柳州市,42.429,51.938,10.691,6.581,0.571,72.145,-3.165,-2.268,300.031,69.55,97154.719,24.956,109.372
广西,桂林市,50.686,60.598,12.373,6.929,0.563,85.666,-3.806,-2.899,298.769,73.598,95599.454,25.353,110.513
广西,梧州市,24.31,38.625,9.066,12.023,0.551,48.158,-2.953,-2.362,300.607,73.722,98474.286,23.484,110.996
广西,河池市,34.262,46.232,9.113,6.012,0.543,52.092,-3.759,-1.275,298.018,76.715,94892.998,24.628,107.843
广西,玉林市,21.345,33.639,9.658,11.317,0.592,48.791,-4.129,-1.76,300.466,73.997,98844.005,22.452,110.164
广西,百色市,30.418,42.243,9.645,5.076,0.587,68.361,-3.04,-0.92,296.326,82.046,92858.358,23.981,106.292
广西,贵港市,23.702,38.302,10.255,10.158,0.606,55.797,-3.722,-1.844,301.04,72.548,99290.108,23.322,110.021
广西,贺州市,30.924,42.806,8.482,7.866,0.482,58.432,-2.713,-3.472,299.783,73.979,96741.109,24.364,111.394
广西,钦州市,20.022,31.797,7.115,9.68,0.672,43.606,-4.758,-0.68,300.918,74.32,99863.444,22.173,109.01
广西,防城港市,23.254,33.685,7.768,7.509,0.58,56.591,-5.319,-0.683,299.337,83.078,98300.136,21.88,108.002
新疆,乌鲁木齐市,15.068,20.731,2.401,7.884,0.228,74.798,-0.179,-1.158,279.86,26.459,85048.378,43.746,87.818
新疆,五家渠市,15.123,19.19,2.91,6.23,0.217,63.063,-4.303,0.123,286.393,21.063,97493.893,44.363,87.517
新疆,伊犁哈萨克自治州,6.948,11.956,1.465,3.668,0.218,83.827,-1.664,0.751,280.993,38.405,80916.458,43.438,82.146
新疆,克孜勒苏柯尔克孜自治州,21.604,34.139,1.022,1.234,0.151,66.786,-2.288,1.275,274.483,87.158,70906.665,39.661,75.949
新疆,克拉玛依市,8.848,15.013,3.306,5.134,0.271,69.535,-2.881,-0.931,286.436,24.005,98358.208,45.457,85.207
新疆,北屯市,5.72,7.764,7.526,3.822,0.474,34.086,1.162,-0.17,283.166,31.818,96517.94,47.27,87.868
新疆,博尔塔拉蒙古自治州,10.35,14.927,3.848,4.131,0.202,77.562,-1.425,0.316,280.26,38.417,87016.173,44.714,82.114
新疆,双河市,11.966,18.178,5.626,6.344,0.21,64.052,-2.28,0.212,286.536,28.316,98777.72,44.87,82.474
新疆,可克达拉市,13.954,35.59,3.302,14.88,0.494,59.804,-5.556,0.022,290.778,22.522,95170.338,43.918,80.786
新疆,和田地区,98.605,104.294,0.66,0.465,0.136,71.295,-3.114,-0.386,280.997,51.308,74258.648,37.059,80.934
新疆,哈密市,15.705,16.052,1.397,1.635,0.22,72.33,-0.991,-1.754,281.948,30.399,89049.419,43.042,93.517
新疆,喀什地区,59.214,66.394,0.997,1.317,0.148,67.757,-2.378,-1.448,280.714,61.278,76482.811,38.125,77.178
新疆,图木舒克市,54.097,57.733,1.758,0.947,0.145,62.293,-7.752,-3.792,290.457,35.462,89659.387,39.892,79.182
新疆,塔城地区,9.482,12.788,3.279,3.283,0.21,76.102,-1.419,1.349,282.023,31.084,90440.791,45.642,84.789
新疆,巴音郭楞蒙古自治州,68.57,71.331,1.165,0.492,0.147,73.337,-4.607,-1.069,281.101,43.731,79651.63,39.463,87.481
新疆,新星市,12.03,13.965,2.06,9.76,0.57,58.965,-2.985,0.335,285.31,33.285,93493.105,42.75,93.68
新疆,昆玉市,83.303,111.15,1.353,1.527,0.147,59.083,2.333,-2.89,291.447,39.43,87140.85,37.457,79.093
新疆,昌吉回族自治州,9.781,12.718,2.012,3.091,0.186,73.181,-1.536,-0.003,282.278,26.853,90779.809,44.342,88.608
新疆,石河子市,17.305,24.91,5.15,12.14,0.28,61.515,-3.83,0.985,285.99,24.525,95553.73,44.245,86.035
新疆,胡杨河市,12.266,19.802,3.78,5.718,0.306,69.574,-3.882,-0.612,287.098,25.802,98781.654,44.852,84.772
新疆,铁门关市,40.71,145.7,7.25,11.673,0.443,62.667,-4.337,0.697,289.61,22.587,92301.713,41.773,85.66
新疆,阿克苏地区,84.995,96.666,1.606,1.332,0.148,67.883,-4.097,0.038,286.024,38.778,85819.329,40.965,81.578
新疆,阿勒泰地区,5.419,6.114,2.454,1.294,0.216,64.591,-0.658,0.046,279.882,33.6,89409.833,46.902,88.421
新疆,阿拉尔市,88.083,106.812,1.56,2.059,0.153,60.614,-5.452,-1.263,290.535,29.846,90585.926,40.629,80.998
江苏,南京市,31.171,49.416,6.745,32.451,0.643,67.073,-1.47,-2.472,298.039,78.07,101204.982,31.899,118.876
江苏,南通市,12.349,19.772,4.715,9.621,0.293,74.936,-0.966,-3.912,297.942,84.872,101325.094,32.201,120.979
江苏,宿迁市,22.668,29.53,4.311,12.868,0.418,68.479,-2.521,-2.275,295.555,89.579,101382.712,33.765,118.495
江苏,常州市,34.877,53.128,8.514,39.729,0.725,69.383,-1.4,-2.668,298.363,80.826,101242.238,31.613,119.666
江苏,徐州市,21.003,35.511,6.311,20.089,0.435,65.392,-2.969,-1.171,294.92,83.647,101169.915,34.363,117.513
江苏,扬州市,27.401,40.882,5.769,17.304,0.504,65.653,-1.372,-2.556,297.151,83.884,101371.539,32.709,119.486
江苏,无锡市,30.24,51.422,10.294,41.048,0.728,65.152,-1.014,-2.766,298.392,81.002,101147.657,31.546,120.066
江苏,泰州市,25.076,36.855,6.551,17.023,0.504,65.763,-1.509,-2.791,297.286,85.086,101325.481,32.605,120.048
江苏,淮安市,23.469,31.852,4.223,11.439,0.396,67.606,-2.04,-2.117,296.196,87.21,101354.272,33.362,118.985
江苏,盐城市,11.773,17.005,3.06,6.962,0.251,76.458,-2.417,-3.041,296.768,86.495,101398.077,33.529,120.156
江苏,苏州市,21.274,40.085,8.42,35.657,0.543,69.466,-0.539,-2.909,298.445,81.938,101289.821,31.374,120.661
江苏,连云港市,12.613,18.394,2.656,10.603,0.268,76.302,-2.288,-2.449,295.315,88.55,101294.705,34.519,119.133
江苏,镇江市,35.985,54.381,8.628,37.122,0.692,65.456,-1.161,-2.725,297.918,80.379,101234.318,32.016,119.49
江西,上饶市,24.236,39.182,8.732,9.861,0.5,65.915,-3.015,-3.019,300.2,72.923,98966.604,28.778,117.47
江西,九江市,30.638,50.003,8.726,9.242,0.593,87.19,-1.861,-3.922,298.445,79.024,99001.352,29.313,115.444
江西,南昌市,26.278,48.35,9.1,12.234,0.649,81.474,-1.678,-5.285,300.912,71.726,100750.953,28.671,116.016
江西,吉安市,35.793,55.218,13.045,9.921,0.655,73.731,-2.184,-4.362,299.996,74.37,98504.134,26.954,114.831
江西,宜春市,29.575,49.514,9.317,10.436,0.59,83.038,-2.319,-4.176,299.577,74.599,98904.529,28.29,114.974
江西,抚州市,28.294,38.591,7.597,7.187,0.452,76.644,-2.001,-3.678,300.04,75.085,98502.752,27.514,116.42
江西,新余市,33.689,58.541,13.733,15.002,0.701,78.271,-2.444,-4.163,300.364,71.856,99776.738,27.847,114.836
江西,景德镇市,22.159,37.536,9.132,7.46,0.519,59.739,-2.848,-3.21,300.473,71.221,99794.35,29.287,117.24
江西,萍乡市,33.637,58.617,12.579,12.482,0.655,72.078,-3.505,-2.964,299.283,75.056,97592.912,27.505,113.908
江西,赣州市,28.987,37.033,7.627,6.359,0.587,61.361,-1.962,-4.64,299.427,78.803,96830.208,25.692,115.279
江西,鹰潭市,27.895,41.687,9.221,11.562,0.502,69.898,-3.003,-2.911,300.759,72.289,99434.261,28.222,117.094
河北,保定市,67.915,105.769,14.871,28.315,0.776,87.081,0.628,1.489,294.586,63.49,97767.448,39.018,115.159
河北,唐山市,68.072,108.32,16.376,43.708,0.982,90.163,-0.777,1.781,295.486,75.839,100923.559,39.731,118.354
河北,廊坊市,74.277,119.423,12.559,40.879,0.911,89.555,0.874,1.405,296.568,64.297,101419.861,39.267,116.632
河北,张家口市,36.137,53.921,10.593,10.305,0.451,84.499,1.667,2.999,289.355,66.475,87923.236,40.877,115.042
河北,承德市,54.959,81.553,11.259,17.515,0.66,82.879,2.376,3.343,289.954,76.169,91182.755,41.339,117.578
河北,沧州市,67.818,104.87,16.134,38.755,0.781,95.106,-0.412,0.786,296.908,64.513,101456.737,38.258,116.744
河北,石家庄市,61.288,99.952,16.076,37.421,1.034,57.883,-0.692,1.746,295.319,63.051,98276.022,38.135,114.407
河北,秦皇岛市,60.992,99.092,14.69,30.841,0.779,90.85,0.323,2.032,293.554,80.863,98742.736,40.12,119.193
河北,衡水市,58.934,94.426,12.16,32.002,0.759,79.85,0.496,0.602,296.33,65.928,101333.402,37.755,115.813
河北,邢台市,48.231,83.443,12.768,29.569,1.008,65.81,0.527,1.969,295.37,70.639,99875.783,37.195,114.815
河北,邯郸市,33.617,64.132,10.942,29.346,0.939,68.391,-0.441,0.498,294.571,78.09,99415.87,36.538,114.596
河南,三门峡市,30.73,46.012,7.9,16.123,0.53,71.953,0.098,0.505,291.333,74.897,91905.84,34.362,111.101
河南,信阳市,25.502,40.933,8.951,12.899,0.401,67.878,-1.058,-1.855,296.519,79.063,100185.862,32.091,114.907
河南,南阳市,28.615,47.1,8.216,12.466,0.578,81.537,0.517,0.006,294.519,78.137,98190.387,33.034,112.323
河南,周口市,23.077,37.842,6.754,12.859,0.549,63.168,-1.561,-0.392,295.632,82.816,100954.498,33.738,114.884
河南,商丘市,22.75,37.211,6.432,13.182,0.556,77.983,-1.315,-0.598,295.747,84.955,101041.4,34.277,115.718
河南,安阳市,23.927,45.862,8.258,24.375,0.757,71.962,-0.56,0.106,294.25,82.604,99018.605,35.888,114.318
河南,平顶山市,30.886,41.075,7.576,15.431,0.635,65.004,-0.792,-0.077,295.27,77.95,98801.344,33.8,113.025
河南,开封市,20.025,36.291,6.006,16.429,0.553,77.079,-1.921,0.377,295.806,81.808,100701.63,34.594,114.514
河南,新乡市,24.213,41.889,6.535,23.686,0.592,72.437,-1.804,-0.193,295.098,83.04,99799.433,35.256,114.111
河南,洛阳市,30.495,47.009,8.636,14.603,0.607,73.259,-0.34,0.103,292.634,79.413,94247.059,34.274,112.019
河南,济源市,32.341,52.337,8.098,23.84,0.664,58.419,-1.636,0.327,293.475,81.323,96058.838,35.105,112.445
河南,漯河市,24.625,38.853,7.403,17.244,0.528,57.496,-1.546,0.28,295.898,79.66,100788.121,33.652,113.945
河南,濮阳市,22.416,43.879,6.502,22.821,0.654,81.619,-0.886,-0.126,295.636,77.423,101019.467,35.809,115.283
河南,焦作市,30.268,51.608,6.275,31.907,0.634,52.531,-2.116,-0.985,295.334,79.202,99591.782,35.121,113.163
河南,许昌市,24.513,37.327,6.429,23.445,0.649,54.027,-1.436,0.195,295.74,79.371,100125.863,34.075,113.707
河南,郑州市,29.457,46.285,6.138,32.548,0.698,49.327,-1.236,0.164,295.164,80.096,98844.497,34.634,113.438
河南,驻马店市,26.391,41.935,8.387,12.999,0.438,63.65,-0.814,-0.495,295.71,81.605,100488.576,32.925,114.174
河南,鹤壁市,19.963,39.498,7.394,21.914,0.639,72.703,-0.69,-0.169,294.969,82.031,100158.148,35.716,114.319
浙江,丽水市,14.888,24.596,5.042,10.724,0.307,43.637,-3.54,-0.534,296.563,85.745,94420.726,28.194,119.51
浙江,台州市,22.74,33.557,5.213,11.864,0.376,69.457,-2.451,-2.26,297.577,89.674,98603.341,28.742,121.109
浙江,嘉兴市,22.677,40.717,4.417,31.414,0.524,76.533,-0.517,-1.812,298.489,82.131,101283.282,30.635,120.754
浙江,宁波市,27.515,41.396,6.38,27.498,0.55,75.666,-1.072,-1.932,297.815,87.606,100086.966,29.706,121.49
浙江,杭州市,32.341,50.141,6.245,20.227,0.588,76.923,-2.41,-2.216,297.629,83.659,98453.744,29.891,119.464
浙江,温州市,15.572,27.557,6.777,14.488,0.354,42.982,-2.947,-2.305,297.23,90.266,97412.364,27.897,120.411
浙江,湖州市,25.452,41.416,5.357,29.42,0.518,79.085,-1.265,-2.057,298.15,81.036,100059.241,30.757,119.871
浙江,绍兴市,33.585,49.743,5.426,26.05,0.621,77.801,-1.747,-1.742,297.942,83.991,99260.324,29.709,120.64
浙江,舟山市,13.418,24.765,7.26,14.64,0.365,67.402,-0.095,-2.622,298.1,87.97,101069.66,30.038,122.23
浙江,衢州市,25.968,41.772,8.156,14.586,0.495,70.288,-3.83,-2.742,298.998,77.275,97638.668,28.912,118.675
浙江,金华市,32.544,47.254,5.838,18.202,0.551,76.244,-2.997,-1.616,298.095,82.385,97927.739,29.109,119.967
海南,万宁市,16.419,22.881,3.491,2.336,0.201,60.763,-3.069,-2.759,299.45,87.072,99446.073,18.842,110.294
海南,三亚市,22.076,30.074,4.637,7.54,0.43,48.347,-3.601,-1.207,299.27,80.456,98222.776,18.413,109.407
海南,东方市,24.562,29.311,4.011,2.95,0.241,69.402,-2.822,-0.626,300.009,76.318,98831.371,18.971,108.838
海南,临高县,16.034,24.447,4.746,4.393,0.284,47.123,-4.146,-0.191,299.8,83.577,100030.723,19.821,109.733
海南,乐东黎族自治县,25.527,31.268,3.665,3.796,0.301,59.818,-2.906,-0.293,298.892,80.276,97350.837,18.659,109.072
海南,五指山市,23.668,29.63,3.236,3.398,0.252,51.392,-4.07,-0.794,296.75,85.312,94217.522,18.81,109.518
海南,儋州市,20.319,27.159,4.05,3.33,0.265,57.479,-3.861,0.032,299.749,80.916,99685.698,19.568,109.399
海南,定安县,13.822,21.403,3.483,3.68,0.277,42.92,-3.37,-0.973,299.672,85.097,99733.715,19.47,110.28
海南,屯昌县,16.756,24.266,3.51,3.266,0.266,46.564,-2.996,-0.206,298.956,86.256,98965.018,19.342,110.076
海南,文昌市,13.155,19.236,3.124,1.898,0.186,54.458,-3.99,-1.741,300.104,87.493,100497.863,19.707,110.773
海南,昌江黎族自治县,24.019,29.396,4.239,3.083,0.242,67.201,-3.794,-0.899,299.03,80.202,97849.69,19.233,109.016
海南,海口市,13.008,20.843,4.042,4.276,0.281,42.233,-3.889,-0.999,299.935,86.042,100308.257,19.842,110.393
海南,澄迈县,14.81,22.999,4.484,4.813,0.311,41.717,-3.714,-0.294,299.719,83.963,99859.153,19.676,109.989
海南,琼中黎族苗族自治县,20.435,26.884,3.183,2.736,0.242,51.513,-3.057,-0.099,297.751,87.463,96819.695,19.087,109.847
海南,琼海市,14.263,20.855,3.185,2.313,0.208,52.815,-3.197,-1.768,300.055,85.443,100269.588,19.22,110.43
海南,白沙黎族自治县,22.23,27.864,3.371,2.636,0.241,56.975,-3.512,0.594,297.995,83.19,96533.406,19.2,109.388
海南,陵水黎族自治县,19.94,26.313,3.103,3.573,0.269,55.206,-3.226,-3.134,299.377,82.603,98771.96,18.581,109.913
湖北,仙桃市,30.482,51.417,9.487,16.478,0.659,92.617,-1.076,-3.116,297.857,72.779,101093.618,30.284,113.417
湖北,十堰市,37.302,52.843,10.673,8.353,0.57,65.511,0.708,-0.13,290.148,89.647,93445.938,32.462,110.476
湖北,咸宁市,35.54,54.745,7.616,13.248,0.676,97.574,-1.916,-2.608,297.725,80.017,99239.868,29.621,114.178
湖北,天门市,30.557,53.137,10.813,18.482,0.679,92.703,-0.842,-2.549,297.728,70.009,101064.814,30.633,113.053
湖北,孝感市,26.397,42.065,9.702,13.181,0.545,80.148,-0.816,-3.168,297.5,73.281,100489.734,31.116,113.869
湖北,宜昌市,35.046,53.48,10.226,11.086,0.61,85.344,-0.617,0.239,293.972,77.442,94191.262,30.746,111.129
湖北,恩施土家族苗族自治州,33.378,52.953,13.558,6.893,0.609,50.645,-0.61,1.609,291.621,88.174,89741.714,30.195,109.552
湖北,武汉市,28.095,44.942,8.664,21.458,0.683,79.025,-0.782,-2.397,298.322,73.446,100983.368,30.606,114.349
湖北,潜江市,35.012,61.356,10.132,24.104,0.807,95.007,-0.878,-2.701,297.562,70.828,101067.173,30.33,112.77
湖北,神农架林区,36.169,46.467,9.765,2.794,0.392,77.196,1.092,2.64,287.766,95.178,83292.868,31.592,110.49
湖北,荆州市,34.85,57.994,9.987,19.032,0.779,92.627,-1.281,-3.004,297.885,70.148,100826.917,30.01,112.512
湖北,荆门市,31.808,51.324,9.837,16.138,0.623,91.618,-0.433,-3.108,297.051,69.676,100097.203,31.059,112.616
湖北,襄阳市,34.341,51.135,8.772,11.612,0.602,86.921,0.536,-0.925,294.043,80.132,97466.534,31.919,111.96
湖北,鄂州市,30.011,49.334,8.414,20.099,0.74,83.007,-0.26,-2.031,298.634,74.873,101019.046,30.337,114.794
湖北,随州市,27.118,41.648,9.218,12.172,0.506,79.234,-0.11,-2.408,296.572,74.389,99423.837,31.809,113.43
湖北,黄冈市,26.599,41.285,8.482,9.374,0.528,79.588,-1.305,-1.944,298.257,72.097,99329.363,30.702,115.358
湖北,黄石市,34.108,54.295,9.451,15.965,0.73,87.847,-0.655,-2.26,298.224,78.414,100052.372,29.925,115.034
湖南,娄底市,46.259,69.831,10.16,14.399,0.992,93.656,-2.177,-3.497,297.408,77.994,97084.037,27.715,111.632
湖南,岳阳市,37.557,58.042,8.038,12.39,0.708,99.413,-2.366,-3.503,298.719,76.004,99894.745,29.081,113.275
湖南,常德市,33.864,55.513,10.772,16.031,0.814,84.014,-1.318,-2.582,297.229,70.395,99169.754,29.271,111.524
湖南,张家界市,29.771,49.248,9.848,10.762,0.694,64.462,-2.099,-0.876,294.987,76.55,95349.356,29.379,110.526
湖南,怀化市,36.905,58.834,9.396,10.022,0.822,72.656,-2.844,-2.067,297.19,75.292,96190.103,27.535,110.071
湖南,株洲市,36.62,57.723,11.431,11.498,0.611,77.587,-2.845,-3.254,299.425,75.51,97700.04,27.109,113.513
湖南,永州市,50.437,66.212,11.363,9.682,0.668,85.195,-2.826,-3.749,298.729,75.8,96325.987,25.748,111.723
湖南,湘潭市,43.983,71.811,9.01,18.119,0.892,105.334,-0.745,-4.883,299.347,74.971,99953.095,27.744,112.619
湖南,湘西土家族苗族自治州,32.746,53.744,6.929,10.73,0.781,56.079,-3.053,-0.75,295.58,77.02,95250.154,28.708,109.718
湖南,益阳市,39.0,63.879,9.277,13.691,0.915,94.801,-1.562,-3.493,297.316,76.761,98656.267,28.525,111.919
湖南,衡阳市,49.134,70.819,11.507,15.244,0.809,89.074,-1.411,-4.542,300.193,72.212,99424.688,26.781,112.565
湖南,邵阳市,53.967,72.694,12.698,11.185,0.829,88.729,-3.116,-2.541,296.946,78.958,94897.903,26.893,110.881
湖南,郴州市,38.417,52.621,9.852,9.878,0.872,73.694,-2.018,-3.772,298.606,76.899,95497.169,25.769,113.109
湖南,长沙市,39.667,61.774,8.326,13.345,0.713,94.311,-1.49,-3.748,299.137,76.155,99389.533,28.235,113.159
甘肃,临夏回族自治州,28.437,44.859,5.976,9.984,0.455,55.952,-3.631,0.015,283.781,62.776,77847.908,35.617,103.291
甘肃,兰州市,37.593,56.476,4.498,11.535,0.298,54.793,-3.093,-4.259,284.26,54.566,79493.096,36.359,103.633
甘肃,嘉峪关市,16.095,43.445,8.55,17.403,0.347,67.852,-1.377,-1.238,278.967,52.433,82351.562,39.798,98.145
甘肃,天水市,30.49,45.281,8.865,6.763,0.348,69.341,-1.149,-0.443,286.316,78.442,82942.474,34.645,105.739
甘肃,定西市,32.626,48.043,6.607,5.487,0.296,65.36,-2.429,-1.889,283.38,71.032,77612.284,35.124,104.432
甘肃,平凉市,32.085,47.966,8.058,8.012,0.368,71.893,-0.468,-1.701,287.05,74.901,84758.917,35.304,106.644
甘肃,庆阳市,30.756,47.71,10.671,7.312,0.401,73.052,0.009,-1.549,287.206,77.061,86024.615,36.149,107.596
甘肃,张掖市,24.127,31.693,2.141,3.09,0.164,63.061,0.144,-1.139,276.477,68.771,75236.738,38.94,99.855
甘肃,武威市,49.95,57.658,1.942,1.932,0.163,61.003,2.727,-4.589,282.929,52.707,81945.727,38.163,103.073
甘肃,甘南藏族自治州,20.732,24.571,3.923,2.017,0.236,78.393,-2.285,1.858,277.663,85.248,68000.423,34.331,102.768
甘肃,白银市,40.57,55.174,5.068,4.856,0.235,60.285,0.464,-5.365,284.938,57.48,81887.54,36.59,104.646
甘肃,酒泉市,17.268,18.242,1.319,0.934,0.148,72.438,-1.746,-2.149,279.012,43.402,79703.12,40.236,96.062
甘肃,金昌市,34.594,47.458,2.648,2.898,0.163,64.441,2.376,-3.475,281.188,59.209,81208.67,38.44,102.048
甘肃,陇南市,26.913,38.484,10.27,4.896,0.369,62.226,-0.841,-0.5,285.928,81.874,82465.135,33.599,105.224
福建,三明市,13.851,20.065,6.113,7.705,0.441,37.875,-3.573,-2.306,297.666,79.452,94887.554,26.29,117.395
福建,南平市,13.947,19.52,4.482,6.39,0.307,44.327,-2.662,-1.673,298.355,77.281,95679.097,27.324,118.143
福建,厦门市,10.11,23.295,7.59,14.798,0.368,38.08,-5.653,-8.325,300.22,72.05,99747.042,24.642,118.11
福建,宁德市,8.823,15.267,4.112,6.343,0.262,35.284,-3.603,-2.668,296.449,86.58,95065.753,26.968,119.474
福建,泉州市,7.36,15.806,5.045,8.342,0.295,35.538,-5.092,-6.252,298.056,76.562,96172.365,25.201,118.249
福建,漳州市,12.302,24.031,6.951,13.663,0.425,42.1,-4.449,-5.568,299.387,72.423,97661.65,24.372,117.444
福建,福州市,6.254,13.893,4.747,6.836,0.274,35.199,-4.891,-5.289,297.552,85.152,97026.592,26.083,119.206
福建,莆田市,6.005,13.849,5.447,6.805,0.257,36.498,-5.418,-7.654,298.525,79.158,97675.81,25.445,118.864
福建,龙岩市,13.34,21.118,5.646,9.148,0.388,38.155,-3.268,-3.546,298.73,73.163,94793.145,25.256,116.739
西藏,山南市,23.93,25.682,3.822,1.562,0.246,89.416,2.435,3.073,281.281,84.325,66349.696,28.295,92.274
西藏,拉萨市,7.625,9.032,1.541,2.009,0.182,92.552,5.816,4.615,277.764,64.564,56840.319,30.043,91.093
西藏,日喀则市,9.782,10.487,1.343,0.518,0.177,98.869,7.301,2.247,276.362,60.086,55638.112,29.483,86.493
西藏,昌都市,17.617,18.837,2.358,0.868,0.207,87.459,3.439,6.673,277.709,77.201,59371.024,30.753,97.044
西藏,林芝市,24.279,26.357,3.639,1.397,0.22,81.066,1.091,4.744,280.767,91.305,66635.695,29.184,95.25
西藏,玉树藏族自治州,8.549,9.004,0.891,0.406,0.153,82.892,-0.645,1.708,272.498,79.334,57517.417,34.196,94.317
西藏,那曲市,7.325,7.587,0.572,0.216,0.145,89.141,4.238,0.492,274.438,67.197,55663.101,32.709,89.262
西藏,阿里地区,6.043,6.271,0.629,0.309,0.14,93.988,5.264,-1.103,272.715,52.533,55097.734,33.013,82.553
贵州,六盘水市,22.059,34.704,7.238,9.695,0.535,57.9,-2.024,4.061,290.763,91.663,83302.524,26.106,104.896
贵州,安顺市,27.798,38.213,6.238,5.868,0.379,59.841,-2.462,2.636,293.455,85.705,88269.555,25.986,105.978
贵州,毕节市,25.424,39.253,7.634,11.15,0.557,54.403,-0.958,3.292,290.736,90.289,83644.538,27.063,105.211
贵州,贵阳市,30.892,48.933,5.421,16.484,0.552,44.738,-1.958,3.319,293.331,85.112,88327.234,26.845,106.71
贵州,遵义市,36.366,49.679,11.497,8.765,0.481,57.478,-2.095,1.688,292.938,88.729,90483.99,28.167,107.102
贵州,铜仁市,34.908,60.611,12.267,8.453,0.639,57.66,-2.762,0.149,294.737,82.607,92797.154,27.937,108.534
贵州,黔东南苗族侗族自治州,39.239,57.067,15.487,6.115,0.568,60.183,-2.773,-1.223,295.446,82.537,92653.728,26.495,108.574
贵州,黔南布依族苗族自治州,35.278,46.198,11.445,4.979,0.425,54.399,-2.983,0.624,294.465,84.691,90422.581,26.0,107.265
贵州,黔西南布依族苗族自治州,23.968,35.415,7.944,4.623,0.459,60.988,-2.318,1.668,293.939,84.147,88622.672,25.256,105.467
辽宁,丹东市,21.978,35.442,8.248,12.414,0.52,55.796,-0.998,-0.142,291.493,80.626,98803.965,40.554,124.376
辽宁,大连市,20.123,34.304,5.472,11.378,0.435,79.447,-2.327,1.358,293.37,81.744,100890.706,39.591,122.22
辽宁,抚顺市,23.486,36.01,8.372,11.565,0.641,59.172,-0.088,4.042,291.599,78.493,97102.636,41.841,124.65
辽宁,朝阳市,54.343,78.514,14.874,14.706,0.9,112.344,2.767,4.582,293.348,69.034,96441.277,41.545,120.053
辽宁,本溪市,21.587,34.542,7.668,11.454,0.591,56.197,-0.43,3.066,291.261,77.859,96492.689,41.232,124.544
辽宁,沈阳市,29.316,56.996,14.66,25.259,0.799,75.332,0.465,5.485,293.803,75.508,101004.045,42.081,123.159
辽宁,盘锦市,19.131,36.544,10.003,12.544,0.514,97.849,1.544,4.941,294.875,79.268,101622.775,41.13,122.01
辽宁,营口市,18.018,31.777,4.674,12.049,0.443,77.918,-0.75,3.805,293.45,72.088,99537.844,40.395,122.478
辽宁,葫芦岛市,45.227,70.243,13.585,16.922,0.702,102.087,1.989,3.702,293.678,79.564,99158.478,40.66,120.215
辽宁,辽阳市,20.926,40.693,8.926,18.208,0.722,61.742,-0.149,4.502,293.458,72.531,99745.427,41.153,123.261
辽宁,铁岭市,28.514,49.368,12.024,23.615,0.777,67.321,0.512,5.694,293.117,76.497,99525.073,42.653,124.158
辽宁,锦州市,29.192,48.007,13.127,11.742,0.621,103.368,1.645,5.52,294.179,81.055,100788.677,41.502,121.659
辽宁,阜新市,38.407,58.772,16.337,11.507,0.653,108.007,1.08,6.28,293.545,77.777,99311.223,42.289,121.968
辽宁,鞍山市,19.949,36.73,6.403,13.637,0.557,70.608,0.039,3.032,293.047,75.69,99816.642,40.731,123.007
重庆,重庆城区,27.896,41.198,12.687,19.089,0.586,45.931,-1.118,-0.995,292.952,87.978,94952.466,29.824,107.125
重庆,重庆郊县,33.264,50.186,15.954,9.243,0.547,57.456,-1.588,0.597,292.217,85.328,91222.027,30.334,108.755
陕西,咸阳市,35.104,56.79,8.541,22.374,0.626,64.31,0.184,-0.043,290.251,72.546,91570.009,34.779,108.367
陕西,商洛市,32.52,46.099,9.348,7.501,0.463,74.196,0.169,-0.166,288.915,83.233,89527.013,33.64,109.889
陕西,安康市,36.068,46.609,10.367,7.162,0.485,59.241,-0.377,-0.007,288.062,92.13,90071.007,32.735,108.932
陕西,宝鸡市,32.561,49.381,7.306,11.229,0.459,70.088,-0.24,-0.259,287.899,77.564,86562.476,34.386,107.193
陕西,延安市,31.299,49.217,11.304,14.528,0.643,66.773,0.275,0.434,288.763,74.894,87738.996,36.432,109.316
陕西,榆林市,31.38,48.812,13.237,15.846,0.605,70.918,0.646,0.636,289.798,67.655,88094.743,38.041,109.581
陕西,汉中市,31.121,41.49,10.499,7.353,0.464,59.08,-1.483,-0.252,288.374,84.916,89131.046,33.088,107.098
陕西,渭南市,33.503,55.601,7.139,28.025,0.705,58.758,0.087,0.14,292.574,67.82,93855.637,34.919,109.855
陕西,西安市,35.927,55.322,7.789,24.388,0.621,56.387,0.477,0.738,290.005,74.624,90659.992,34.12,108.77
陕西,铜川市,37.184,57.829,11.031,23.784,0.696,63.372,0.09,0.751,289.424,73.864,89322.674,35.198,109.058
青海,保亭黎族苗族自治县,22.868,29.896,3.892,6.31,0.35,48.402,-3.604,-2.074,298.2,83.316,96666.184,18.566,109.618
青海,吐鲁番市,53.153,62.156,1.671,1.215,0.158,77.909,-2.524,-1.796,284.44,21.857,91040.789,42.386,89.851
青海,果洛藏族自治州,11.663,12.266,1.377,0.791,0.151,85.496,0.72,4.369,274.617,80.612,60277.217,34.127,99.404
青海,海东市,33.873,38.059,4.351,5.009,0.234,63.93,-5.813,0.671,279.699,72.1,73152.093,36.347,102.34
青海,海北藏族自治州,16.95,18.778,1.895,2.229,0.147,69.691,-2.812,-0.058,273.256,87.556,65760.254,37.775,100.288
青海,海南藏族自治州,14.029,15.004,1.779,1.779,0.15,76.622,-2.773,0.713,276.727,76.609,66774.707,35.89,100.272
青海,海西蒙古族藏族自治州,10.186,10.44,0.529,0.363,0.128,78.835,0.585,-1.024,275.099,64.923,64840.796,36.677,94.519
青海,西宁市,25.16,32.713,4.991,10.021,0.321,60.168,-3.914,0.597,276.476,86.827,69966.013,36.842,101.423
青海,黄南藏族自治州,17.391,18.25,2.372,1.213,0.168,83.784,-3.298,4.072,276.602,82.405,66132.588,35.022,101.631
香港,香港特别行政区,18.92,30.505,6.405,28.345,0.37,67.9,-3.36,-1.315,300.635,83.85,100323.28,22.45,114.22
黑龙江,七台河市,16.635,31.174,6.417,10.988,0.384,68.649,4.537,0.8,290.897,69.725,98417.971,45.87,130.943
黑龙江,伊春市,12.459,16.939,4.236,3.852,0.272,53.281,3.931,2.006,287.77,69.359,96872.803,47.772,129.184
黑龙江,佳木斯市,15.289,21.857,5.697,6.347,0.327,61.604,4.31,2.265,290.776,69.842,100231.041,47.207,132.11
黑龙江,双鸭山市,15.216,20.893,6.34,6.293,0.31,66.228,4.276,2.645,291.173,69.539,99854.202,46.722,132.643
黑龙江,哈尔滨市,24.561,35.695,8.894,8.959,0.41,64.868,1.702,3.098,290.66,76.948,98721.247,45.634,127.964
黑龙江,大兴安岭地区,5.237,5.546,1.493,0.999,0.199,52.797,3.867,1.609,283.825,70.389,94606.405,52.286,124.212
黑龙江,大庆市,13.263,24.866,5.064,9.554,0.368,63.272,-0.369,2.242,291.746,53.595,99814.738,46.327,124.687
黑龙江,牡丹江市,19.168,27.647,7.023,6.028,0.313,65.302,4.049,1.639,291.029,70.996,95785.558,44.592,129.883
黑龙江,绥化市,12.749,19.619,3.727,6.594,0.324,56.634,0.9,1.76,290.059,59.41,99112.045,46.89,126.634
黑龙江,鸡西市,18.211,27.658,7.309,7.63,0.324,66.427,3.686,1.675,291.44,72.186,99655.952,45.626,132.289
黑龙江,鹤岗市,13.483,19.86,5.499,6.802,0.358,56.138,4.936,0.955,289.981,65.008,99237.411,47.661,130.778
黑龙江,黑河市,7.242,9.631,1.974,2.283,0.227,52.47,3.507,2.545,287.191,61.141,97082.648,49.268,127.004
黑龙江,齐齐哈尔市,8.3,13.412,4.249,5.51,0.253,53.803,1.001,2.313,289.849,52.939,98954.086,47.715,124.57
