province,city,PM2.5,PM10,SO2,NO2,CO,O3,U,V,TEMP,RH,PSFC,lat,lon
上海,上海市,54.488,71.433,12.988,44.096,0.633,75.712,-2.389,3.676,286.169,86.677,101955.22,31.173,121.42
云南,临沧市,75.748,96.268,5.812,20.765,1.166,80.642,1.61,2.204,290.877,61.452,83903.702,23.935,99.686
云南,丽江市,30.385,44.996,7.012,5.766,0.793,89.821,-0.143,-0.056,279.288,78.803,74761.184,26.96,100.515
云南,保山市,67.095,79.809,6.147,17.03,1.086,60.821,0.353,-0.443,287.513,68.534,81885.517,24.953,98.962
云南,大理白族自治州,49.063,68.194,6.723,11.157,0.858,85.561,-0.613,-1.736,282.893,74.357,78193.591,25.726,100.053
云南,德宏傣族景颇族自治州,73.941,77.536,6.953,22.264,1.138,52.253,1.356,-0.14,291.323,60.973,86025.766,24.535,98.052
云南,怒江傈僳族自治州,33.763,44.189,3.753,3.776,0.492,91.283,-1.715,0.369,277.821,82.773,72812.561,26.916,98.885
云南,文山壮族苗族自治州,38.562,51.572,7.418,5.372,0.631,74.343,-1.387,5.896,288.255,88.399,86690.986,23.696,104.735
云南,昆明市,51.306,72.058,9.388,17.422,0.967,74.137,0.413,1.522,284.521,86.13,79329.592,25.384,102.863
云南,昭通市,27.068,46.011,14.396,7.485,0.629,66.074,-1.409,-1.897,283.288,83.447,84390.294,27.667,103.985
云南,普洱市,55.771,76.67,5.761,10.908,0.835,90.041,-0.396,4.495,291.717,69.691,85981.351,23.159,100.718
云南,曲靖市,27.881,44.624,10.789,13.625,0.798,57.82,-3.154,1.437,283.622,93.451,80159.706,25.737,103.929
云南,楚雄彝族自治州,53.982,74.052,8.87,11.274,0.871,78.044,-0.054,0.057,285.292,79.952,81083.148,25.328,101.567
云南,玉溪市,50.267,76.69,6.447,8.775,0.888,92.847,-0.278,5.045,288.442,82.658,83532.267,24.136,102.217
云南,红河哈尼族彝族自治州,44.323,61.381,6.521,5.337,0.648,94.808,-2.151,5.67,288.347,87.922,85264.46,23.451,103.034
云南,西双版纳傣族自治州,47.139,70.289,5.959,15.323,0.824,65.669,-1.117,4.16,294.088,66.957,88963.011,21.939,100.912
云南,迪庆藏族自治州,20.162,30.296,3.456,2.478,0.498,101.275,1.61,1.208,274.09,79.664,67260.245,27.957,99.459
内蒙古,乌兰察布市,86.786,121.679,5.544,8.586,0.365,52.154,8.405,-1.108,285.178,27.88,85463.395,41.691,112.44
内蒙古,乌海市,59.504,208.966,26.768,35.618,0.634,63.218,6.721,-1.74,289.094,19.19,87545.385,39.396,106.856
内蒙古,兴安盟,32.609,57.868,3.869,2.776,0.249,62.187,7.297,2.632,282.864,40.948,93227.448,46.244,121.341
内蒙古,包头市,69.381,95.367,6.014,10.137,0.442,51.68,7.494,-1.728,285.815,26.872,85534.015,41.549,110.276
内蒙古,呼伦贝尔市,15.459,21.405,3.19,2.681,0.209,62.004,2.861,0.998,274.796,63.148,91735.947,49.636,121.171
内蒙古,呼和浩特市,66.121,167.115,12.934,28.909,0.732,45.834,6.447,-0.681,286.059,27.91,85928.327,40.578,111.513
内蒙古,巴彦淖尔市,66.849,82.768,1.885,2.539,0.231,54.663,7.56,-1.045,287.429,22.948,86991.59,41.446,107.582
内蒙古,赤峰市,99.885,123.178,5.008,4.747,0.319,58.746,8.239,1.525,287.274,27.326,90837.614,43.226,118.892
内蒙古,通辽市,76.488,118.568,10.917,9.039,0.505,75.0,3.771,4.004,288.2,37.155,96528.412,43.814,121.591
内蒙古,鄂尔多斯市,45.829,112.125,11.507,18.123,0.429,56.078,7.998,-1.143,287.997,22.985,86821.745,39.407,108.63
内蒙古,锡林郭勒盟,110.547,120.045,1.396,0.847,0.177,56.017,8.777,0.702,284.281,29.373,88096.262,44.179,115.482
内蒙古,阿拉善盟,31.31,43.496,1.326,1.674,0.181,61.698,6.05,-1.316,288.592,20.843,87421.438,40.473,102.467
北京,北京市,122.418,149.905,11.745,57.0,0.911,67.245,3.552,0.116,293.827,19.718,96854.401,40.158,116.395
台湾,台湾省,23.739,27.715,6.727,17.045,0.232,79.184,-0.585,-2.058,289.384,76.244,93179.282,23.757,120.975
吉林,吉林市,61.597,97.492,18.187,9.742,0.94,172.899,4.925,10.348,286.112,49.289,96192.904,43.573,126.859
吉林,四平市,73.158,140.67,21.598,18.142,0.956,130.834,4.197,11.295,287.203,53.242,98216.082,43.472,124.386
吉林,延边朝鲜族自治州,73.276,93.565,20.131,14.229,0.909,117.509,6.55,6.774,284.288,46.774,93473.671,43.141,129.147
吉林,松原市,62.276,143.153,13.572,13.131,0.668,104.628,2.916,6.912,286.951,38.791,98352.864,44.785,124.496
吉林,白城市,49.488,100.556,6.2,5.784,0.372,69.659,4.063,4.109,287.039,33.593,98319.735,45.35,123.031
吉林,白山市,60.114,80.838,21.242,8.518,0.848,139.856,5.071,10.08,282.998,57.624,91790.128,42.063,127.256
吉林,辽源市,59.422,97.488,19.045,11.84,0.935,154.808,5.735,11.852,286.636,50.009,96570.95,42.836,125.32
吉林,通化市,61.371,91.321,20.619,11.234,0.941,156.596,2.974,11.641,284.298,62.898,95115.225,41.939,125.927
吉林,长春市,63.762,145.87,14.598,16.0,0.887,138.538,4.808,9.078,286.84,47.654,98067.961,44.268,125.611
四川,乐山市,29.302,40.826,8.768,10.671,0.456,72.045,0.918,-0.162,286.957,63.292,89891.512,29.218,103.569
四川,内江市,43.697,64.784,10.02,26.16,0.73,51.898,1.83,2.766,290.147,67.255,96999.681,29.62,104.95
四川,凉山彝族自治州,23.336,36.629,10.725,4.972,0.621,83.543,-1.155,-1.126,277.658,83.844,74336.842,27.883,102.065
四川,南充市,55.157,85.228,12.039,32.687,0.943,56.863,2.346,2.493,291.447,58.463,96927.435,31.19,106.199
四川,宜宾市,39.511,55.589,12.178,18.154,0.645,53.606,0.011,-0.113,288.664,75.356,95380.591,28.573,104.621
四川,巴中市,43.016,70.591,11.299,19.672,0.806,67.198,2.171,1.634,288.929,64.156,92665.419,32.033,107.031
四川,广元市,33.531,55.654,10.05,19.092,0.574,63.16,1.542,1.61,289.21,52.357,91752.972,32.261,105.788
四川,广安市,57.653,85.138,13.319,34.222,1.038,49.712,2.146,1.643,290.988,63.131,97001.026,30.43,106.628
四川,德阳市,46.599,74.895,8.675,33.158,0.616,57.568,2.728,2.537,290.77,44.298,93341.318,31.13,104.436
四川,成都市,32.539,52.102,7.75,24.372,0.499,67.081,2.697,1.707,290.582,46.338,93512.565,30.64,103.929
四川,攀枝花市,31.768,50.388,16.17,13.778,1.047,83.429,-1.284,-2.926,284.28,71.78,81684.783,26.791,101.734
四川,泸州市,50.047,65.686,11.299,18.451,0.677,46.26,0.5,-0.546,287.466,84.786,93763.895,28.424,105.675
四川,甘孜藏族自治州,14.206,16.467,2.516,1.022,0.192,85.489,-0.94,-2.137,266.966,80.538,61296.903,30.936,100.009
四川,眉山市,28.275,41.552,7.715,14.997,0.46,71.989,2.463,2.361,290.366,52.762,94009.197,29.912,103.766
四川,绵阳市,36.832,53.357,6.008,18.932,0.449,66.737,2.04,0.81,287.344,44.882,88178.992,31.86,104.704
四川,自贡市,44.076,61.174,10.622,22.205,0.675,53.012,0.677,1.744,289.721,70.582,96994.539,29.307,104.659
四川,资阳市,40.823,64.463,8.766,20.55,0.701,60.984,2.964,3.571,291.614,57.412,97200.842,30.102,105.149
四川,达州市,51.328,78.168,13.682,27.035,0.941,69.21,2.246,1.039,289.568,66.315,94285.388,31.335,107.636
四川,遂宁市,49.55,78.722,9.522,28.061,0.816,58.402,3.607,3.016,292.149,53.994,97397.899,30.642,105.457
四川,阿坝藏族羌族自治州,13.265,15.706,2.174,1.711,0.203,79.691,0.082,-2.045,269.689,73.882,65741.869,32.406,102.61
四川,雅安市,21.89,27.114,5.263,3.666,0.266,89.425,0.927,-1.748,280.242,67.771,80353.151,29.932,102.689
天津,天津市,97.439,159.962,15.618,44.655,1.029,88.02,4.198,5.568,295.744,26.775,100485.026,39.315,117.308
宁夏,中卫市,49.543,175.393,13.688,28.083,0.559,61.735,5.312,1.383,287.619,21.566,83682.173,37.018,105.509
宁夏,吴忠市,44.928,152.304,13.279,22.318,0.407,56.697,6.151,0.107,288.034,21.462,85170.203,37.454,106.577
宁夏,固原市,40.584,161.217,7.033,27.063,0.546,68.894,3.921,0.264,285.117,26.77,81190.914,35.905,106.183
宁夏,石嘴山市,57.07,195.842,21.793,31.301,0.554,60.978,6.865,-2.009,289.533,17.749,86654.385,39.013,106.499
宁夏,银川市,62.504,202.634,19.918,32.877,0.511,51.564,6.052,0.066,289.366,18.7,87019.789,38.287,106.342
安徽,亳州市,44.2,82.558,10.597,20.267,0.698,107.754,3.376,8.006,292.979,55.661,101206.507,33.44,116.162
安徽,六安市,40.529,68.799,8.652,20.186,0.54,103.15,2.688,4.122,292.274,50.063,98931.498,31.617,116.209
安徽,合肥市,49.373,89.037,10.723,34.765,0.797,88.762,-0.103,4.959,292.09,54.163,101320.623,31.766,117.359
安徽,安庆市,46.421,79.029,10.378,19.363,0.599,91.016,2.161,2.61,290.768,59.396,99475.498,30.557,116.473
安徽,宣城市,35.371,55.609,7.437,15.176,0.592,77.264,-0.598,2.052,290.102,62.803,99430.962,30.676,118.846
安徽,宿州市,54.387,97.07,15.383,28.754,0.726,106.288,3.058,8.643,292.833,51.473,101167.238,33.844,117.23
安徽,池州市,38.247,61.983,9.431,16.771,0.613,82.338,0.965,2.241,290.961,59.811,99656.947,30.296,117.379
安徽,淮北市,49.979,91.033,14.647,27.202,0.689,107.308,3.082,8.444,292.862,54.339,101204.657,33.722,116.747
安徽,淮南市,42.442,77.55,9.919,24.355,0.597,107.019,0.736,5.748,292.35,52.831,101404.062,32.463,116.746
安徽,滁州市,52.443,95.122,12.09,35.916,0.785,91.097,0.394,6.413,291.724,55.418,101194.086,32.55,118.076
安徽,芜湖市,48.04,81.518,12.335,33.163,0.911,83.619,0.343,3.014,291.434,60.076,101558.451,31.167,118.162
安徽,蚌埠市,49.033,90.752,14.867,31.258,0.708,105.538,1.755,7.708,292.409,51.548,101345.122,33.121,117.263
安徽,铜陵市,49.076,84.459,13.877,39.689,0.896,82.436,1.697,3.558,291.443,58.798,101415.861,30.883,117.531
安徽,阜阳市,45.005,82.928,9.385,20.364,0.7,106.505,3.857,7.277,293.119,55.891,101228.044,32.937,115.723
安徽,马鞍山市,52.637,93.759,14.846,44.201,0.944,79.822,-0.728,4.04,291.109,61.414,101552.661,31.622,118.386
安徽,黄山市,31.031,53.434,9.033,12.876,0.603,70.841,-0.064,0.705,289.258,66.613,97475.729,29.869,118.09
山东,东营市,61.844,129.919,29.788,34.048,0.93,105.544,6.082,8.346,295.49,38.338,100904.794,37.57,118.572
山东,临沂市,55.619,123.801,24.058,36.038,0.882,102.171,4.552,8.483,292.297,52.543,99593.199,35.289,118.27
山东,威海市,52.594,99.439,13.407,21.22,0.914,148.187,2.823,8.163,284.656,82.148,100747.8,37.148,122.028
山东,德州市,62.697,126.924,16.872,21.009,0.801,120.254,4.664,9.935,295.964,36.428,100731.404,37.233,116.679
山东,日照市,68.983,139.503,22.862,41.03,0.944,98.11,5.049,8.533,291.911,52.633,99702.356,35.566,119.108
山东,枣庄市,56.257,116.938,24.744,34.214,0.834,101.728,3.542,8.748,292.969,52.699,100312.884,34.925,117.383
山东,泰安市,47.422,108.999,18.911,22.724,0.867,119.515,3.521,9.019,293.173,49.948,99305.826,35.993,117.04
山东,济南市,52.972,115.527,18.465,21.828,0.851,128.909,4.351,10.508,293.666,45.702,99153.862,36.639,117.254
山东,济宁市,45.324,100.148,18.512,21.647,0.841,111.632,3.7,9.317,294.2,48.324,100609.573,35.375,116.697
山东,淄博市,54.539,119.327,22.831,25.374,0.94,128.017,6.386,10.493,293.276,47.288,98582.141,36.623,118.062
山东,滨州市,59.546,120.559,22.426,25.187,0.86,120.511,6.219,9.27,295.589,37.643,100817.899,37.516,117.852
山东,潍坊市,61.043,132.167,19.442,28.465,0.914,114.315,6.046,9.747,294.007,46.468,100052.978,36.53,119.092
山东,烟台市,62.128,121.242,13.199,23.82,0.904,125.082,3.235,9.837,290.754,57.738,100074.433,37.25,120.789
山东,聊城市,61.142,125.927,15.472,23.913,0.953,104.819,3.741,8.831,296.119,35.223,100605.906,36.458,115.863
山东,菏泽市,45.737,96.795,15.736,20.959,0.954,98.938,4.567,8.798,295.088,44.44,100710.833,35.134,115.69
山东,青岛市,68.874,138.615,14.679,33.559,0.92,110.8,3.352,9.661,291.083,56.046,100731.181,36.46,120.172
山西,临汾市,50.585,106.035,22.225,34.947,1.149,67.733,4.38,-0.488,290.648,21.412,89923.629,36.227,111.398
山西,吕梁市,44.441,105.176,18.185,30.454,1.021,58.532,5.796,-0.38,288.495,23.9,87513.025,37.663,111.27
山西,大同市,54.145,129.17,17.163,24.053,0.695,50.058,8.689,-1.17,287.342,25.018,86782.59,39.911,113.713
山西,太原市,48.99,133.398,28.457,36.725,0.867,58.869,7.924,-1.195,289.312,21.231,87311.079,37.967,112.321
山西,忻州市,47.31,107.153,13.53,20.09,0.574,56.994,7.984,-1.09,287.308,24.504,85800.527,38.877,112.391
山西,晋中市,56.748,145.324,42.723,46.285,1.095,58.187,8.112,-0.266,289.917,19.479,88237.075,37.328,112.997
山西,晋城市,59.394,121.59,24.367,36.39,1.234,76.361,6.009,-2.946,291.498,19.587,90266.662,35.625,112.752
山西,朔州市,51.53,143.541,17.32,24.262,0.677,53.893,8.891,-0.375,286.976,26.232,86211.677,39.619,112.655
山西,运城市,61.13,137.65,24.71,52.713,1.062,62.609,4.589,0.287,293.54,19.929,94047.726,35.205,111.071
山西,长治市,54.624,115.351,24.833,34.902,0.995,73.516,7.565,-1.118,290.417,19.337,88584.921,36.48,112.915
山西,阳泉市,52.826,135.124,31.62,38.134,0.829,61.548,10.641,-0.121,291.647,17.869,89936.767,38.031,113.512
广东,东莞市,45.061,61.91,10.266,40.433,0.807,82.291,-2.048,-1.99,295.39,60.437,101437.598,22.931,113.81
广东,中山市,50.532,72.572,11.869,46.184,0.773,81.416,-1.652,-1.311,295.25,67.004,101436.599,22.5,113.383
广东,云浮市,47.005,67.432,9.774,20.728,0.845,65.185,-1.554,-1.215,294.423,69.928,99426.581,22.776,111.818
广东,佛山市,41.482,64.722,11.777,52.897,0.929,69.291,-1.506,-2.739,295.727,58.601,101481.512,23.035,112.979
广东,广州市,38.187,52.773,9.74,33.391,0.788,77.524,-1.935,-2.796,294.861,57.6,100585.416,23.339,113.525
广东,惠州市,35.369,49.144,8.054,13.479,0.644,83.947,-2.073,-2.553,293.777,62.922,99613.445,23.244,114.485
广东,揭阳市,47.813,61.801,11.317,16.97,0.826,101.344,-2.0,-1.207,293.523,72.89,100214.41,23.323,116.123
广东,梅州市,36.359,49.638,8.937,15.399,0.764,79.886,-0.486,-2.068,292.277,65.162,98183.539,24.169,116.07
广东,汕头市,39.182,52.856,11.703,16.249,0.705,113.368,-3.329,-1.01,293.619,78.651,101344.072,23.339,116.614
广东,汕尾市,43.183,58.953,8.566,10.677,0.688,99.728,-2.193,-0.985,293.568,73.116,99941.52,23.024,115.527
广东,江门市,52.301,70.671,11.613,33.354,0.731,89.668,-1.242,-1.266,295.095,69.231,100870.7,22.289,112.676
广东,河源市,31.073,45.486,8.023,12.274,0.695,76.9,-1.371,-3.513,292.343,61.198,98391.616,24.021,114.969
广东,深圳市,45.187,66.649,9.283,36.047,0.722,81.338,-1.496,-0.868,294.391,71.198,100955.119,22.667,114.143
广东,清远市,33.461,46.334,9.531,14.248,0.729,73.371,-1.416,-2.286,292.381,60.332,97910.494,24.295,112.871
广东,湛江市,36.464,49.345,7.872,10.135,0.579,85.025,-3.012,1.211,295.102,77.187,101293.926,21.091,110.163
广东,潮州市,44.285,56.976,10.086,16.046,0.788,98.526,-2.349,-1.311,292.94,73.294,99656.151,23.755,116.754
广东,珠海市,48.693,62.767,13.043,29.778,0.563,94.81,-1.632,-0.272,294.52,77.517,101520.027,22.095,113.317
广东,肇庆市,40.031,54.774,8.961,17.375,0.758,68.0,-2.166,-1.708,294.163,62.007,99541.246,23.505,112.199
广东,茂名市,56.312,78.873,11.239,15.409,0.848,80.263,-1.395,0.482,294.553,72.938,99502.749,22.013,110.952
广东,阳江市,57.275,75.323,10.141,15.422,0.762,97.058,-0.991,-0.37,294.645,72.606,100027.963,22.042,111.786
广东,韶关市,33.001,46.988,9.555,15.89,0.96,65.867,-1.753,-2.126,291.309,62.234,97132.546,24.785,113.819
广西,北海市,44.494,57.969,6.825,11.725,0.711,74.214,-1.062,1.914,296.002,70.228,101328.329,21.674,109.37
广西,南宁市,52.937,78.059,10.008,19.124,0.919,56.745,-2.444,-0.287,294.858,68.059,99479.01,23.051,108.469
广西,崇左市,51.172,65.29,8.888,12.097,0.773,67.867,-2.542,0.925,293.943,74.546,98176.747,22.483,107.291
广西,来宾市,43.817,66.143,9.698,10.53,0.723,66.064,-2.243,-0.932,294.051,63.176,98323.557,23.859,109.417
广西,柳州市,35.824,56.261,10.839,9.147,0.635,72.412,-1.565,-1.219,293.027,60.654,97731.977,24.956,109.372
广西,桂林市,34.245,51.33,12.201,10.527,0.625,74.289,-1.75,-1.199,291.624,58.515,96116.546,25.353,110.513
广西,梧州市,46.809,64.738,10.993,14.237,0.899,62.096,-2.207,-1.043,294.217,63.456,99154.075,23.484,110.996
广西,河池市,39.227,65.24,11.083,6.882,0.731,58.303,-2.508,-0.296,291.337,71.68,95395.478,24.628,107.843
广西,玉林市,54.234,73.539,11.391,14.59,0.944,69.345,-1.531,0.278,295.089,69.714,99552.588,22.452,110.164
广西,百色市,41.36,58.977,12.982,10.757,0.991,48.335,-3.706,1.931,290.214,84.832,93262.026,23.981,106.292
广西,贵港市,48.491,70.574,9.637,12.79,0.875,65.277,-2.658,-1.499,295.184,61.793,99985.167,23.322,110.021
广西,贺州市,34.617,51.349,10.668,9.774,0.727,70.369,-1.573,-2.004,292.732,56.777,97342.109,24.364,111.394
广西,钦州市,50.805,70.272,8.083,14.132,0.958,65.456,-1.245,0.996,295.726,69.58,100605.413,22.173,109.01
广西,防城港市,44.418,58.912,8.765,12.46,0.794,67.926,-1.63,0.85,294.13,73.744,99019.742,21.88,108.002
新疆,乌鲁木齐市,8.531,25.002,2.845,8.966,0.325,67.582,1.594,-3.759,280.478,59.211,84419.113,43.746,87.818
新疆,五家渠市,5.367,13.9,1.597,3.417,0.267,57.77,-3.713,-1.893,286.627,49.567,96795.33,44.363,87.517
新疆,伊犁哈萨克自治州,6.211,9.468,2.876,2.328,0.26,66.069,0.252,0.653,275.68,86.266,80589.378,43.438,82.146
新疆,克孜勒苏柯尔克孜自治州,4.563,13.004,0.342,2.301,0.213,71.301,6.726,-3.18,275.982,49.842,70474.143,39.661,75.949
新疆,克拉玛依市,5.461,18.219,2.659,3.047,0.256,61.639,1.704,-1.911,286.146,48.317,97605.136,45.457,85.207
新疆,北屯市,6.384,8.258,3.534,4.568,0.426,66.416,0.35,-2.448,278.514,80.928,95800.336,47.27,87.868
新疆,博尔塔拉蒙古自治州,3.214,7.158,1.791,1.223,0.206,62.697,2.791,0.326,279.341,61.474,86377.663,44.714,82.114
新疆,双河市,2.276,6.92,1.382,1.18,0.204,61.338,-1.916,-6.854,286.508,46.842,98061.352,44.87,82.474
新疆,可克达拉市,11.494,15.744,8.058,5.368,0.434,78.66,0.524,-0.038,284.512,70.336,95117.492,43.918,80.786
新疆,和田地区,6.108,14.793,1.215,1.067,0.203,84.604,4.402,0.7,280.946,18.183,73931.784,37.059,80.934
新疆,哈密市,7.834,15.739,1.047,1.227,0.198,62.22,1.731,-3.714,285.745,39.15,88205.762,43.042,93.517
新疆,喀什地区,18.121,46.358,1.559,6.072,0.354,70.291,4.089,0.016,281.122,31.123,76056.943,38.125,77.178
新疆,图木舒克市,7.127,19.1,2.743,2.372,0.207,59.29,-3.417,-2.497,289.438,26.585,88916.52,39.892,79.182
新疆,塔城地区,2.88,7.009,1.697,1.892,0.268,60.714,2.517,-1.35,279.9,62.856,89783.216,45.642,84.789
新疆,巴音郭楞蒙古自治州,14.875,20.241,0.678,0.741,0.157,78.118,-0.044,0.541,283.258,21.148,79056.321,39.463,87.481
新疆,新星市,17.99,98.53,4.525,13.09,0.54,70.985,-1.4,-3.56,291.325,22.815,92453.775,42.75,93.68
新疆,昆玉市,18.31,51.663,4.403,3.87,0.403,74.003,3.873,-1.827,292.27,16.33,86682.443,37.457,79.093
新疆,昌吉回族自治州,5.351,11.294,1.632,2.709,0.228,61.57,0.906,-1.871,282.606,58.805,90105.799,44.342,88.608
新疆,石河子市,11.44,37.02,6.91,12.195,0.335,58.725,-1.715,0.42,285.635,54.095,94903.22,44.245,86.035
新疆,胡杨河市,6.9,28.702,2.596,3.736,0.338,56.242,-1.946,1.736,286.756,52.028,98075.794,44.852,84.772
新疆,铁门关市,30.877,111.197,4.41,8.52,0.353,74.663,-5.073,-2.917,292.227,20.03,91321.347,41.773,85.66
新疆,阿克苏地区,17.945,46.064,1.769,4.197,0.249,67.166,-2.317,-1.839,286.113,31.108,85017.705,40.965,81.578
新疆,阿勒泰地区,3.003,3.563,1.851,1.137,0.232,63.307,1.982,-1.512,276.884,71.226,88645.836,46.902,88.421
新疆,阿拉尔市,33.287,110.609,3.0,11.258,0.41,62.121,-4.313,-2.546,289.25,25.607,89742.366,40.629,80.998
江苏,南京市,50.622,88.167,14.684,41.551,0.827,75.362,-0.775,4.635,290.997,60.612,101609.583,31.899,118.876
江苏,南通市,51.294,81.401,16.918,48.609,0.638,75.944,-1.09,5.372,287.939,72.684,101873.932,32.201,120.979
江苏,宿迁市,49.756,97.316,13.806,27.184,0.762,102.782,2.395,8.068,292.095,51.499,101507.305,33.765,118.495
江苏,常州市,52.428,81.588,11.645,38.879,0.854,74.279,-2.057,4.251,289.736,64.253,101726.446,31.613,119.666
江苏,徐州市,57.591,106.527,17.272,30.118,0.759,102.265,3.683,8.983,293.009,50.752,101105.716,34.363,117.513
江苏,扬州市,60.064,98.424,15.001,43.136,0.812,86.83,-0.261,6.664,290.792,57.241,101736.49,32.709,119.486
江苏,无锡市,52.063,84.99,13.167,48.13,0.9,71.407,-2.098,4.388,288.789,70.389,101662.876,31.546,120.066
江苏,泰州市,67.411,105.264,15.219,47.381,0.864,85.344,-0.453,6.447,289.939,60.311,101747.173,32.605,120.048
江苏,淮安市,54.908,105.508,14.852,39.885,0.847,97.491,1.372,7.593,291.635,55.721,101584.845,33.362,118.985
江苏,盐城市,64.027,104.986,17.625,37.519,0.794,96.455,1.387,7.685,290.694,56.659,101698.606,33.529,120.156
江苏,苏州市,51.502,84.159,13.534,50.803,0.805,70.714,-2.331,3.808,287.442,79.38,101864.478,31.374,120.661
江苏,连云港市,54.425,109.933,17.72,34.111,0.811,99.604,3.339,8.805,292.079,50.524,101331.415,34.519,119.133
江苏,镇江市,57.239,89.222,12.749,40.913,0.822,78.539,-1.66,5.244,290.191,60.007,101675.409,32.016,119.49
江西,上饶市,36.731,59.245,10.594,12.782,0.704,63.001,-0.353,-0.02,290.252,66.973,99557.38,28.778,117.47
江西,九江市,35.506,60.68,8.088,10.178,0.538,86.216,0.054,1.598,291.03,60.811,99473.044,29.313,115.444
江西,南昌市,43.019,74.983,12.542,23.825,0.778,68.912,-0.438,0.644,291.524,63.313,101383.227,28.671,116.016
江西,吉安市,38.233,55.32,11.481,10.153,0.688,73.303,-1.115,-0.619,290.831,63.445,99129.769,26.954,114.831
江西,宜春市,35.271,55.537,10.495,14.552,0.671,76.325,-0.297,0.414,291.213,62.124,99454.067,28.29,114.974
江西,抚州市,35.743,49.477,9.13,10.451,0.535,67.753,-0.853,-1.09,290.278,66.566,99140.195,27.514,116.42
江西,新余市,36.847,60.571,13.125,21.251,0.914,71.62,-0.22,0.177,291.463,63.621,100387.391,27.847,114.836
江西,景德镇市,40.589,64.641,10.186,12.632,0.645,66.38,-0.149,0.363,290.743,65.082,100381.923,29.287,117.24
江西,萍乡市,33.728,54.751,10.839,14.938,0.818,74.959,-1.265,0.011,290.847,61.577,98119.619,27.505,113.908
江西,赣州市,39.293,57.427,9.478,13.142,0.986,65.223,-1.359,-2.764,290.236,65.927,97468.201,25.692,115.279
江西,鹰潭市,33.271,52.045,11.187,17.745,0.618,62.547,-0.757,-0.325,290.573,66.072,100088.617,28.222,117.094
河北,保定市,67.68,113.454,14.607,26.839,0.607,66.587,5.888,-1.642,295.85,16.375,96893.985,39.018,115.159
河北,唐山市,103.004,174.799,23.379,56.45,1.244,81.976,2.548,5.504,291.939,36.486,100036.591,39.731,118.354
河北,廊坊市,104.848,175.904,17.322,45.773,1.028,79.605,4.129,4.226,296.064,23.666,100501.427,39.267,116.632
河北,张家口市,76.167,125.235,9.038,16.506,0.588,53.12,7.711,-1.261,286.857,24.953,87110.467,40.877,115.042
河北,承德市,95.187,135.993,9.545,25.028,0.626,69.895,5.475,1.744,287.793,27.453,90213.762,41.339,117.578
河北,沧州市,73.975,141.656,19.866,27.391,0.862,100.683,5.318,7.682,296.669,28.569,100656.365,38.258,116.744
河北,石家庄市,61.309,137.908,25.221,36.727,0.863,70.857,8.34,-0.941,297.424,14.304,97511.501,38.135,114.407
河北,秦皇岛市,102.0,163.335,24.606,52.088,1.172,85.922,3.428,5.055,289.534,42.574,97836.176,40.12,119.193
河北,衡水市,69.466,146.855,19.253,29.847,0.954,95.932,4.638,6.274,297.232,24.114,100564.864,37.755,115.813
河北,邢台市,56.549,138.827,19.038,33.66,1.041,84.144,5.161,1.67,298.277,16.658,99169.408,37.195,114.815
河北,邯郸市,62.46,143.18,19.336,37.604,1.158,86.638,5.956,2.578,297.537,18.639,98805.218,36.538,114.596
河南,三门峡市,37.942,85.072,11.531,34.61,0.575,62.408,5.182,-0.635,292.64,21.015,91771.424,34.362,111.101
河南,信阳市,45.444,76.665,11.775,24.055,0.713,102.721,3.945,7.238,292.979,55.066,100338.369,32.091,114.907
河南,南阳市,39.505,65.819,9.057,15.19,0.723,81.138,3.346,4.104,294.217,42.341,98117.658,33.034,112.323
河南,周口市,41.655,85.881,12.008,21.364,0.887,95.552,4.622,7.741,294.394,50.768,100848.133,33.738,114.884
河南,商丘市,46.63,87.629,13.152,20.643,0.834,101.62,4.237,8.638,294.106,50.796,100889.148,34.277,115.718
河南,安阳市,59.219,129.269,17.117,37.545,1.092,82.352,6.012,2.624,297.423,20.806,98507.798,35.888,114.318
河南,平顶山市,41.57,76.574,10.546,20.972,0.705,81.116,4.846,3.985,295.704,34.696,98635.118,33.8,113.025
河南,开封市,47.506,105.933,17.139,29.717,0.951,83.792,5.224,7.603,295.607,41.26,100430.593,34.594,114.514
河南,新乡市,61.862,135.071,20.771,43.164,1.122,79.469,5.674,4.597,296.706,27.078,99402.038,35.256,114.111
河南,洛阳市,38.797,76.044,13.625,27.759,0.593,68.732,5.971,-0.35,294.481,20.68,94060.931,34.274,112.019
河南,济源市,49.662,100.206,23.033,37.876,1.055,72.782,5.924,-2.87,296.139,16.292,95752.523,35.105,112.445
河南,漯河市,42.619,86.612,11.303,22.176,0.876,88.782,5.071,6.405,295.057,46.986,100665.554,33.652,113.945
河南,濮阳市,57.783,123.727,17.094,28.332,1.137,90.089,4.428,7.759,296.269,34.839,100547.312,35.809,115.283
河南,焦作市,67.714,142.158,26.662,52.073,1.238,75.545,5.741,0.562,297.578,18.951,99225.244,35.121,113.163
河南,许昌市,48.33,102.689,14.459,31.819,0.903,80.055,5.491,5.818,295.51,39.759,99932.628,34.075,113.707
河南,郑州市,61.762,136.049,22.131,48.061,1.009,71.843,6.705,3.399,296.304,25.842,98556.778,34.634,113.438
河南,驻马店市,39.76,72.258,10.846,16.079,0.769,100.198,4.578,7.089,294.388,50.604,100474.525,32.925,114.174
河南,鹤壁市,59.641,131.714,17.603,41.591,1.153,79.392,4.991,4.601,297.804,21.719,99659.871,35.716,114.319
浙江,丽水市,28.037,41.159,7.221,15.576,0.53,65.465,-1.481,0.084,287.151,78.448,94823.31,28.194,119.51
浙江,台州市,35.829,49.844,7.243,17.319,0.519,72.472,-1.99,-0.345,287.158,87.065,99172.208,28.742,121.109
浙江,嘉兴市,47.423,71.735,9.497,39.896,0.729,70.088,-3.059,2.689,288.039,80.979,101888.869,30.635,120.754
浙江,宁波市,38.776,52.984,8.072,22.37,0.575,73.931,-2.485,1.371,287.244,84.818,100696.563,29.706,121.49
浙江,杭州市,35.019,55.324,8.475,22.971,0.628,66.75,-0.912,0.676,288.926,71.329,98915.958,29.891,119.464
浙江,温州市,32.772,47.721,8.322,26.922,0.56,67.29,-2.3,-1.025,287.638,86.253,97945.95,27.897,120.411
浙江,湖州市,41.426,64.909,9.38,33.311,0.755,68.062,-1.977,2.477,289.156,69.981,100547.344,30.757,119.871
浙江,绍兴市,36.755,52.941,6.956,21.685,0.604,73.215,-2.01,1.388,288.774,74.581,99783.983,29.709,120.64
浙江,舟山市,37.882,47.252,7.268,8.328,0.46,81.09,-2.69,0.84,286.732,89.778,101752.838,30.038,122.23
浙江,衢州市,31.626,50.92,9.37,17.707,0.691,56.064,-0.271,0.049,289.455,70.191,98146.873,28.912,118.675
浙江,金华市,34.141,51.865,8.186,23.56,0.596,65.237,-1.058,1.342,288.669,73.622,98421.175,29.109,119.967
海南,万宁市,16.501,23.167,2.022,2.357,0.239,87.524,-3.191,-2.349,293.58,87.948,100264.301,18.842,110.294
海南,三亚市,17.206,28.574,2.026,5.739,0.439,79.689,-5.381,-1.191,294.329,73.521,98988.26,18.413,109.407
海南,东方市,19.841,24.537,2.424,2.95,0.237,87.037,0.511,0.396,294.832,71.38,99628.487,18.971,108.838
海南,临高县,23.531,36.58,4.214,6.111,0.384,71.211,-4.363,0.679,294.736,76.454,100831.066,19.821,109.733
海南,乐东黎族自治县,18.901,24.605,1.525,3.027,0.288,81.6,-1.543,-0.207,294.139,73.374,98092.783,18.659,109.072
海南,五指山市,17.658,22.154,1.526,2.658,0.246,80.004,-4.164,-0.07,292.004,77.748,94866.216,18.81,109.518
海南,儋州市,19.539,26.939,2.412,3.333,0.279,77.365,-3.734,1.054,295.071,73.194,100465.338,19.568,109.399
海南,定安县,20.737,33.47,2.835,4.492,0.392,77.308,-3.357,0.398,294.277,81.268,100542.152,19.47,110.28
海南,屯昌县,19.658,29.638,2.324,3.654,0.326,79.328,-3.262,0.882,293.766,82.354,99748.342,19.342,110.076
海南,文昌市,18.516,26.737,3.043,1.9,0.299,90.079,-3.813,-1.01,294.381,85.432,101336.868,19.707,110.773
海南,昌江黎族自治县,18.511,23.217,2.341,2.928,0.236,82.48,-0.998,0.148,294.362,71.889,98596.612,19.233,109.016
海南,海口市,22.62,36.845,4.358,5.855,0.438,76.316,-4.052,-0.395,294.662,80.835,101125.119,19.842,110.393
海南,澄迈县,23.433,38.926,4.043,6.531,0.447,70.073,-3.65,0.831,294.539,78.471,100661.504,19.676,109.989
海南,琼中黎族苗族自治县,18.095,24.296,1.767,2.555,0.253,78.105,-3.426,0.626,292.522,84.355,97540.179,19.087,109.847
海南,琼海市,16.963,24.552,2.153,2.397,0.265,88.892,-3.105,-0.853,294.273,84.512,101109.278,19.22,110.43
海南,白沙黎族自治县,17.368,22.03,1.712,2.186,0.235,79.599,-2.952,1.102,293.518,74.731,97231.718,19.2,109.388
海南,陵水黎族自治县,16.166,22.776,1.566,2.85,0.296,82.497,-4.043,-2.723,293.63,82.58,99568.296,18.581,109.913
湖北,仙桃市,38.21,68.004,8.624,23.698,0.948,82.702,1.765,5.288,292.98,61.833,101445.244,30.284,113.417
湖北,十堰市,30.365,50.579,8.765,10.215,0.553,69.388,4.976,0.35,292.819,37.292,93417.225,32.462,110.476
湖北,咸宁市,37.849,60.967,6.362,14.184,0.738,92.255,1.084,2.504,292.267,56.619,99634.056,29.621,114.178
湖北,天门市,38.282,68.195,10.686,25.445,1.062,77.314,1.751,5.991,293.187,60.038,101354.228,30.633,113.053
湖北,孝感市,41.645,71.87,9.974,28.927,0.918,82.733,1.849,5.751,292.402,62.179,100771.734,31.116,113.869
湖北,宜昌市,35.471,54.844,10.788,12.519,0.725,68.883,2.955,0.796,291.942,48.395,94303.419,30.746,111.129
湖北,恩施土家族苗族自治州,37.976,60.087,15.788,12.265,0.745,58.219,2.682,-2.197,288.151,61.573,89906.623,30.195,109.552
湖北,武汉市,45.661,82.812,7.904,42.718,0.889,71.877,0.735,4.001,292.228,59.286,101363.99,30.606,114.349
湖北,潜江市,36.988,63.634,10.779,21.817,0.991,78.468,1.436,6.19,293.309,59.419,101366.809,30.33,112.77
湖北,神农架林区,35.53,47.894,9.32,3.74,0.438,76.845,3.259,-0.598,285.819,49.855,83295.936,31.592,110.49
湖北,荆州市,35.52,62.018,11.277,21.537,0.977,78.53,1.064,5.279,293.478,57.68,101142.612,30.01,112.512
湖北,荆门市,39.576,67.169,12.987,23.717,1.019,78.594,1.211,5.736,293.173,57.364,100286.254,31.059,112.616
湖北,襄阳市,35.283,55.684,9.709,10.657,0.658,82.874,1.63,3.885,294.037,43.06,97474.22,31.919,111.96
湖北,鄂州市,45.744,78.373,9.746,37.961,0.991,74.516,0.073,2.651,292.384,56.416,101439.647,30.337,114.794
湖北,随州市,39.729,65.066,11.392,14.908,0.848,93.861,1.798,5.986,292.804,57.804,99566.918,31.809,113.43
湖北,黄冈市,47.257,80.649,10.504,27.548,0.768,79.536,0.275,2.963,291.194,58.505,99710.347,30.702,115.358
湖北,黄石市,38.188,63.658,7.926,17.898,0.745,87.67,0.002,2.371,292.109,55.927,100474.771,29.925,115.034
湖南,娄底市,32.039,58.181,12.94,22.408,1.015,67.619,0.177,1.461,291.435,59.016,97504.722,27.715,111.632
湖南,岳阳市,40.776,65.74,9.464,22.41,0.799,84.445,0.395,3.628,292.205,60.251,100342.166,29.081,113.275
湖南,常德市,25.277,46.555,11.209,13.49,0.843,75.737,1.373,2.946,293.533,53.944,99468.831,29.271,111.524
湖南,张家界市,20.338,43.029,11.113,8.009,0.776,66.901,3.589,0.759,291.943,54.919,95568.532,29.379,110.526
湖南,怀化市,29.308,56.032,10.059,14.54,0.7,65.825,0.591,0.306,291.648,58.356,96594.724,27.535,110.071
湖南,株洲市,32.516,51.253,10.135,12.551,0.727,76.59,-1.256,-0.018,290.926,60.868,98245.911,27.109,113.513
湖南,永州市,32.01,48.493,11.626,10.172,0.684,73.423,-1.404,-1.286,290.967,59.001,96853.909,25.748,111.723
湖南,湘潭市,32.716,55.092,10.841,21.622,0.878,74.202,-0.105,1.827,291.892,62.061,100497.948,27.744,112.619
湖南,湘西土家族苗族自治州,27.114,55.721,10.992,19.668,0.692,52.587,1.984,0.101,291.329,58.606,95561.349,28.708,109.718
湖南,益阳市,29.149,53.734,10.207,18.741,0.929,75.034,0.584,3.488,292.567,56.716,99036.013,28.525,111.919
湖南,衡阳市,37.243,61.106,11.807,19.978,1.033,68.076,-0.453,-0.095,291.5,63.073,100036.082,26.781,112.565
湖南,邵阳市,36.838,57.366,12.581,12.835,0.753,71.914,-0.851,0.519,290.607,58.888,95302.75,26.893,110.881
湖南,郴州市,28.32,45.714,10.119,13.616,0.941,67.792,-0.87,-1.312,290.202,61.732,96021.073,25.769,113.109
湖南,长沙市,36.824,60.287,11.457,27.637,0.847,75.357,-0.121,2.046,291.747,61.025,99897.074,28.235,113.159
甘肃,临夏回族自治州,29.428,86.015,4.441,14.736,0.74,73.29,2.229,0.844,283.236,24.322,77756.538,35.617,103.291
甘肃,兰州市,41.245,137.01,13.454,35.697,0.967,62.439,1.746,1.079,284.485,23.179,79338.913,36.359,103.633
甘肃,嘉峪关市,50.535,249.103,13.25,27.197,0.37,76.345,2.407,-0.49,286.738,11.638,81719.445,39.798,98.145
甘肃,天水市,32.508,113.475,5.057,20.152,0.462,65.755,1.965,0.448,285.684,31.014,82938.023,34.645,105.739
甘肃,定西市,30.798,97.361,4.327,15.239,0.558,71.63,2.151,0.089,282.196,30.342,77548.53,35.124,104.432
甘肃,平凉市,37.855,155.711,5.918,25.702,0.576,67.376,2.893,0.214,287.873,24.253,84689.801,35.304,106.644
甘肃,庆阳市,28.217,103.354,6.167,15.975,0.417,69.489,3.87,-0.619,288.316,23.185,85892.601,36.149,107.596
甘肃,张掖市,16.312,52.203,1.628,4.78,0.208,74.685,2.565,0.581,280.914,17.7,74835.116,38.94,99.855
甘肃,武威市,26.673,68.171,2.406,8.098,0.353,70.378,3.314,-0.176,285.921,17.436,81494.894,38.163,103.073
甘肃,甘南藏族自治州,10.512,16.781,1.272,3.34,0.263,84.611,2.802,-1.202,273.005,50.876,67997.524,34.331,102.768
甘肃,白银市,45.364,169.281,12.254,30.574,0.778,62.486,2.413,2.024,285.809,23.863,81683.047,36.59,104.646
甘肃,酒泉市,14.643,24.14,0.717,1.201,0.156,72.254,2.618,0.625,283.291,19.75,79158.417,40.236,96.062
甘肃,金昌市,27.086,77.252,3.16,10.418,0.367,71.671,3.726,-0.708,286.217,13.673,80723.996,38.44,102.048
甘肃,陇南市,20.5,40.756,3.522,10.024,0.288,69.792,2.818,0.41,284.987,35.765,82503.278,33.599,105.224
福建,三明市,30.722,39.966,8.502,10.893,0.715,62.958,-0.822,-1.778,288.254,76.14,95424.235,26.29,117.395
福建,南平市,26.011,35.397,6.928,7.543,0.532,67.707,-0.577,-1.301,288.869,71.198,96195.577,27.324,118.143
福建,厦门市,34.637,54.453,11.27,23.782,0.637,78.01,-3.42,-2.97,292.012,77.268,100596.833,24.642,118.11
福建,宁德市,26.496,34.895,5.197,7.599,0.438,82.502,-1.735,-1.033,287.731,84.083,95536.381,26.968,119.474
福建,泉州市,30.947,43.171,7.658,13.348,0.589,81.512,-1.777,-2.354,289.563,80.168,96826.2,25.201,118.249
福建,漳州市,33.844,50.833,8.855,14.999,0.589,88.174,-2.196,-1.773,291.378,77.594,98410.281,24.372,117.444
福建,福州市,24.809,34.751,5.358,10.433,0.491,87.19,-2.087,-2.584,289.063,85.524,97627.414,26.083,119.206
福建,莆田市,27.659,37.565,6.418,10.806,0.529,87.503,-2.3,-3.433,290.071,81.348,98369.159,25.445,118.864
福建,龙岩市,30.795,43.778,8.562,12.689,0.614,73.057,-0.919,-2.333,289.635,70.682,95376.877,25.256,116.739
西藏,山南市,12.631,14.892,1.225,1.285,0.183,96.713,-0.752,-4.102,272.931,65.673,66192.141,28.295,92.274
西藏,拉萨市,3.934,7.124,0.211,1.233,0.169,95.925,-3.753,-5.35,265.221,54.97,56755.776,30.043,91.093
西藏,日喀则市,1.494,1.964,0.09,0.337,0.137,122.723,-2.189,-4.495,266.356,42.776,55561.924,29.483,86.493
西藏,昌都市,9.018,9.751,1.184,0.713,0.154,81.697,-1.697,-3.501,265.895,76.272,59219.401,30.753,97.044
西藏,林芝市,11.261,12.605,1.248,1.123,0.162,92.248,-1.717,-3.38,272.277,69.247,66438.075,29.184,95.25
西藏,玉树藏族自治州,2.631,3.177,0.153,0.288,0.149,100.907,0.731,-2.067,264.463,48.058,57642.384,34.196,94.317
西藏,那曲市,1.375,1.424,0.067,0.159,0.14,105.759,-0.478,-2.49,264.828,36.673,55770.392,32.709,89.262
西藏,阿里地区,0.378,0.416,0.021,0.547,0.133,117.155,3.026,1.567,266.485,21.049,55189.837,33.013,82.553
贵州,六盘水市,24.779,40.536,10.028,15.431,0.732,49.0,-4.513,-0.095,283.446,97.581,83418.998,26.106,104.896
贵州,安顺市,40.561,56.808,8.773,16.458,0.586,53.574,-4.22,0.18,285.898,93.713,88529.931,25.986,105.978
贵州,毕节市,33.098,49.074,10.176,19.121,0.75,49.001,-2.419,-1.079,282.744,94.655,83820.097,27.063,105.211
贵州,贵阳市,63.751,84.183,8.251,35.481,0.773,35.276,-1.595,-1.152,285.604,90.019,88615.501,26.845,106.71
贵州,遵义市,55.192,73.562,11.631,16.411,0.671,51.036,0.568,-1.909,287.068,80.921,90813.876,28.167,107.102
贵州,铜仁市,32.47,70.117,13.461,15.956,0.676,58.912,0.588,-0.676,289.79,64.988,93127.849,27.937,108.534
贵州,黔东南苗族侗族自治州,34.487,58.895,11.796,9.569,0.617,68.212,-0.276,-0.752,289.578,69.175,93023.876,26.495,108.574
贵州,黔南布依族苗族自治州,43.81,63.801,10.555,11.384,0.576,60.582,-1.928,-0.454,287.597,84.511,90758.938,26.0,107.265
贵州,黔西南布依族苗族自治州,20.43,36.282,8.621,7.982,0.666,56.071,-4.176,0.521,286.648,96.107,88860.179,25.256,105.467
辽宁,丹东市,59.47,87.973,18.706,20.239,1.007,117.742,-0.781,5.504,279.193,94.928,98253.83,40.554,124.376
辽宁,大连市,63.08,88.975,10.887,22.555,0.922,111.581,-0.435,6.042,283.758,82.931,100280.834,39.591,122.22
辽宁,抚顺市,57.214,87.516,21.074,14.544,0.893,147.593,2.128,11.606,284.741,60.494,96171.912,41.841,124.65
辽宁,朝阳市,100.928,169.339,24.532,27.542,1.325,108.209,6.706,5.35,290.822,27.615,95404.736,41.545,120.053
辽宁,本溪市,59.347,88.988,20.596,15.782,0.95,136.748,-0.021,10.597,281.575,80.025,95695.157,41.232,124.544
辽宁,沈阳市,70.297,114.261,24.665,23.254,1.072,133.542,3.479,12.235,287.9,57.337,100008.545,42.081,123.159
辽宁,盘锦市,70.777,100.883,18.093,21.976,1.034,130.22,3.163,10.635,283.51,78.294,100764.587,41.13,122.01
辽宁,营口市,56.784,88.23,13.498,21.262,0.929,126.524,0.294,10.198,286.133,68.313,98758.311,40.395,122.478
辽宁,葫芦岛市,97.151,138.786,29.431,35.95,1.202,103.784,4.788,6.564,289.242,43.556,98198.72,40.66,120.215
辽宁,辽阳市,53.009,85.349,18.218,20.915,1.073,134.438,0.349,11.566,286.244,62.416,98888.828,41.153,123.261
辽宁,铁岭市,66.21,112.134,24.647,20.742,0.964,138.959,3.728,12.474,287.343,54.836,98463.602,42.653,124.158
辽宁,锦州市,95.802,139.137,29.877,23.881,1.108,126.74,2.103,8.733,283.21,73.329,99838.34,41.502,121.659
辽宁,阜新市,97.718,164.537,25.158,20.516,0.972,117.575,2.944,8.81,287.229,50.045,98231.078,42.289,121.968
辽宁,鞍山市,59.914,93.118,15.541,21.831,1.053,125.698,0.273,8.301,283.568,76.984,99072.956,40.731,123.007
重庆,重庆城区,57.0,80.435,15.008,29.611,0.872,49.096,2.037,0.362,289.605,69.373,95356.336,29.824,107.125
重庆,重庆郊县,50.796,73.199,18.391,15.69,0.682,65.904,2.458,-0.153,288.389,64.763,91485.749,30.334,108.755
陕西,咸阳市,42.486,153.58,9.641,35.734,0.817,62.062,2.645,-0.997,292.118,21.674,91475.39,34.779,108.367
陕西,商洛市,19.811,48.929,5.334,17.624,0.414,62.136,3.894,-0.74,291.216,24.741,89459.701,33.64,109.889
陕西,安康市,29.336,49.169,8.969,8.843,0.46,70.859,4.895,0.884,290.028,43.495,90092.774,32.735,108.932
陕西,宝鸡市,29.831,103.514,6.308,25.739,0.513,60.658,3.54,0.133,289.303,26.333,86523.032,34.386,107.193
陕西,延安市,23.478,78.76,6.918,24.541,0.657,60.792,5.925,-1.419,289.623,21.43,87544.59,36.432,109.316
陕西,榆林市,37.16,115.373,10.926,34.231,0.853,53.958,7.236,-1.39,288.924,23.549,87771.973,38.041,109.581
陕西,汉中市,29.235,50.842,8.085,13.487,0.534,64.618,3.181,1.119,289.248,41.712,89199.314,33.088,107.098
陕西,渭南市,35.994,110.315,11.662,39.179,0.681,61.09,4.271,0.549,293.926,19.236,93715.836,34.919,109.855
陕西,西安市,28.495,100.209,8.935,38.407,0.712,58.37,3.286,1.183,291.662,24.017,90592.743,34.12,108.77
陕西,铜川市,28.872,94.404,7.456,22.487,0.565,68.714,4.601,-1.723,291.682,18.101,89194.429,35.198,109.058
青海,保亭黎族苗族自治县,17.59,26.054,1.772,4.748,0.374,79.254,-4.502,-1.546,292.946,79.018,97395.83,18.566,109.618
青海,吐鲁番市,9.849,21.462,2.243,3.837,0.207,62.939,-1.26,-3.632,288.243,31.414,90124.76,42.386,89.851
青海,果洛藏族自治州,6.769,7.015,0.717,0.896,0.15,89.854,0.804,-1.717,265.09,65.565,60326.185,34.127,99.404
青海,海东市,17.407,36.717,4.136,8.482,0.501,75.439,2.888,0.631,279.652,27.583,73086.04,36.347,102.34
青海,海北藏族自治州,4.327,6.36,0.727,1.257,0.166,81.297,3.155,0.16,273.037,26.73,65667.807,37.775,100.288
青海,海南藏族自治州,5.184,5.48,0.437,0.59,0.151,85.204,3.755,-0.886,273.459,35.98,66883.338,35.89,100.272
青海,海西蒙古族藏族自治州,2.989,3.32,0.278,0.306,0.145,91.878,1.99,0.638,272.252,25.202,64869.408,36.677,94.519
青海,西宁市,13.364,35.943,4.857,9.967,0.474,74.577,3.651,-0.163,277.043,25.756,69893.038,36.842,101.423
青海,黄南藏族自治州,6.686,7.297,0.752,0.874,0.164,86.514,2.912,-0.95,271.716,50.456,66200.634,35.022,101.631
香港,香港特别行政区,43.345,62.005,7.8,36.635,0.58,79.98,-1.61,-0.29,294.09,77.775,101144.21,22.45,114.22
黑龙江,七台河市,56.456,129.27,10.962,17.672,0.6,111.793,5.406,5.741,284.49,47.918,97135.897,45.87,130.943
黑龙江,伊春市,20.188,42.373,7.344,5.495,0.368,89.028,3.05,4.842,279.214,61.602,95367.213,47.772,129.184
黑龙江,佳木斯市,31.001,68.958,7.344,8.23,0.424,86.601,3.358,6.296,281.618,57.365,98987.442,47.207,132.11
黑龙江,双鸭山市,32.113,63.308,8.281,7.738,0.398,85.213,3.25,7.235,282.371,54.418,98655.993,46.722,132.643
黑龙江,哈尔滨市,58.248,153.91,15.057,14.242,0.624,121.291,4.401,6.673,284.124,50.615,97368.997,45.634,127.964
黑龙江,大兴安岭地区,0.853,1.299,1.133,1.181,0.19,72.324,0.066,-2.792,270.579,70.032,93467.534,52.286,124.212
黑龙江,大庆市,58.444,182.914,10.053,13.265,0.662,92.641,3.813,5.067,285.149,37.008,98367.367,46.327,124.687
黑龙江,牡丹江市,56.645,89.088,12.76,12.788,0.601,128.614,6.615,7.309,284.454,48.129,94558.955,44.592,129.883
黑龙江,绥化市,41.916,140.896,11.163,13.884,0.581,93.812,3.071,5.178,282.441,48.025,97607.055,46.89,126.634
黑龙江,鸡西市,50.777,77.433,11.553,10.931,0.52,86.012,3.563,7.91,283.306,53.462,98534.526,45.626,132.289
黑龙江,鹤岗市,23.571,55.144,7.405,9.301,0.434,85.424,3.154,4.349,280.855,56.827,97863.193,47.661,130.778
黑龙江,黑河市,18.305,28.527,5.21,4.797,0.315,69.395,0.987,2.195,277.043,63.6,95509.226,49.268,127.004
黑龙江,齐齐哈尔市,40.41,142.415,8.994,9.99,0.553,68.533,3.871,4.279,281.598,44.501,97395.421,47.715,124.57
