province,city,PM2.5,PM10,SO2,NO2,CO,O3,U,V,TEMP,RH,PSFC,lat,lon
上海,上海市,24.612,40.661,8.228,42.008,0.543,57.896,-3.4,4.185,285.219,94.828,101728.892,31.173,121.42
云南,临沧市,58.803,74.553,6.095,11.501,0.765,87.798,5.238,0.266,289.026,60.265,83941.048,23.935,99.686
云南,丽江市,18.643,31.714,5.058,3.735,0.754,92.63,7.384,1.154,280.681,63.571,74486.984,26.96,100.515
云南,保山市,51.34,71.926,6.752,13.879,0.806,77.467,5.411,0.602,286.293,67.348,81902.468,24.953,98.962
云南,大理白族自治州,29.521,45.154,5.599,6.389,0.706,90.935,7.393,1.68,283.543,67.766,78062.889,25.726,100.053
云南,德宏傣族景颇族自治州,80.426,103.06,8.286,21.602,0.955,72.207,3.134,-0.096,289.519,61.539,86128.681,24.535,98.052
云南,怒江傈僳族自治州,20.13,29.477,3.638,1.45,0.43,85.715,5.064,1.031,276.995,89.643,72700.969,26.916,98.885
云南,文山壮族苗族自治州,37.751,49.466,5.548,5.593,0.619,91.437,5.926,5.093,292.346,63.637,86448.726,23.696,104.735
云南,昆明市,39.36,58.97,6.894,11.524,0.679,99.056,10.407,2.881,286.102,58.95,79150.547,25.384,102.863
云南,昭通市,35.868,55.6,11.74,6.928,0.555,77.665,1.495,-0.951,284.344,72.095,83907.237,27.667,103.985
云南,普洱市,53.451,69.625,5.054,10.081,0.585,90.827,4.04,0.493,291.52,55.708,85986.486,23.159,100.718
云南,曲靖市,32.154,46.043,6.958,7.839,0.444,96.794,11.898,2.929,287.764,49.851,79848.827,25.737,103.929
云南,楚雄彝族自治州,37.408,53.936,6.243,8.374,0.727,88.989,8.095,2.524,286.946,57.663,80913.198,25.328,101.567
云南,玉溪市,46.653,69.907,5.419,8.356,0.818,99.682,6.542,1.714,289.502,58.908,83461.791,24.136,102.217
云南,红河哈尼族彝族自治州,48.604,64.392,5.594,6.247,0.705,106.932,5.522,1.699,291.426,57.311,85140.744,23.451,103.034
云南,西双版纳傣族自治州,63.943,84.894,5.129,16.124,0.672,81.177,2.287,-0.007,294.55,50.79,88955.29,21.939,100.912
云南,迪庆藏族自治州,13.27,20.316,3.584,1.178,0.371,94.734,7.811,1.584,272.334,82.32,67051.205,27.957,99.459
内蒙古,乌兰察布市,26.725,39.377,10.428,8.37,0.542,61.301,-2.51,-1.997,274.395,48.213,86289.772,41.691,112.44
内蒙古,乌海市,65.256,93.329,40.366,31.745,1.146,55.228,-0.058,-0.875,278.451,67.471,87883.72,39.396,106.856
内蒙古,兴安盟,3.23,4.953,2.68,1.778,0.186,66.132,5.743,-5.418,271.937,54.717,95236.905,46.244,121.341
内蒙古,包头市,38.793,50.691,12.447,11.022,0.68,62.147,-3.349,-0.999,275.495,48.945,86232.348,41.549,110.276
内蒙古,呼伦贝尔市,1.745,2.749,2.302,1.568,0.174,72.304,5.167,-5.794,264.894,66.222,93973.402,49.636,121.171
内蒙古,呼和浩特市,55.87,79.107,15.581,23.475,1.088,60.043,-3.701,-1.236,276.352,52.306,86544.674,40.578,111.513
内蒙古,巴彦淖尔市,43.705,57.63,15.355,12.151,0.588,59.21,-2.927,-0.095,277.2,57.626,87611.995,41.446,107.582
内蒙古,赤峰市,14.265,19.613,4.658,4.948,0.298,59.8,2.294,-5.011,274.671,40.982,92390.274,43.226,118.892
内蒙古,通辽市,19.663,22.8,5.142,5.356,0.336,60.558,3.249,-3.441,276.201,46.36,98416.547,43.814,121.591
内蒙古,鄂尔多斯市,60.729,78.847,19.338,20.465,0.865,60.381,-2.18,-0.833,277.368,66.821,87197.466,39.407,108.63
内蒙古,锡林郭勒盟,5.465,6.957,3.512,1.448,0.191,61.494,0.627,-2.628,272.196,53.395,89555.064,44.179,115.482
内蒙古,阿拉善盟,31.654,46.003,11.857,2.268,0.33,65.289,-0.828,-0.245,277.72,68.36,87777.697,40.473,102.467
北京,北京市,81.429,101.409,4.285,40.511,0.801,49.612,-0.349,-0.372,276.388,65.72,98415.835,40.158,116.395
台湾,台湾省,20.27,26.461,5.972,16.365,0.238,79.386,-0.263,-0.435,291.073,73.131,93265.711,23.757,120.975
吉林,吉林市,36.817,46.327,11.524,14.35,0.743,83.021,4.819,2.274,272.666,78.384,97562.461,43.573,126.859
吉林,四平市,49.15,54.326,9.702,14.707,0.753,64.321,3.078,1.906,274.942,70.721,99938.95,43.472,124.386
吉林,延边朝鲜族自治州,22.252,29.885,11.165,12.362,0.479,76.018,8.468,1.016,272.286,71.645,94359.332,43.141,129.147
吉林,松原市,24.672,28.912,5.774,7.587,0.456,56.531,3.954,-1.643,275.114,51.2,100263.68,44.785,124.496
吉林,白城市,9.031,13.732,3.394,3.09,0.245,61.898,3.733,-5.033,276.429,42.992,100422.121,45.35,123.031
吉林,白山市,23.381,31.394,12.575,12.646,0.607,75.719,4.257,2.897,270.8,85.596,92626.338,42.063,127.256
吉林,辽源市,43.723,54.812,12.035,18.413,0.896,72.107,5.143,2.695,273.645,78.269,98017.467,42.836,125.32
吉林,通化市,28.484,39.854,13.291,16.77,0.8,74.827,3.092,2.438,272.839,81.786,96207.484,41.939,125.927
吉林,长春市,43.892,49.549,9.341,15.201,0.78,68.624,4.829,0.703,273.919,68.236,99788.207,44.268,125.611
四川,乐山市,31.247,62.3,10.412,13.962,0.495,68.2,-0.498,-3.01,284.435,70.376,89441.454,29.218,103.569
四川,内江市,24.975,62.134,8.224,11.16,0.572,65.287,0.58,-4.73,287.605,65.806,96530.178,29.62,104.95
四川,凉山彝族自治州,18.63,26.06,6.4,4.742,0.602,91.377,7.134,2.895,280.736,53.397,73912.615,27.883,102.065
四川,南充市,23.455,52.083,12.226,13.808,0.631,53.415,-4.201,-5.457,285.256,71.111,96538.971,31.19,106.199
四川,宜宾市,30.989,57.537,12.026,13.963,0.575,66.95,0.896,-3.367,287.985,65.054,94893.564,28.573,104.621
四川,巴中市,23.353,48.199,13.693,13.219,0.588,50.086,-6.875,-5.843,282.071,72.436,92265.584,32.033,107.031
四川,广元市,31.991,74.866,14.017,10.999,0.537,60.989,-3.856,-5.968,283.471,66.038,91425.781,32.261,105.788
四川,广安市,16.713,33.915,8.841,17.045,0.679,40.686,-0.531,-1.981,286.815,76.93,96473.367,30.43,106.628
四川,德阳市,35.993,92.388,7.662,13.868,0.589,67.46,-4.09,-3.56,285.895,59.682,93000.517,31.13,104.436
四川,成都市,32.304,85.128,8.854,20.298,0.653,65.408,-1.388,-2.291,286.078,61.42,93156.86,30.64,103.929
四川,攀枝花市,29.473,44.506,18.899,21.738,1.204,80.925,5.026,3.646,287.619,48.051,81311.684,26.791,101.734
四川,泸州市,29.377,48.614,10.151,11.603,0.531,55.889,2.621,-2.699,286.928,73.976,93242.325,28.424,105.675
四川,甘孜藏族自治州,8.77,10.148,1.201,0.8,0.171,90.118,6.519,2.479,268.156,65.219,60792.689,30.936,100.009
四川,眉山市,28.826,72.787,9.34,18.29,0.579,63.266,-0.68,-2.809,286.666,62.565,93619.393,29.912,103.766
四川,绵阳市,38.206,77.906,10.785,7.3,0.468,70.066,-3.58,-4.521,282.506,64.993,87790.29,31.86,104.704
四川,自贡市,26.626,61.067,8.986,14.537,0.571,64.053,0.645,-4.114,288.206,62.296,96513.15,29.307,104.659
四川,资阳市,23.505,63.969,8.816,9.323,0.606,65.647,-0.61,-5.168,286.984,68.237,96777.887,30.102,105.149
四川,达州市,20.202,35.151,15.292,17.109,0.602,46.302,-4.909,-2.408,283.958,82.021,93803.455,31.335,107.636
四川,遂宁市,25.838,62.296,10.39,10.832,0.625,62.707,-2.422,-5.881,286.237,69.542,97012.173,30.642,105.457
四川,阿坝藏族羌族自治州,21.492,32.527,4.078,1.947,0.244,81.974,1.608,1.201,270.232,73.776,65101.375,32.406,102.61
四川,雅安市,29.726,50.6,8.676,5.728,0.372,78.438,-0.612,-0.39,278.309,81.88,79845.281,29.932,102.689
天津,天津市,85.553,98.763,5.541,55.327,0.992,36.329,-0.65,0.508,276.252,77.148,102265.939,39.315,117.308
宁夏,中卫市,58.702,142.262,13.77,10.112,0.536,60.88,1.676,-3.531,277.466,65.314,83691.758,37.018,105.509
宁夏,吴忠市,68.253,97.016,19.99,18.279,0.523,47.922,0.728,-2.972,278.078,74.597,85229.72,37.454,106.577
宁夏,固原市,60.983,159.395,14.133,19.042,0.705,58.34,0.687,-4.71,276.412,71.499,80998.503,35.905,106.183
宁夏,石嘴山市,63.451,91.759,31.656,27.751,0.96,59.797,-0.258,-2.254,277.924,71.377,86949.906,39.013,106.499
宁夏,银川市,66.289,93.064,24.497,25.044,0.725,52.168,-0.132,-2.573,278.829,70.578,87235.956,38.287,106.342
安徽,亳州市,72.501,76.614,10.122,34.355,0.997,35.578,-2.672,-4.993,281.561,90.028,101573.502,33.44,116.162
安徽,六安市,39.88,52.308,7.784,21.623,0.817,42.65,-0.889,-1.927,283.454,94.956,98894.224,31.617,116.209
安徽,合肥市,31.266,40.283,6.45,27.228,0.698,41.245,-2.067,-2.04,284.111,93.196,101279.14,31.766,117.359
安徽,安庆市,36.819,41.803,6.918,18.05,0.742,43.372,-1.618,-2.074,285.837,93.774,99245.289,30.557,116.473
安徽,宣城市,24.284,34.774,6.942,25.173,0.65,41.814,-1.028,1.635,286.619,90.682,99199.297,30.676,118.846
安徽,宿州市,52.412,54.759,9.912,31.942,0.778,44.817,-3.947,-3.678,281.358,89.435,101534.529,33.844,117.23
安徽,池州市,23.416,28.663,7.688,19.131,0.617,46.683,-1.476,-0.239,286.773,92.331,99409.684,30.296,117.379
安徽,淮北市,64.907,66.37,13.529,40.72,0.944,36.364,-3.9,-3.91,281.733,88.663,101575.917,33.722,116.747
安徽,淮南市,37.507,48.94,9.695,28.503,0.745,38.86,-2.811,-3.228,282.905,92.897,101510.649,32.463,116.746
安徽,滁州市,27.151,37.537,7.561,27.219,0.555,46.986,-3.228,-1.991,282.365,93.809,101218.117,32.55,118.076
安徽,芜湖市,30.221,38.214,8.273,33.156,0.771,36.47,-1.668,-1.65,285.601,93.289,101407.618,31.167,118.162
安徽,蚌埠市,36.495,44.294,10.23,29.942,0.621,45.847,-3.703,-3.293,282.013,91.231,101538.137,33.121,117.263
安徽,铜陵市,35.741,43.152,8.167,28.798,0.767,38.251,-0.853,-2.344,286.348,91.438,101249.466,30.883,117.531
安徽,阜阳市,65.79,76.492,10.046,28.29,0.988,36.455,-2.281,-5.315,281.669,91.178,101528.268,32.937,115.723
安徽,马鞍山市,27.828,37.794,7.93,33.419,0.732,37.294,-2.527,-1.232,284.213,94.245,101434.666,31.622,118.386
安徽,黄山市,22.336,33.693,7.474,17.541,0.622,45.181,-1.508,1.308,287.126,93.487,97191.901,29.869,118.09
山东,东营市,46.56,62.23,9.864,18.59,0.632,59.218,-3.582,-2.848,276.068,89.953,102291.863,37.57,118.572
山东,临沂市,32.924,44.662,4.889,23.088,0.738,57.669,-4.244,-3.331,279.154,91.848,100167.92,35.289,118.27
山东,威海市,15.727,21.635,5.253,17.814,0.44,77.232,-3.19,-0.939,277.766,93.661,101587.12,37.148,122.028
山东,德州市,75.266,90.041,10.387,33.348,0.968,46.502,-3.203,-3.763,277.818,76.352,102125.251,37.233,116.679
山东,日照市,19.449,28.574,4.09,16.713,0.516,72.219,-3.791,-2.685,278.743,95.753,100318.267,35.566,119.108
山东,枣庄市,43.334,58.291,7.062,28.281,0.823,48.284,-4.582,-3.205,280.326,86.772,100878.514,34.925,117.383
山东,泰安市,79.339,97.216,8.154,38.895,1.294,36.021,-3.125,-4.079,279.062,84.097,100136.706,35.993,117.04
山东,济南市,78.988,94.563,10.98,38.337,1.121,35.984,-3.428,-3.821,277.68,86.279,100196.519,36.639,117.254
山东,济宁市,71.107,93.964,8.781,40.453,1.261,34.847,-2.661,-4.573,280.121,83.388,101408.731,35.375,116.697
山东,淄博市,66.747,78.542,11.08,35.38,1.081,39.86,-3.861,-2.883,277.341,91.073,99557.85,36.623,118.062
山东,滨州市,60.937,73.877,10.529,26.119,0.769,52.376,-3.7,-2.886,276.994,83.905,102220.198,37.516,117.852
山东,潍坊市,39.443,53.384,7.313,23.89,0.73,54.353,-2.998,-2.905,277.887,93.384,101033.289,36.53,119.092
山东,烟台市,23.316,34.213,5.621,22.758,0.542,58.446,-2.899,-1.665,277.281,92.233,101067.797,37.25,120.789
山东,聊城市,76.661,93.588,9.198,33.529,0.985,46.153,-2.817,-5.097,278.481,76.0,101849.931,36.458,115.863
山东,菏泽市,87.249,100.073,7.122,39.852,1.272,37.802,-1.876,-6.504,279.177,82.079,101599.494,35.134,115.69
山东,青岛市,17.243,26.679,4.078,15.234,0.424,76.142,-4.07,-1.399,278.642,94.137,101587.454,36.46,120.172
山西,临汾市,106.149,124.348,52.787,40.029,1.616,35.341,-1.036,-1.435,276.701,82.146,90218.639,36.227,111.398
山西,吕梁市,94.867,130.331,30.436,41.021,1.734,32.228,-1.713,0.25,276.425,77.759,87805.011,37.663,111.27
山西,大同市,65.869,79.189,11.67,21.232,0.934,62.393,-2.378,-2.873,275.596,57.225,87476.279,39.911,113.713
山西,太原市,93.967,116.981,23.686,51.119,1.25,33.679,-2.391,-0.939,275.499,72.109,87730.9,37.967,112.321
山西,忻州市,87.8,102.609,19.289,28.79,1.036,59.085,-2.763,-0.7,275.633,66.994,86229.53,38.877,112.391
山西,晋中市,84.809,102.785,18.986,46.362,1.204,41.62,-1.906,-2.812,274.632,76.653,88645.47,37.328,112.997
山西,晋城市,80.048,94.722,12.261,31.114,1.13,40.308,-0.737,-0.923,276.328,79.786,90582.065,35.625,112.752
山西,朔州市,89.349,109.514,22.089,28.98,1.199,63.598,-3.016,-1.979,275.577,61.777,86777.553,39.619,112.655
山西,运城市,87.62,106.554,33.646,34.5,1.325,36.255,-0.833,-0.717,278.482,76.124,94491.366,35.205,111.071
山西,长治市,85.668,102.943,15.758,36.809,1.352,44.675,-1.742,-1.968,274.782,82.476,88915.792,36.48,112.915
山西,阳泉市,87.677,101.483,15.447,49.588,1.198,40.479,-1.366,-1.557,274.194,75.277,90641.434,38.031,113.512
广东,东莞市,28.681,45.974,8.621,29.852,0.711,72.106,-4.659,4.89,295.307,83.236,101350.002,22.931,113.81
广东,中山市,23.649,38.622,8.138,16.951,0.468,81.573,-5.343,4.864,295.069,87.263,101343.154,22.5,113.383
广东,云浮市,28.337,38.506,2.119,9.506,0.548,71.759,-2.648,7.245,295.593,78.086,99225.881,22.776,111.818
广东,佛山市,31.047,50.858,9.426,35.402,0.68,62.044,-3.587,5.921,296.07,79.477,101338.406,23.035,112.979
广东,广州市,33.646,51.969,9.822,37.09,0.732,62.147,-3.863,5.907,294.894,82.362,100469.447,23.339,113.525
广东,惠州市,24.628,35.001,4.208,9.971,0.488,83.318,-4.288,4.208,293.684,84.848,99543.704,23.244,114.485
广东,揭阳市,33.386,50.94,9.87,20.174,0.821,88.689,-4.124,0.502,292.454,84.687,100232.136,23.323,116.123
广东,梅州市,35.868,49.499,7.488,16.729,0.817,80.594,-2.523,4.213,292.492,77.4,98136.242,24.169,116.07
广东,汕头市,26.138,42.465,9.195,20.038,0.636,95.0,-5.006,-0.849,292.493,87.363,101373.596,23.339,116.614
广东,汕尾市,26.31,39.849,5.185,9.831,0.578,88.301,-5.229,0.695,292.926,86.778,99933.622,23.024,115.527
广东,江门市,23.401,35.94,2.701,9.594,0.372,83.775,-4.325,5.462,295.245,85.789,100751.844,22.289,112.676
广东,河源市,32.987,42.588,4.582,11.629,0.612,77.513,-1.618,4.626,292.851,81.546,98302.943,24.021,114.969
广东,深圳市,23.579,39.193,6.747,22.099,0.566,83.022,-6.71,3.842,294.548,88.59,100883.218,22.667,114.143
广东,清远市,39.544,50.291,10.082,28.596,0.682,57.398,-1.569,7.469,293.139,86.857,97716.547,24.295,112.871
广东,湛江市,17.37,29.162,3.104,5.454,0.504,79.905,-5.243,4.821,295.888,84.862,101084.105,21.091,110.163
广东,潮州市,34.642,51.336,9.054,22.616,0.778,83.457,-3.788,0.967,291.841,82.061,99677.309,23.755,116.754
广东,珠海市,18.44,31.555,2.17,5.265,0.3,94.252,-5.505,3.777,294.775,91.028,101428.958,22.095,113.317
广东,肇庆市,32.646,43.939,4.886,18.762,0.619,62.821,-2.878,6.696,294.957,81.577,99340.792,23.505,112.199
广东,茂名市,23.431,34.905,2.972,5.997,0.601,81.606,-3.913,6.491,295.13,82.909,99320.467,22.013,110.952
广东,阳江市,23.26,34.329,1.567,4.209,0.388,84.468,-3.289,5.791,295.046,85.61,99885.084,22.042,111.786
广东,韶关市,40.703,47.092,9.678,23.076,0.845,59.392,-0.059,6.889,292.368,86.345,96944.925,24.785,113.819
广西,北海市,19.984,31.223,3.631,6.039,0.506,83.165,-3.641,5.009,296.276,80.561,101089.664,21.674,109.37
广西,南宁市,21.555,31.51,5.094,10.053,0.627,70.475,-0.177,8.286,295.991,78.05,99126.888,23.051,108.469
广西,崇左市,18.255,22.547,2.91,4.387,0.375,68.651,0.606,6.802,295.661,79.503,97835.668,22.483,107.291
广西,来宾市,26.519,37.993,5.505,8.59,0.604,68.496,0.397,9.717,295.403,76.514,97944.93,23.859,109.417
广西,柳州市,27.451,36.932,7.82,9.884,0.576,61.538,1.051,8.247,294.604,79.628,97276.439,24.956,109.372
广西,桂林市,26.999,34.447,5.939,11.217,0.654,48.774,0.958,7.692,292.876,83.134,95719.213,25.353,110.513
广西,梧州市,33.62,44.402,4.463,16.72,0.872,54.624,-1.097,7.26,295.304,77.74,98885.926,23.484,110.996
广西,河池市,24.023,31.573,4.706,5.35,0.438,72.212,2.105,8.996,295.13,76.512,94887.606,24.628,107.843
广西,玉林市,25.324,37.554,5.76,9.284,0.649,74.001,-2.559,7.668,295.641,78.849,99312.535,22.452,110.164
广西,百色市,32.668,44.514,7.267,7.07,0.712,76.436,2.518,6.76,295.525,67.47,92822.044,23.981,106.292
广西,贵港市,34.155,48.87,6.679,13.586,0.838,61.378,-0.429,7.967,296.058,75.11,99677.059,23.322,110.021
广西,贺州市,34.429,43.434,4.891,11.683,0.712,58.064,-1.6,8.157,293.389,85.232,97068.486,24.364,111.394
广西,钦州市,22.052,33.632,4.869,8.472,0.656,76.41,-2.267,6.488,296.172,78.146,100336.452,22.173,109.01
广西,防城港市,19.174,26.604,5.372,7.35,0.516,77.595,-1.474,5.36,294.557,86.809,98734.37,21.88,108.002
新疆,乌鲁木齐市,9.181,11.55,3.553,10.28,0.325,55.306,3.068,-3.288,269.286,87.844,84465.189,43.746,87.818
新疆,五家渠市,12.487,13.947,7.51,18.827,0.473,44.73,3.897,-0.113,274.4,89.743,97338.863,44.363,87.517
新疆,伊犁哈萨克自治州,4.877,5.593,2.816,2.799,0.23,69.14,0.819,-0.153,266.816,57.62,80614.041,43.438,82.146
新疆,克孜勒苏柯尔克孜自治州,3.131,9.327,0.438,1.686,0.212,70.58,5.764,-2.089,271.357,27.874,70517.179,39.661,75.949
新疆,克拉玛依市,5.013,9.47,4.65,3.274,0.231,62.368,3.659,-0.897,276.714,56.707,98075.713,45.457,85.207
新疆,北屯市,9.812,13.344,11.122,4.644,0.274,58.784,4.39,-7.084,272.246,81.944,96056.934,47.27,87.868
新疆,博尔塔拉蒙古自治州,4.574,5.013,2.971,1.712,0.219,67.425,2.841,-0.067,270.332,52.021,86597.502,44.714,82.114
新疆,双河市,5.106,5.512,3.894,2.176,0.246,62.584,0.238,-2.738,276.432,53.018,98699.114,44.87,82.474
新疆,可克达拉市,12.17,13.754,7.562,9.476,0.522,70.268,-6.93,2.068,275.378,55.054,95540.958,43.918,80.786
新疆,和田地区,13.439,23.609,0.768,0.714,0.221,78.235,2.002,0.154,274.574,22.851,74113.697,37.059,80.934
新疆,哈密市,30.461,44.256,3.714,2.477,0.318,61.563,-1.695,0.347,279.589,41.276,88257.931,43.042,93.517
新疆,喀什地区,14.36,25.733,1.304,3.93,0.329,71.784,2.452,1.38,275.735,20.464,76257.356,38.125,77.178
新疆,图木舒克市,5.198,7.727,1.327,1.055,0.16,65.862,2.202,1.515,283.208,14.193,89427.083,39.892,79.182
新疆,塔城地区,5.084,6.249,3.822,1.955,0.213,60.811,2.675,-0.957,271.04,71.768,90021.827,45.642,84.789
新疆,巴音郭楞蒙古自治州,62.531,65.482,0.916,0.488,0.145,68.73,5.254,-1.454,275.465,35.357,79142.01,39.463,87.481
新疆,新星市,22.815,85.77,4.96,12.49,0.78,71.265,-5.915,1.49,285.075,28.22,92566.71,42.75,93.68
新疆,昆玉市,45.507,155.653,5.97,5.15,0.713,67.24,-2.31,2.24,285.773,17.873,87088.05,37.457,79.093
新疆,昌吉回族自治州,10.282,12.691,5.215,5.856,0.246,51.93,4.417,-0.886,272.422,84.712,90297.354,44.342,88.608
新疆,石河子市,6.19,7.335,5.225,9.975,0.255,67.165,4.9,-0.02,275.235,68.15,95382.86,44.245,86.035
新疆,胡杨河市,5.814,8.086,3.45,4.08,0.23,61.338,5.354,0.866,275.774,62.442,98649.072,44.852,84.772
新疆,铁门关市,23.91,117.51,3.143,4.36,0.233,79.817,-0.383,-2.573,283.027,32.173,91571.667,41.773,85.66
新疆,阿克苏地区,19.741,39.937,1.412,1.827,0.186,70.075,2.286,-4.252,278.182,22.606,85351.729,40.965,81.578
新疆,阿勒泰地区,9.81,10.878,4.045,1.546,0.189,55.91,0.306,-1.372,271.503,83.309,88810.062,46.902,88.421
新疆,阿拉尔市,22.353,80.245,2.172,5.153,0.279,61.742,1.623,0.511,282.102,19.765,90259.989,40.629,80.998
江苏,南京市,27.932,39.826,7.799,34.967,0.693,34.628,-2.808,-0.614,283.773,94.278,101506.433,31.899,118.876
江苏,南通市,23.532,38.834,9.233,35.356,0.515,56.492,-2.997,2.207,283.98,94.516,101730.86,32.201,120.979
江苏,宿迁市,24.245,30.018,6.526,18.661,0.507,60.005,-4.293,-2.834,280.883,93.312,101771.102,33.765,118.495
江苏,常州市,33.356,48.182,8.586,40.367,0.846,32.479,-2.946,1.531,284.244,95.611,101560.031,31.613,119.666
江苏,徐州市,48.342,52.588,7.607,28.8,0.783,47.829,-4.139,-3.539,280.808,89.129,101580.714,34.363,117.513
江苏,扬州市,30.444,41.271,7.33,27.486,0.606,47.926,-3.558,-0.47,282.34,96.1,101724.054,32.709,119.486
江苏,无锡市,32.824,51.178,9.348,45.054,0.889,32.26,-2.786,2.748,284.392,95.768,101480.621,31.546,120.066
江苏,泰州市,29.91,42.767,8.051,29.77,0.609,51.338,-3.623,0.351,282.59,96.65,101689.709,32.605,120.048
江苏,淮安市,22.252,30.089,6.357,17.625,0.465,60.333,-3.938,-1.887,281.334,94.934,101724.881,33.362,118.985
江苏,盐城市,11.394,18.972,3.476,8.924,0.287,82.786,-4.325,-0.644,280.988,97.671,101815.893,33.529,120.156
江苏,苏州市,30.068,50.609,9.137,45.266,0.769,40.972,-3.049,3.522,284.757,95.315,101662.182,31.374,120.661
江苏,连云港市,13.434,20.317,2.983,10.196,0.367,78.862,-4.558,-2.751,279.81,96.053,101734.335,34.519,119.133
江苏,镇江市,35.908,49.121,8.521,39.67,0.772,32.975,-3.398,0.596,283.263,96.381,101556.329,32.016,119.49
江西,上饶市,29.51,37.91,12.461,19.533,0.71,36.142,-0.678,1.626,289.811,85.943,99239.808,28.778,117.47
江西,九江市,28.858,31.307,5.801,19.861,0.761,31.468,-0.435,-0.724,286.171,96.284,99186.321,29.313,115.444
江西,南昌市,27.47,34.351,8.35,25.12,0.932,22.145,-0.837,-1.111,288.48,92.469,101064.79,28.671,116.016
江西,吉安市,32.766,41.215,8.474,15.147,0.804,29.735,0.988,4.638,292.829,79.186,98753.555,26.954,114.831
江西,宜春市,32.071,42.046,9.052,23.894,0.969,18.135,-0.051,-0.154,288.352,93.442,99119.141,28.29,114.974
江西,抚州市,28.249,32.058,8.953,11.455,0.59,40.691,-0.037,4.982,291.658,81.476,98815.555,27.514,116.42
江西,新余市,31.555,44.686,12.185,27.846,1.011,9.199,1.177,0.072,290.211,89.485,100034.973,27.847,114.836
江西,景德镇市,24.898,32.433,8.094,18.622,0.708,34.57,-1.228,0.317,289.133,91.295,100059.77,29.287,117.24
江西,萍乡市,21.533,32.522,11.575,22.093,0.973,16.514,1.629,1.243,288.503,88.952,97792.503,27.505,113.908
江西,赣州市,42.004,53.548,8.771,17.936,1.099,51.128,0.394,7.494,292.239,80.231,97242.852,25.692,115.279
江西,鹰潭市,30.656,35.794,14.981,20.141,0.666,34.956,0.428,4.333,291.381,80.12,99743.533,28.222,117.094
河北,保定市,85.012,97.561,7.174,32.934,0.769,50.478,-1.063,-0.457,276.254,71.946,98381.142,39.018,115.159
河北,唐山市,86.713,108.253,9.611,46.592,1.155,42.71,0.982,0.604,275.589,80.706,101732.788,39.731,118.354
河北,廊坊市,85.135,105.728,6.641,51.98,0.976,39.427,-0.952,0.192,276.786,73.052,102306.503,39.267,116.632
河北,张家口市,49.533,67.864,8.129,20.431,0.693,54.681,-1.228,-2.979,274.817,47.968,88004.745,40.877,115.042
河北,承德市,37.315,48.052,6.865,16.178,0.504,55.09,-0.599,-2.946,275.122,45.921,91402.277,41.339,117.578
河北,沧州市,81.162,98.85,10.517,41.215,1.031,42.858,-2.649,-1.378,276.51,77.995,102312.049,38.258,116.744
河北,石家庄市,93.334,112.866,9.222,40.514,1.124,37.07,-0.458,-0.89,275.431,79.845,98933.605,38.135,114.407
河北,秦皇岛市,76.978,105.069,12.443,37.727,1.379,49.451,1.316,-0.231,275.179,75.151,99330.609,40.12,119.193
河北,衡水市,85.283,105.281,9.327,42.681,1.124,40.86,-1.433,-2.644,276.842,78.629,102160.135,37.755,115.813
河北,邢台市,87.848,110.787,6.92,35.983,0.981,44.363,-1.014,-3.599,276.433,79.156,100589.488,37.195,114.815
河北,邯郸市,86.277,106.808,7.402,31.442,1.133,48.961,-1.345,-4.421,277.365,76.094,100047.024,36.538,114.596
河南,三门峡市,69.608,78.739,10.289,24.923,0.831,41.12,-0.958,-1.601,277.134,77.75,92005.442,34.362,111.101
河南,信阳市,58.577,71.485,10.555,24.068,0.939,40.371,-1.015,-5.358,281.393,93.903,100521.301,32.091,114.907
河南,南阳市,63.019,66.861,7.133,26.82,0.891,49.075,-2.171,-3.647,280.008,77.97,98566.895,33.034,112.323
河南,周口市,85.026,88.581,6.141,30.204,1.03,43.768,-1.853,-6.782,279.818,86.996,101448.791,33.738,114.884
河南,商丘市,95.908,93.574,6.826,37.852,1.175,35.73,-2.03,-6.216,280.111,86.195,101529.54,34.277,115.718
河南,安阳市,81.244,99.412,7.447,33.176,1.282,49.022,-1.424,-5.544,277.639,75.967,99593.863,35.888,114.318
河南,平顶山市,71.995,81.785,6.986,32.701,1.009,45.178,-1.489,-5.111,279.296,75.276,99294.162,33.8,113.025
河南,开封市,82.55,83.866,6.038,29.136,1.027,53.848,-2.439,-6.772,279.136,78.184,101288.757,34.594,114.514
河南,新乡市,80.391,91.191,7.219,34.759,1.2,50.426,-2.849,-6.238,278.906,72.095,100388.102,35.256,114.111
河南,洛阳市,72.076,80.502,8.928,29.734,0.943,37.894,-1.313,-1.995,277.439,77.462,94498.66,34.274,112.019
河南,济源市,78.588,93.486,10.258,34.772,1.035,24.241,-1.494,0.529,278.129,74.982,96428.746,35.105,112.445
河南,漯河市,77.66,88.402,6.969,28.845,0.992,52.796,-1.737,-6.486,279.183,83.479,101349.443,33.652,113.945
河南,濮阳市,74.067,89.468,7.236,30.739,1.026,51.278,-2.374,-6.188,278.929,76.477,101670.099,35.809,115.283
河南,焦作市,80.005,95.692,6.032,39.622,1.186,28.272,-2.265,-0.268,279.238,71.906,100199.539,35.121,113.163
河南,许昌市,79.38,85.986,7.364,32.615,1.075,49.744,-2.406,-6.53,279.065,77.19,100686.536,34.075,113.707
河南,郑州市,82.012,87.165,7.363,36.442,1.126,42.033,-2.702,-4.835,278.422,74.776,99379.04,34.634,113.438
河南,驻马店市,73.772,85.26,7.466,27.052,0.97,48.283,-1.317,-6.997,279.873,89.134,100943.262,32.925,114.174
河南,鹤壁市,79.976,96.168,7.283,34.607,1.262,49.021,-1.059,-6.811,278.19,74.023,100808.714,35.716,114.319
浙江,丽水市,26.349,35.11,4.989,13.157,0.429,67.158,0.566,4.747,288.095,84.449,94629.856,28.194,119.51
浙江,台州市,29.175,47.013,7.06,33.408,0.554,51.289,-0.039,3.777,287.411,90.426,98983.495,28.742,121.109
浙江,嘉兴市,33.937,52.131,6.919,43.899,0.724,36.964,-3.489,2.21,285.643,93.704,101656.567,30.635,120.754
浙江,宁波市,28.144,42.198,6.352,30.996,0.539,56.999,-1.669,4.352,287.541,89.5,100462.116,29.706,121.49
浙江,杭州市,31.071,47.274,7.311,30.238,0.662,40.323,-0.836,2.047,287.334,89.662,98666.864,29.891,119.464
浙江,温州市,30.654,52.373,7.34,37.76,0.606,47.116,-0.501,2.172,287.304,91.041,97807.941,27.897,120.411
浙江,湖州市,33.256,52.757,8.043,42.66,0.85,26.865,-2.147,2.712,285.742,92.277,100321.494,30.757,119.871
浙江,绍兴市,32.127,44.892,5.574,28.899,0.627,45.215,-0.965,3.731,288.373,84.993,99544.514,29.709,120.64
浙江,舟山市,6.6,11.702,1.902,5.102,0.21,95.062,-2.67,4.968,286.718,93.025,101529.732,30.038,122.23
浙江,衢州市,28.133,39.332,8.064,19.265,0.576,47.294,0.126,2.732,289.507,82.561,97874.926,28.912,118.675
浙江,金华市,30.604,42.723,6.036,26.169,0.555,50.925,-0.69,3.946,288.781,84.342,98181.11,29.109,119.967
海南,万宁市,11.503,18.059,1.057,1.722,0.198,79.323,-2.819,2.501,295.304,91.298,100116.67,18.842,110.294
海南,三亚市,13.814,19.399,1.987,5.136,0.584,69.186,-5.46,0.911,295.411,80.889,98855.4,18.413,109.407
海南,东方市,12.989,16.78,1.255,2.319,0.2,75.475,-3.653,4.044,298.851,53.568,99363.84,18.971,108.838
海南,临高县,14.849,22.936,1.907,4.133,0.336,59.48,-4.493,4.064,297.65,73.483,100576.476,19.821,109.733
海南,乐东黎族自治县,13.545,17.76,1.145,2.871,0.308,71.318,-4.286,2.983,296.125,68.791,97931.052,18.659,109.072
海南,五指山市,15.146,19.314,1.014,3.01,0.274,71.942,-3.826,4.174,294.002,76.65,94742.962,18.81,109.518
海南,儋州市,15.152,21.394,1.496,3.119,0.261,73.136,-2.3,1.678,297.829,66.097,100216.545,19.568,109.399
海南,定安县,13.82,22.243,1.493,3.898,0.368,55.81,-3.745,4.398,296.24,83.577,100351.617,19.47,110.28
海南,屯昌县,13.804,20.882,1.414,3.17,0.31,59.4,-3.63,4.548,296.002,83.034,99554.786,19.342,110.076
海南,文昌市,11.347,19.964,1.084,1.805,0.257,66.585,-4.226,4.104,295.557,90.88,101165.176,19.707,110.773
海南,昌江黎族自治县,15.353,19.47,1.66,3.08,0.226,76.273,-0.91,1.55,297.529,57.776,98373.707,19.233,109.016
海南,海口市,13.801,23.463,1.92,4.932,0.398,54.258,-4.094,4.244,296.7,81.173,100920.876,19.842,110.393
海南,澄迈县,14.543,23.024,2.091,4.734,0.396,53.123,-4.077,4.594,297.124,77.5,100436.261,19.676,109.989
海南,琼中黎族苗族自治县,14.022,19.469,1.037,2.497,0.241,68.19,-2.773,4.819,295.253,79.759,97363.821,19.087,109.847
海南,琼海市,12.022,19.567,1.143,2.377,0.243,67.375,-3.207,3.188,295.987,88.03,100938.633,19.22,110.43
海南,白沙黎族自治县,14.965,19.475,1.158,2.665,0.242,74.715,-0.876,3.354,297.302,59.045,97026.589,19.2,109.388
海南,陵水黎族自治县,13.374,18.899,0.877,2.51,0.33,76.399,-2.586,0.561,295.009,89.137,99442.401,18.581,109.913
湖北,仙桃市,24.556,29.8,6.014,15.731,0.863,41.547,-0.091,-6.615,282.803,92.617,101456.716,30.284,113.417
湖北,十堰市,35.098,46.529,12.912,17.814,0.752,42.141,-1.147,-0.215,278.002,88.104,93541.13,32.462,110.476
湖北,咸宁市,23.016,26.86,4.846,22.854,0.935,31.247,-0.055,-2.08,284.419,96.23,99455.361,29.621,114.178
湖北,天门市,27.479,33.817,8.449,16.856,0.924,45.81,-0.044,-6.928,282.086,88.888,101465.763,30.633,113.053
湖北,孝感市,34.945,42.71,7.635,18.323,0.934,43.135,-0.968,-7.002,281.988,91.532,100830.674,31.116,113.869
湖北,宜昌市,31.453,36.542,11.429,14.916,0.76,44.596,-1.393,-2.342,279.408,87.663,94272.766,30.746,111.129
湖北,恩施土家族苗族自治州,24.399,36.288,12.433,10.626,0.692,41.235,-1.803,1.378,280.4,95.954,89519.625,30.195,109.552
湖北,武汉市,28.06,34.099,4.772,24.829,0.995,31.028,-0.984,-4.295,283.881,92.501,101295.304,30.606,114.349
湖北,潜江市,27.433,34.01,7.347,18.693,0.976,40.881,0.336,-7.329,281.478,90.016,101475.781,30.33,112.77
湖北,神农架林区,33.535,41.605,12.376,7.838,0.552,54.958,0.178,0.157,277.182,97.298,82881.542,31.592,110.49
湖北,荆州市,27.945,33.525,7.835,18.595,0.949,38.572,-0.017,-7.163,281.699,89.816,101230.692,30.01,112.512
湖北,荆门市,44.937,42.043,10.121,22.409,0.945,43.639,0.41,-7.644,280.401,88.572,100488.181,31.059,112.616
湖北,襄阳市,53.492,49.412,10.41,22.677,0.848,45.567,-0.009,-4.359,278.739,87.982,97781.76,31.919,111.96
湖北,鄂州市,25.86,33.369,5.154,28.877,1.109,29.176,-0.184,-2.349,284.92,93.421,101290.617,30.337,114.794
湖北,随州市,47.123,55.657,9.806,20.814,0.927,48.106,-1.846,-6.472,280.381,90.327,99764.745,31.809,113.43
湖北,黄冈市,30.55,36.513,6.596,18.345,0.891,42.042,-1.326,-1.91,285.1,93.018,99512.823,30.702,115.358
湖北,黄石市,29.681,33.73,6.14,28.906,1.04,26.43,0.256,-0.957,284.918,96.381,100274.549,29.925,115.034
湖南,娄底市,13.299,22.134,7.446,17.141,1.009,23.552,-1.595,-3.87,282.596,94.404,97246.442,27.715,111.632
湖南,岳阳市,22.79,28.521,6.498,14.896,0.83,35.557,-0.019,-4.609,284.083,94.776,100190.223,29.081,113.275
湖南,常德市,17.201,29.6,8.998,15.566,0.937,34.335,-1.137,-5.813,280.559,91.343,99509.258,29.271,111.524
湖南,张家界市,14.189,25.621,8.74,12.929,0.748,38.016,-3.873,-2.238,279.83,93.918,95435.328,29.379,110.526
湖南,怀化市,13.031,23.237,5.94,10.841,0.672,39.203,-1.633,-1.75,283.905,91.945,96277.193,27.535,110.071
湖南,株洲市,19.064,27.704,9.135,19.245,0.744,27.899,2.393,0.593,288.847,86.425,97938.114,27.109,113.513
湖南,永州市,24.499,31.698,5.879,9.532,0.557,51.215,0.786,6.282,291.677,83.09,96489.771,25.748,111.723
湖南,湘潭市,11.591,17.816,5.3,20.566,0.868,20.385,1.459,-5.721,283.71,94.525,100293.56,27.744,112.619
湖南,湘西土家族苗族自治州,16.164,27.017,5.413,12.701,0.653,33.093,-4.028,-2.468,280.424,93.808,95307.76,28.708,109.718
湖南,益阳市,16.648,28.703,5.825,15.266,0.989,29.619,0.305,-5.311,280.904,96.288,98931.553,28.525,111.919
湖南,衡阳市,16.465,25.195,8.469,18.99,0.78,26.082,0.571,-1.336,288.918,83.63,99707.68,26.781,112.565
湖南,邵阳市,18.141,24.306,9.104,14.173,0.733,36.643,-0.532,0.653,286.808,91.764,94921.665,26.893,110.881
湖南,郴州市,30.884,41.192,11.302,17.018,0.807,50.42,1.426,7.39,291.997,82.456,95710.33,25.769,113.109
湖南,长沙市,20.045,27.423,7.42,19.57,0.841,24.497,0.992,-3.538,284.829,94.75,99668.235,28.235,113.159
甘肃,临夏回族自治州,61.229,266.876,7.206,5.406,0.476,78.048,-0.615,1.005,273.982,70.944,77559.084,35.617,103.291
甘肃,兰州市,59.137,259.277,9.748,13.183,0.479,73.339,0.571,-0.11,275.725,47.856,79208.562,36.359,103.633
甘肃,嘉峪关市,88.438,427.563,14.168,40.327,0.577,69.793,0.36,1.513,278.335,30.567,81744.033,39.798,98.145
甘肃,天水市,49.462,113.0,10.827,11.488,0.499,58.717,0.765,-3.982,277.798,69.391,82711.089,34.645,105.739
甘肃,定西市,49.614,185.868,8.483,6.153,0.379,75.314,0.606,-3.501,273.683,68.378,77292.728,35.124,104.432
甘肃,平凉市,57.308,112.755,11.166,15.735,0.647,51.056,0.343,-2.776,278.41,70.657,84569.406,35.304,106.644
甘肃,庆阳市,58.95,99.017,14.623,15.031,0.715,45.561,-0.079,-1.723,278.524,73.677,85862.546,36.149,107.596
甘肃,张掖市,36.907,126.764,4.334,4.7,0.245,71.76,1.023,0.312,272.667,47.367,74684.547,38.94,99.855
甘肃,武威市,48.23,148.011,9.699,4.28,0.371,68.844,1.481,-1.51,275.78,53.788,81543.844,38.163,103.073
甘肃,甘南藏族自治州,36.192,97.302,6.046,2.974,0.311,75.755,-2.647,-1.898,267.809,90.128,67441.742,34.331,102.768
甘肃,白银市,54.225,210.472,10.41,7.384,0.447,66.355,1.191,-3.717,276.944,46.146,81604.134,36.59,104.646
甘肃,酒泉市,42.304,74.396,3.895,2.457,0.196,67.632,0.935,1.371,276.288,31.774,79118.702,40.236,96.062
甘肃,金昌市,49.668,188.274,8.823,8.589,0.382,72.216,1.565,-1.041,275.921,43.357,80748.496,38.44,102.048
甘肃,陇南市,42.991,95.62,10.667,9.355,0.414,63.891,-0.813,-4.958,277.971,69.718,82197.924,33.599,105.224
福建,三明市,28.722,37.531,7.277,14.447,0.961,46.776,0.292,4.312,290.262,81.226,95273.63,26.29,117.395
福建,南平市,26.674,33.853,7.772,9.56,0.551,60.564,-0.34,3.613,289.428,83.438,96030.031,27.324,118.143
福建,厦门市,35.388,57.147,12.3,40.272,0.588,60.088,-2.203,-1.01,291.153,82.55,100602.847,24.642,118.11
福建,宁德市,23.353,34.134,4.241,9.339,0.437,69.344,-0.214,1.647,287.893,88.685,95447.143,26.968,119.474
福建,泉州市,32.906,49.308,8.063,24.107,0.611,63.535,-0.796,1.28,289.851,84.514,96800.811,25.201,118.249
福建,漳州市,32.288,49.068,8.22,23.953,0.543,71.546,-1.682,0.891,290.806,83.209,98417.486,24.372,117.444
福建,福州市,28.827,45.408,5.919,20.923,0.572,61.86,-0.838,0.015,289.324,87.226,97563.799,26.083,119.206
福建,莆田市,33.626,48.738,7.061,22.6,0.545,69.024,-0.632,-0.038,290.099,84.787,98341.271,25.445,118.864
福建,龙岩市,31.491,43.084,7.176,15.408,0.746,71.677,-0.365,4.586,290.789,79.909,95298.957,25.256,116.739
西藏,山南市,10.649,12.487,1.151,1.208,0.185,93.896,4.025,-1.125,271.64,62.632,65936.625,28.295,92.274
西藏,拉萨市,3.595,7.177,0.495,0.743,0.166,92.809,4.248,-2.687,264.404,56.142,56313.379,30.043,91.093
西藏,日喀则市,1.927,2.658,0.315,0.37,0.134,93.428,2.605,-3.888,262.758,47.687,55174.854,29.483,86.493
西藏,昌都市,9.824,10.187,0.964,0.745,0.176,89.335,4.596,3.075,265.878,68.613,58737.515,30.753,97.044
西藏,林芝市,14.185,15.844,1.62,1.18,0.19,92.01,2.125,1.854,270.401,82.209,66175.969,29.184,95.25
西藏,玉树藏族自治州,3.691,3.947,0.319,0.273,0.143,85.881,1.56,-4.475,261.83,64.828,57075.978,34.196,94.317
西藏,那曲市,1.876,1.974,0.161,0.175,0.135,97.594,2.353,-5.196,261.509,44.04,55301.951,32.709,89.262
西藏,阿里地区,0.543,0.632,0.066,0.594,0.137,100.687,1.484,-2.739,260.271,33.287,54848.672,33.013,82.553
贵州,六盘水市,37.582,60.909,11.541,15.502,0.541,89.265,7.757,1.902,290.52,43.827,82950.55,26.106,104.896
贵州,安顺市,41.933,56.574,8.844,8.967,0.483,92.076,2.488,4.056,293.469,49.276,87969.694,25.986,105.978
贵州,毕节市,43.318,65.909,8.743,9.377,0.604,80.298,2.445,-0.551,286.516,67.702,83327.266,27.063,105.211
贵州,贵阳市,46.245,65.852,6.591,16.265,0.641,65.651,0.965,-0.11,289.355,71.991,88063.308,26.845,106.71
贵州,遵义市,33.48,49.817,12.537,10.122,0.582,40.519,0.44,-1.896,285.375,85.588,90278.465,28.167,107.102
贵州,铜仁市,25.507,36.164,11.885,9.004,0.643,37.576,-2.389,-1.156,283.716,91.69,92684.466,27.937,108.534
贵州,黔东南苗族侗族自治州,23.52,32.365,9.491,5.83,0.445,53.548,0.296,3.137,289.857,83.991,92520.475,26.495,108.574
贵州,黔南布依族苗族自治州,33.381,41.331,5.693,4.852,0.394,76.821,2.582,5.116,293.072,66.952,90192.014,26.0,107.265
贵州,黔西南布依族苗族自治州,34.479,52.498,7.907,8.315,0.532,90.507,6.228,4.354,295.105,43.201,88358.951,25.256,105.467
辽宁,丹东市,35.606,44.756,13.385,15.637,0.742,73.534,1.817,0.933,274.779,78.659,99258.56,40.554,124.376
辽宁,大连市,38.256,42.908,8.386,18.619,0.556,80.075,0.375,0.854,275.381,80.727,101566.303,39.591,122.22
辽宁,抚顺市,50.472,61.226,15.049,26.47,0.987,62.692,3.628,2.427,273.525,84.787,97437.919,41.841,124.65
辽宁,朝阳市,60.346,74.98,14.309,19.81,0.931,58.321,0.331,-3.124,276.758,43.745,96939.744,41.545,120.053
辽宁,本溪市,44.524,55.17,14.771,23.336,0.994,63.291,2.937,1.333,273.486,83.979,96778.693,41.232,124.544
辽宁,沈阳市,75.092,82.091,16.061,30.36,1.098,56.994,2.507,3.986,275.591,78.868,101697.756,42.081,123.159
辽宁,盘锦市,72.039,80.393,19.01,31.631,1.304,63.788,3.053,4.177,275.179,83.431,102382.913,41.13,122.01
辽宁,营口市,44.772,53.908,9.243,23.43,0.725,76.084,2.216,2.143,274.923,76.532,100114.625,40.395,122.478
辽宁,葫芦岛市,68.324,83.986,17.575,26.666,1.274,62.682,1.81,0.23,275.801,68.207,99745.167,40.66,120.215
辽宁,辽阳市,58.265,70.588,15.687,31.152,1.235,61.745,3.338,3.093,275.21,80.061,100325.97,41.153,123.261
辽宁,铁岭市,63.742,72.645,14.057,26.389,0.922,59.722,2.891,3.813,274.594,79.531,100087.34,42.653,124.158
辽宁,锦州市,87.687,92.928,24.757,33.714,1.306,57.843,1.721,2.614,275.794,75.377,101497.689,41.502,121.659
辽宁,阜新市,62.846,65.417,12.912,18.252,0.788,59.004,1.593,-0.367,276.608,60.515,99961.392,42.289,121.968
辽宁,鞍山市,50.229,60.204,12.089,24.173,0.949,70.647,2.374,2.413,275.216,78.317,100394.264,40.731,123.007
重庆,重庆城区,24.23,40.378,12.938,16.396,0.628,39.097,-0.031,0.123,285.773,80.194,94843.82,29.824,107.125
重庆,重庆郊县,28.481,42.135,15.47,11.434,0.591,40.632,-3.333,0.053,282.119,88.341,91036.688,30.334,108.755
陕西,咸阳市,92.429,108.98,10.291,35.113,1.209,20.463,-0.661,0.589,278.037,83.312,91683.29,34.779,108.367
陕西,商洛市,43.945,58.839,10.711,14.228,0.633,53.873,-1.097,-2.217,277.691,81.411,89451.147,33.64,109.889
陕西,安康市,38.059,49.583,14.151,14.423,0.672,43.891,-2.298,-1.006,277.526,87.927,89984.24,32.735,108.932
陕西,宝鸡市,69.168,89.414,7.961,24.172,0.756,35.166,-1.414,-0.986,277.033,84.802,86437.22,34.386,107.193
陕西,延安市,64.753,80.221,20.011,22.149,1.092,41.173,-0.778,-0.41,277.618,78.029,87663.855,36.432,109.316
陕西,榆林市,77.94,98.722,20.779,30.789,1.343,41.49,-1.35,-1.168,278.031,71.208,88047.479,38.041,109.581
陕西,汉中市,37.031,56.128,11.937,11.234,0.584,48.675,-2.582,-1.879,278.568,83.691,89007.038,33.088,107.098
陕西,渭南市,78.109,101.487,15.46,35.82,1.102,28.787,-0.519,-0.493,278.626,77.424,94094.308,34.919,109.855
陕西,西安市,72.472,85.614,8.026,34.923,1.068,28.449,-0.414,-1.218,276.857,86.792,90741.29,34.12,108.77
陕西,铜川市,89.301,105.597,14.517,30.164,1.144,29.509,-0.76,0.197,277.138,82.601,89312.764,35.198,109.058
青海,保亭黎族苗族自治县,16.17,21.23,1.588,4.902,0.522,68.696,-3.418,0.586,293.992,87.768,97283.63,18.566,109.618
青海,吐鲁番市,24.858,34.479,3.456,4.299,0.228,55.754,0.066,-3.696,279.442,50.184,90210.734,42.386,89.851
青海,果洛藏族自治州,10.17,14.572,1.765,0.621,0.157,79.708,0.556,-2.629,265.072,78.534,59651.228,34.127,99.404
青海,海东市,47.638,113.11,12.451,9.577,0.448,66.288,-1.052,0.567,271.101,73.527,72773.421,36.347,102.34
青海,海北藏族自治州,15.436,27.99,2.972,2.063,0.184,76.393,0.001,-0.985,266.203,77.851,65231.39,37.775,100.288
青海,海南藏族自治州,20.36,30.141,4.383,2.063,0.219,71.29,-0.067,-2.079,268.309,80.536,66359.588,35.89,100.272
青海,海西蒙古族藏族自治州,10.098,10.606,0.43,0.289,0.139,78.379,3.857,-3.198,267.432,45.127,64480.199,36.677,94.519
青海,西宁市,49.209,180.342,12.135,13.931,0.651,69.399,-0.952,0.396,269.006,82.726,69521.898,36.842,101.423
青海,黄南藏族自治州,29.409,43.812,5.956,2.068,0.287,74.954,-2.404,-1.068,267.304,88.058,65626.037,35.022,101.631
香港,香港特别行政区,17.655,30.85,3.285,13.36,0.325,92.825,-7.11,2.3,294.395,91.595,101077.42,22.45,114.22
黑龙江,七台河市,28.993,42.527,9.862,14.502,0.552,88.114,9.37,-0.052,270.823,70.997,98267.049,45.87,130.943
黑龙江,伊春市,17.652,23.178,4.892,6.008,0.371,75.024,8.134,-2.38,266.724,77.535,96737.94,47.772,129.184
黑龙江,佳木斯市,26.944,34.442,7.254,10.427,0.459,74.464,8.862,1.068,269.33,70.977,100092.408,47.207,132.11
黑龙江,双鸭山市,29.084,36.056,8.294,11.197,0.45,72.791,8.878,1.279,269.654,71.629,99674.986,46.722,132.643
黑龙江,哈尔滨市,34.143,42.209,10.942,14.902,0.657,68.854,6.896,0.873,270.792,72.068,98928.772,45.634,127.964
黑龙江,大兴安岭地区,0.504,0.828,0.767,0.668,0.179,79.495,6.89,-7.8,260.271,56.259,95348.592,52.286,124.212
黑龙江,大庆市,14.41,19.841,5.022,6.083,0.353,67.167,5.135,-4.897,273.152,55.85,100484.191,46.327,124.687
黑龙江,牡丹江市,22.925,32.348,8.686,12.771,0.429,79.285,8.839,1.136,271.217,69.593,95573.33,44.592,129.883
黑龙江,绥化市,20.601,28.455,4.988,7.568,0.486,66.725,6.188,-3.607,269.637,69.32,99476.81,46.89,126.634
黑龙江,鸡西市,28.236,37.192,9.763,13.038,0.458,67.051,8.332,1.209,271.306,70.356,99545.853,45.626,132.289
黑龙江,鹤岗市,19.18,26.743,7.054,8.261,0.396,79.469,8.841,-1.806,268.507,70.417,99121.041,47.661,130.778
黑龙江,黑河市,5.63,7.813,2.159,2.065,0.224,72.82,7.074,-5.282,265.537,70.858,97347.811,49.268,127.004
黑龙江,齐齐哈尔市,9.445,13.652,4.678,4.031,0.281,67.546,5.506,-5.096,270.075,62.289,99628.78,47.715,124.57
