province,city,PM2.5,PM10,SO2,NO2,CO,O3,U,V,TEMP,RH,PSFC,lat,lon
上海,上海市,23.056,40.079,11.826,38.154,0.496,85.003,-2.864,6.916,286.747,73.035,102114.89,31.173,121.42
云南,临沧市,45.434,64.932,5.834,9.396,0.842,88.68,3.828,0.829,289.06,42.963,83982.906,23.935,99.686
云南,丽江市,29.695,47.358,3.968,3.841,0.846,101.041,5.856,-0.458,280.541,53.831,74559.813,26.96,100.515
云南,保山市,45.875,65.685,6.623,13.648,0.687,81.375,4.152,-0.72,286.509,45.859,81938.714,24.953,98.962
云南,大理白族自治州,38.58,58.209,5.354,7.177,0.802,96.739,5.233,0.894,283.566,49.447,78112.494,25.726,100.053
云南,德宏傣族景颇族自治州,56.586,77.771,7.563,17.805,0.642,77.459,2.552,-1.238,289.388,45.375,86170.406,24.535,98.052
云南,怒江傈僳族自治州,33.707,46.943,3.549,2.093,0.513,104.157,3.463,0.214,277.149,76.295,72754.665,26.916,98.885
云南,文山壮族苗族自治州,40.649,54.487,7.028,5.063,0.608,89.783,2.962,6.446,287.221,78.224,86671.376,23.696,104.735
云南,昆明市,41.574,60.673,8.981,15.936,0.879,93.598,7.583,4.835,284.806,61.289,79238.077,25.384,102.863
云南,昭通市,52.725,73.99,11.843,8.17,0.742,83.464,-0.317,-0.522,285.112,66.199,84030.393,27.667,103.985
云南,普洱市,42.11,60.996,6.135,6.975,0.717,96.7,1.668,2.869,290.079,57.21,86063.082,23.159,100.718
云南,曲靖市,44.021,60.706,9.17,9.829,0.708,96.094,7.273,3.752,285.633,56.029,79987.9,25.737,103.929
云南,楚雄彝族自治州,41.508,59.826,6.046,8.32,0.944,83.388,5.413,4.268,286.243,53.618,80992.884,25.328,101.567
云南,玉溪市,37.068,61.888,7.045,8.041,0.777,103.095,2.603,5.07,287.416,67.337,83565.573,24.136,102.217
云南,红河哈尼族彝族自治州,44.762,63.674,7.704,5.774,0.643,106.168,0.59,4.379,287.167,75.114,85306.884,23.451,103.034
云南,西双版纳傣族自治州,42.907,58.092,6.567,11.372,0.714,88.629,0.801,2.698,292.613,56.246,89064.425,21.939,100.912
云南,迪庆藏族自治州,21.697,35.136,3.43,1.489,0.468,107.189,5.86,0.997,272.958,73.483,67116.139,27.957,99.459
内蒙古,乌兰察布市,45.025,67.632,12.728,23.555,0.558,50.905,8.609,2.51,282.193,32.895,85346.018,41.691,112.44
内蒙古,乌海市,61.796,145.975,65.482,58.306,1.338,55.111,5.316,-0.11,286.088,18.08,87344.68,39.396,106.856
内蒙古,兴安盟,25.134,33.17,9.033,6.789,0.378,50.586,3.327,0.75,271.488,71.053,93699.701,46.244,121.341
内蒙古,包头市,33.043,54.284,8.235,22.162,0.51,48.184,7.707,1.802,282.582,25.311,85384.54,41.549,110.276
内蒙古,呼伦贝尔市,18.191,21.421,7.092,7.528,0.279,52.809,3.324,1.073,265.954,85.958,92325.821,49.636,121.171
内蒙古,呼和浩特市,59.242,111.666,22.036,53.564,0.979,56.294,5.382,3.023,282.299,37.985,85855.487,40.578,111.513
内蒙古,巴彦淖尔市,18.753,33.847,2.999,4.795,0.228,49.644,7.172,1.863,283.307,24.287,86822.651,41.446,107.582
内蒙古,赤峰市,53.372,72.694,12.896,11.035,0.629,56.414,6.847,2.077,279.65,47.496,90991.592,43.226,118.892
内蒙古,通辽市,62.808,79.293,17.166,14.928,0.648,62.08,3.194,4.947,277.487,61.513,96957.405,43.814,121.591
内蒙古,鄂尔多斯市,33.958,69.226,22.852,31.454,0.667,53.997,5.783,0.989,284.678,24.659,86657.472,39.407,108.63
内蒙古,锡林郭勒盟,30.732,37.24,7.509,3.754,0.384,46.394,6.44,2.614,278.459,46.793,88098.834,44.179,115.482
内蒙古,阿拉善盟,12.04,16.605,2.488,2.215,0.193,60.674,5.348,-0.286,284.71,21.451,87186.4,40.473,102.467
北京,北京市,126.16,153.183,15.241,67.643,1.541,46.343,-0.162,1.601,280.521,56.422,97348.265,40.158,116.395
台湾,台湾省,13.37,15.909,4.765,15.398,0.202,81.981,-1.071,-0.431,287.667,63.561,93455.036,23.757,120.975
吉林,吉林市,56.326,68.655,16.655,15.651,0.8,108.765,2.491,9.441,274.305,77.367,96704.439,43.573,126.859
吉林,四平市,76.463,104.467,24.17,24.076,0.965,93.621,3.657,11.015,276.888,73.527,98743.856,43.472,124.386
吉林,延边朝鲜族自治州,42.543,49.729,15.506,13.548,0.597,68.801,2.946,5.649,271.601,79.207,93921.504,43.141,129.147
吉林,松原市,69.383,100.521,22.955,23.394,0.938,82.26,1.853,7.592,274.487,73.562,98978.765,44.785,124.496
吉林,白城市,55.537,74.477,15.768,14.195,0.648,66.95,0.811,3.738,274.45,64.253,98963.88,45.35,123.031
吉林,白山市,45.071,56.739,21.288,16.238,0.863,89.382,4.375,9.794,273.763,74.509,92054.047,42.063,127.256
吉林,辽源市,57.897,76.103,17.997,16.022,0.831,107.892,4.398,11.255,276.743,77.143,97017.381,42.836,125.32
吉林,通化市,47.981,65.324,21.414,18.034,0.953,99.888,2.417,11.507,275.392,72.3,95487.019,41.939,125.927
吉林,长春市,66.144,91.419,20.31,24.96,1.006,98.382,3.015,9.419,274.797,77.827,98676.319,44.268,125.611
四川,乐山市,54.064,69.999,12.558,13.922,0.609,78.641,-1.544,0.311,286.926,64.399,89510.756,29.218,103.569
四川,内江市,72.355,104.455,12.691,37.919,0.887,54.342,-2.104,0.148,289.582,62.55,96625.283,29.62,104.95
四川,凉山彝族自治州,27.987,39.781,7.658,5.514,0.808,94.975,2.684,1.274,279.176,61.444,74044.625,27.883,102.065
四川,南充市,69.879,114.319,13.716,44.575,0.978,54.723,-1.89,1.593,288.557,60.486,96702.062,31.19,106.199
四川,宜宾市,73.464,92.069,15.201,23.809,0.783,66.979,-1.386,-0.414,290.479,60.365,94944.438,28.573,104.621
四川,巴中市,56.845,88.712,14.492,27.663,0.84,64.579,-0.478,2.031,286.551,59.383,92455.723,32.033,107.031
四川,广元市,46.054,77.964,16.193,23.842,0.713,70.098,-0.763,3.005,286.158,59.182,91533.973,32.261,105.788
四川,广安市,74.165,118.196,15.132,47.534,1.011,43.956,-2.166,0.849,288.277,64.958,96723.05,30.43,106.628
四川,德阳市,64.018,103.867,10.406,37.024,0.766,71.034,-0.75,0.884,287.434,58.158,93080.437,31.13,104.436
四川,成都市,58.322,90.963,11.256,33.944,0.682,75.385,0.626,-0.759,287.285,61.306,93226.435,30.64,103.929
四川,攀枝花市,37.272,58.204,17.064,18.887,1.503,83.448,3.655,1.543,286.946,39.922,81405.111,26.791,101.734
四川,泸州市,71.277,93.444,13.508,23.598,0.734,62.759,-1.315,-0.563,289.55,63.583,93336.477,28.424,105.675
四川,甘孜藏族自治州,11.4,13.921,1.2,1.439,0.194,93.041,2.847,1.205,266.958,72.038,60956.67,30.936,100.009
四川,眉山市,56.071,83.27,12.934,24.897,0.685,73.477,-1.117,-0.094,288.36,62.364,93673.588,29.912,103.766
四川,绵阳市,54.736,85.717,11.073,24.43,0.652,75.212,-0.408,1.918,284.198,62.845,87900.304,31.86,104.704
四川,自贡市,76.456,98.636,14.555,32.883,0.851,57.397,-2.688,-0.306,290.403,59.766,96581.321,29.307,104.659
四川,资阳市,62.865,108.135,10.488,37.687,0.889,58.321,-1.728,0.922,289.169,61.577,96886.24,30.102,105.149
四川,达州市,68.0,98.591,16.752,36.136,0.957,61.027,-0.715,1.848,287.447,61.633,94063.09,31.335,107.636
四川,遂宁市,64.793,115.495,11.13,42.962,0.953,57.69,-2.3,1.282,289.088,59.654,97132.399,30.642,105.457
四川,阿坝藏族羌族自治州,12.711,16.151,2.692,2.096,0.196,93.508,1.248,2.05,270.471,69.536,65319.665,32.406,102.61
四川,雅安市,37.831,49.621,8.703,7.227,0.423,86.992,0.654,0.028,279.712,74.273,79970.587,29.932,102.689
天津,天津市,134.686,168.748,21.335,83.649,1.953,36.689,-0.736,2.058,282.89,60.027,101100.993,39.315,117.308
宁夏,中卫市,37.702,75.513,15.949,22.099,0.652,67.027,1.175,3.257,285.142,38.666,83357.389,37.018,105.509
宁夏,吴忠市,35.471,67.147,13.464,17.187,0.475,66.472,2.492,2.027,285.607,35.454,84895.959,37.454,106.577
宁夏,固原市,38.104,75.954,13.266,32.756,0.726,70.834,2.44,5.744,282.64,50.226,80844.6,35.905,106.183
宁夏,石嘴山市,52.216,114.895,42.083,44.474,0.913,60.385,5.463,-0.382,287.032,15.537,86445.964,39.013,106.499
宁夏,银川市,46.131,102.63,26.238,41.164,0.646,55.488,3.407,0.675,286.9,20.682,86783.725,38.287,106.342
安徽,亳州市,53.211,91.719,13.424,33.649,0.749,92.665,0.768,6.082,288.613,48.661,101457.239,33.44,116.162
安徽,六安市,39.258,61.026,9.515,22.192,0.55,80.223,1.715,4.263,289.498,41.243,99058.04,31.617,116.209
安徽,合肥市,49.419,82.334,12.303,43.816,0.828,74.179,-0.445,4.023,288.998,46.186,101476.534,31.766,117.359
安徽,安庆市,47.469,76.255,11.461,27.032,0.593,72.218,1.628,3.121,288.523,49.875,99596.19,30.557,116.473
安徽,宣城市,35.294,54.473,8.624,23.285,0.625,73.452,0.369,3.343,289.559,39.798,99554.471,30.676,118.846
安徽,宿州市,99.742,133.298,17.325,44.112,0.93,94.634,0.122,6.282,288.149,48.682,101434.661,33.844,117.23
安徽,池州市,30.247,49.537,9.214,21.303,0.508,73.838,1.141,3.482,289.701,44.531,99778.958,30.296,117.379
安徽,淮北市,84.098,121.659,18.496,43.945,0.87,92.909,0.151,6.397,288.298,49.645,101468.49,33.722,116.747
安徽,淮南市,44.435,80.484,11.17,37.39,0.669,87.172,-0.976,4.183,288.604,47.645,101590.547,32.463,116.746
安徽,滁州市,68.019,103.918,13.556,47.652,0.873,79.731,-0.885,4.401,288.0,49.219,101366.653,32.55,118.076
安徽,芜湖市,48.123,72.102,14.536,41.492,0.895,70.751,1.12,3.07,289.554,45.487,101699.058,31.167,118.162
安徽,蚌埠市,78.353,113.118,15.639,43.431,0.819,90.253,-0.377,5.492,288.382,48.48,101560.962,33.121,117.263
安徽,铜陵市,46.108,75.014,16.042,49.099,0.902,63.726,2.032,3.01,289.421,47.556,101557.906,30.883,117.531
安徽,阜阳市,40.99,77.837,11.706,27.757,0.653,90.447,1.767,5.341,289.19,47.409,101447.787,32.937,115.723
安徽,马鞍山市,58.109,90.29,17.137,55.164,0.972,70.706,-0.169,3.259,288.767,47.069,101693.732,31.622,118.386
安徽,黄山市,25.864,45.86,8.602,17.188,0.541,70.669,0.126,2.581,288.864,41.022,97600.895,29.869,118.09
山东,东营市,100.707,157.624,32.041,52.593,1.258,78.174,4.687,8.502,290.251,38.222,101382.33,37.57,118.572
山东,临沂市,97.619,150.851,22.638,49.592,1.078,94.14,1.061,6.698,286.475,51.585,99935.336,35.289,118.27
山东,威海市,27.089,47.033,8.531,13.2,0.518,114.575,1.908,8.094,280.24,81.432,101200.185,37.148,122.028
山东,德州市,96.793,158.945,23.419,42.402,1.231,91.108,3.954,10.787,290.334,40.35,101160.939,37.233,116.679
山东,日照市,82.66,125.358,17.932,47.959,0.9,82.673,1.075,6.496,284.979,55.426,100074.762,35.566,119.108
山东,枣庄市,97.573,157.982,25.575,47.982,1.079,100.746,-0.184,6.7,287.47,50.477,100643.976,34.925,117.383
山东,泰安市,69.27,131.796,25.229,35.343,1.084,104.879,1.318,8.792,287.884,46.73,99666.699,35.993,117.04
山东,济南市,72.603,129.688,25.448,36.934,1.073,107.11,3.073,10.845,288.768,42.601,99527.636,36.639,117.254
山东,济宁市,66.469,133.269,22.604,34.562,1.103,104.356,0.818,8.521,288.687,45.864,100976.186,35.375,116.697
山东,淄博市,80.916,132.922,25.55,40.632,1.196,105.452,4.57,10.312,288.373,42.224,98963.221,36.623,118.062
山东,滨州市,90.998,140.398,27.535,49.199,1.199,85.493,5.039,9.227,290.423,38.416,101279.121,37.516,117.852
山东,潍坊市,82.699,134.321,19.915,37.407,0.991,101.229,2.819,9.254,287.866,43.626,100495.618,36.53,119.092
山东,烟台市,45.932,79.553,12.024,25.878,0.698,114.315,1.113,9.233,283.581,60.306,100543.795,37.25,120.789
山东,聊城市,97.317,162.866,19.816,34.066,1.274,97.104,2.463,10.776,290.231,41.536,100999.468,36.458,115.863
山东,菏泽市,58.969,114.081,16.753,30.178,1.117,99.639,1.972,8.792,289.404,44.6,101067.623,35.134,115.69
山东,青岛市,47.916,82.133,11.733,31.607,0.682,98.561,0.294,8.182,283.315,64.069,101198.135,36.46,120.172
山西,临汾市,96.61,136.956,28.916,35.154,1.592,84.291,2.432,4.205,286.23,51.888,89872.618,36.227,111.398
山西,吕梁市,71.143,114.694,26.217,40.616,1.619,57.295,3.818,4.179,284.736,48.069,87430.092,37.663,111.27
山西,大同市,77.343,122.725,25.597,38.552,1.37,54.892,7.52,1.958,283.876,43.465,86770.383,39.911,113.713
山西,太原市,94.169,153.047,40.322,42.621,1.451,68.019,6.315,2.437,285.446,41.654,87259.986,37.967,112.321
山西,忻州市,69.246,112.212,24.871,30.227,1.106,67.915,6.147,2.745,283.822,43.52,85745.122,38.877,112.391
山西,晋中市,91.758,137.034,34.772,39.61,1.233,79.176,6.442,3.039,285.571,45.318,88217.739,37.328,112.997
山西,晋城市,121.674,167.082,23.578,36.564,1.433,95.904,3.16,3.379,286.097,54.053,90294.035,35.625,112.752
山西,朔州市,64.742,116.837,26.487,33.029,1.135,72.867,7.817,2.999,283.86,43.613,86154.062,39.619,112.655
山西,运城市,119.451,167.206,28.035,37.652,1.515,88.671,1.409,3.04,289.21,46.709,94027.138,35.205,111.071
山西,长治市,90.083,126.707,20.939,27.235,1.098,97.973,6.554,4.173,285.449,51.915,88575.662,36.48,112.915
山西,阳泉市,97.373,144.177,36.423,44.658,1.334,73.135,9.051,2.719,287.42,38.44,89958.611,38.031,113.512
广东,东莞市,37.211,60.722,10.764,55.307,0.786,61.54,-3.01,1.39,292.466,73.476,101713.292,22.931,113.81
广东,中山市,24.968,40.216,11.364,31.421,0.511,71.841,-4.644,1.618,293.019,76.736,101701.85,22.5,113.383
广东,云浮市,33.864,46.923,4.52,19.376,0.588,74.874,-2.815,3.255,292.144,70.823,99619.973,22.776,111.818
广东,佛山市,43.307,75.035,14.069,66.364,0.864,59.898,-2.307,1.623,292.96,70.203,101730.495,23.035,112.979
广东,广州市,42.33,66.6,11.561,62.567,0.774,64.064,-2.229,1.786,292.241,68.881,100838.772,23.339,113.525
广东,惠州市,27.991,39.953,5.287,22.193,0.551,76.501,-3.011,1.043,291.433,66.774,99873.247,23.244,114.485
广东,揭阳市,41.828,63.073,12.72,29.552,0.867,80.645,-3.647,-1.239,290.845,64.05,100529.213,23.323,116.123
广东,梅州市,35.424,51.93,8.034,26.713,0.786,75.323,-2.014,0.77,290.074,54.642,98457.601,24.169,116.07
广东,汕头市,30.469,45.289,11.631,24.717,0.648,90.397,-4.53,-2.063,291.262,68.158,101676.107,23.339,116.614
广东,汕尾市,32.032,47.622,6.861,18.512,0.63,83.801,-4.321,-1.091,291.056,68.042,100234.465,23.024,115.527
广东,江门市,21.466,31.071,5.225,17.667,0.39,83.813,-4.48,1.636,292.692,77.545,101113.61,22.289,112.676
广东,河源市,35.282,50.711,5.734,23.747,0.737,73.917,-1.33,1.245,290.433,55.866,98634.8,24.021,114.969
广东,深圳市,25.84,44.391,8.691,38.626,0.606,68.256,-4.896,1.117,292.4,76.894,101226.672,22.667,114.143
广东,清远市,49.555,65.083,10.181,38.157,0.703,73.877,-0.385,2.815,290.722,59.468,98095.937,24.295,112.871
广东,湛江市,16.562,25.797,3.664,6.802,0.435,92.597,-6.111,1.94,293.827,76.508,101468.39,21.091,110.163
广东,潮州市,35.736,53.708,9.677,25.252,0.748,79.653,-3.884,-1.468,290.223,58.598,99973.711,23.755,116.754
广东,珠海市,11.382,17.228,3.518,8.07,0.245,100.262,-5.94,0.828,293.013,80.318,101776.705,22.095,113.317
广东,肇庆市,44.932,65.569,9.344,40.261,0.732,69.19,-1.92,2.574,291.967,66.137,99742.15,23.505,112.199
广东,茂名市,24.708,36.481,4.289,11.116,0.537,82.861,-4.409,2.652,292.409,73.868,99681.968,22.013,110.952
广东,阳江市,22.731,29.626,2.6,10.692,0.396,83.578,-4.037,1.37,292.25,78.004,100240.014,22.042,111.786
广东,韶关市,42.436,58.735,9.91,30.483,0.823,76.176,0.694,2.839,290.446,49.682,97303.369,24.785,113.819
广西,北海市,29.743,45.06,5.406,11.501,0.629,84.103,-3.893,3.241,294.006,74.24,101495.906,21.674,109.37
广西,南宁市,47.957,68.47,7.485,23.026,0.835,63.49,-0.889,5.115,292.889,72.25,99590.133,23.051,108.469
广西,崇左市,40.652,38.504,4.002,11.229,0.563,74.561,-0.87,4.197,292.103,74.065,98271.383,22.483,107.291
广西,来宾市,68.434,97.853,10.319,22.947,0.829,64.655,-0.66,5.205,292.346,67.264,98419.401,23.859,109.417
广西,柳州市,80.069,107.495,11.8,30.889,0.852,56.776,-0.986,5.194,291.034,67.785,97777.352,24.956,109.372
广西,桂林市,64.37,83.281,12.748,30.844,0.723,61.037,0.258,4.242,289.84,62.339,96176.005,25.353,110.513
广西,梧州市,48.798,72.623,7.221,23.498,0.859,68.688,-2.063,3.004,292.366,61.638,99312.831,23.484,110.996
广西,河池市,57.791,79.482,7.721,16.816,0.71,68.376,-0.424,6.288,290.394,74.021,95362.544,24.628,107.843
广西,玉林市,38.011,61.726,10.19,16.372,0.719,77.236,-2.873,3.845,292.834,69.311,99715.188,22.452,110.164
广西,百色市,41.916,51.105,8.87,8.29,0.885,80.674,-0.285,6.045,290.357,74.163,93214.007,23.981,106.292
广西,贵港市,68.514,107.61,13.061,25.764,0.999,67.648,-1.336,3.283,293.427,62.471,100130.853,23.322,110.021
广西,贺州市,53.989,74.445,10.055,20.813,0.795,70.545,-1.277,3.784,290.862,59.572,97483.718,24.364,111.394
广西,钦州市,38.997,62.052,7.244,16.784,0.807,74.078,-2.641,4.294,293.5,73.456,100760.378,22.173,109.01
广西,防城港市,27.319,38.098,7.004,14.853,0.55,79.597,-2.397,4.695,291.95,82.565,99146.436,21.88,108.002
新疆,乌鲁木齐市,13.568,30.32,3.909,13.557,0.387,55.175,1.514,-1.3,279.169,46.288,84027.162,43.746,87.818
新疆,五家渠市,30.073,56.927,9.583,25.973,0.713,47.917,0.573,-1.317,283.277,47.117,96326.38,44.363,87.517
新疆,伊犁哈萨克自治州,6.48,10.221,3.899,4.082,0.31,62.926,0.475,1.175,275.243,69.239,80206.234,43.438,82.146
新疆,克孜勒苏柯尔克孜自治州,11.071,40.141,0.491,1.56,0.229,74.019,6.304,-0.356,273.604,48.867,70210.954,39.661,75.949
新疆,克拉玛依市,10.202,22.9,5.494,6.394,0.262,65.368,3.187,-0.056,283.276,61.029,97123.516,45.457,85.207
新疆,北屯市,7.1,8.244,3.352,4.42,0.326,63.848,-1.118,0.294,274.792,95.212,95245.314,47.27,87.868
新疆,博尔塔拉蒙古自治州,4.411,6.427,2.53,2.25,0.259,61.95,3.266,1.509,278.303,68.005,85940.881,44.714,82.114
新疆,双河市,3.748,5.992,2.622,2.69,0.286,57.964,-0.55,-6.12,284.296,59.138,97597.23,44.87,82.474
新疆,可克达拉市,19.864,32.642,13.48,11.958,0.794,60.382,-2.29,0.132,282.448,65.718,94679.216,43.918,80.786
新疆,和田地区,11.574,28.121,0.904,0.847,0.183,76.575,2.7,0.242,277.142,27.182,73745.218,37.059,80.934
新疆,哈密市,6.896,38.217,1.455,2.838,0.225,62.136,2.247,-0.359,283.282,30.733,87916.98,43.042,93.517
新疆,喀什地区,32.522,99.211,1.912,3.398,0.378,69.901,3.983,1.46,277.272,35.605,75869.837,38.125,77.178
新疆,图木舒克市,22.675,85.09,3.695,2.06,0.243,56.243,-2.017,-0.253,285.027,33.24,88862.093,39.892,79.182
新疆,塔城地区,5.638,8.879,2.886,3.831,0.279,59.815,3.825,-0.651,278.148,72.574,89308.601,45.642,84.789
新疆,巴音郭楞蒙古自治州,3.874,13.021,0.515,0.675,0.151,73.982,0.964,0.323,279.375,24.438,78900.618,39.463,87.481
新疆,新星市,24.87,156.49,3.875,18.495,0.615,49.075,-3.325,-0.375,286.915,20.48,92290.07,42.75,93.68
新疆,昆玉市,59.18,147.817,5.64,4.51,0.453,66.35,1.987,-1.513,288.46,17.107,86545.063,37.457,79.093
新疆,昌吉回族自治州,13.925,30.722,4.141,7.417,0.298,59.935,1.62,-0.626,280.735,51.037,89650.397,44.342,88.608
新疆,石河子市,20.115,33.12,10.94,20.765,0.495,64.515,1.39,1.09,283.71,45.49,94450.255,44.245,86.035
新疆,胡杨河市,25.17,41.832,10.234,15.38,0.378,64.132,0.136,0.676,282.458,63.604,97617.152,44.852,84.772
新疆,铁门关市,65.997,258.497,4.177,7.673,0.447,71.523,0.88,-1.37,287.667,19.237,91266.84,41.773,85.66
新疆,阿克苏地区,31.003,103.819,2.062,3.528,0.287,64.479,-0.375,-0.913,282.287,34.172,84940.303,40.965,81.578
新疆,阿勒泰地区,5.084,5.972,2.245,1.556,0.205,61.571,1.612,1.162,274.993,85.009,88144.807,46.902,88.421
新疆,阿拉尔市,90.518,302.555,3.495,8.806,0.556,58.662,-1.635,-1.018,284.8,33.503,89726.604,40.629,80.998
江苏,南京市,57.091,95.167,17.829,58.352,0.976,66.456,-0.664,3.308,288.217,49.606,101755.975,31.899,118.876
江苏,南通市,44.764,70.36,17.661,52.561,0.732,78.356,-1.921,6.121,286.496,65.381,102031.115,32.201,120.979
江苏,宿迁市,97.902,131.473,17.128,50.628,1.032,89.195,-0.93,5.561,286.94,51.789,101765.095,33.765,118.495
江苏,常州市,53.361,83.586,14.423,52.499,0.882,75.276,-1.287,3.601,288.024,51.474,101859.603,31.613,119.666
江苏,徐州市,106.123,145.618,18.951,47.328,1.01,96.053,0.129,6.61,287.858,49.448,101412.285,34.363,117.513
江苏,扬州市,84.306,123.609,20.619,66.095,1.148,68.096,-1.234,4.63,286.988,55.622,101910.877,32.709,119.486
江苏,无锡市,52.112,87.342,16.614,63.29,0.928,70.73,-1.966,4.213,287.483,54.521,101795.67,31.546,120.066
江苏,泰州市,79.928,113.707,18.881,61.354,1.059,72.574,-1.766,5.085,286.653,59.084,101912.151,32.605,120.048
江苏,淮安市,86.27,124.814,17.441,54.797,1.054,81.037,-1.035,4.962,286.823,53.321,101806.089,33.362,118.985
江苏,盐城市,62.522,92.829,15.761,45.147,0.763,79.869,-1.762,5.316,285.61,60.938,101929.382,33.529,120.156
江苏,苏州市,40.666,72.524,15.086,59.683,0.789,73.191,-2.309,5.404,287.244,60.739,102002.062,31.374,120.661
江苏,连云港市,73.63,114.888,17.989,50.865,0.91,80.826,-0.275,6.215,286.323,52.006,101642.519,34.519,119.133
江苏,镇江市,67.092,102.162,18.088,60.7,1.013,70.388,-1.122,3.8,287.521,54.786,101817.841,32.016,119.49
江西,上饶市,32.844,59.406,15.922,22.993,0.648,64.645,-0.323,1.975,290.311,43.74,99680.44,28.778,117.47
江西,九江市,32.29,59.573,9.713,15.248,0.563,78.012,0.158,3.002,289.939,49.1,99560.379,29.313,115.444
江西,南昌市,42.972,84.044,16.748,33.145,0.817,60.689,-0.043,2.176,290.704,50.219,101487.9,28.671,116.016
江西,吉安市,49.312,76.177,15.5,20.82,0.82,71.953,-0.111,2.074,290.937,42.793,99215.292,26.954,114.831
江西,宜春市,51.703,85.239,17.433,22.307,0.89,72.709,0.277,1.708,290.276,46.908,99540.372,28.29,114.974
江西,抚州市,36.081,51.003,11.07,15.303,0.544,73.424,-0.551,3.14,290.415,45.438,99258.764,27.514,116.42
江西,新余市,60.151,100.742,25.367,35.686,1.232,65.392,-0.369,1.114,290.471,47.116,100474.394,27.847,114.836
江西,景德镇市,30.319,58.541,11.629,22.627,0.548,64.79,-0.463,1.667,290.185,45.058,100504.267,29.287,117.24
江西,萍乡市,51.763,82.297,17.048,23.723,0.943,70.257,0.414,3.058,290.741,41.15,98182.833,27.505,113.908
江西,赣州市,41.286,66.102,11.083,28.364,0.879,70.862,0.095,2.992,290.16,45.592,97620.162,25.692,115.279
江西,鹰潭市,33.821,52.896,13.423,26.107,0.575,66.453,-0.053,3.685,291.177,42.767,100198.75,28.222,117.094
河北,保定市,128.318,180.338,23.169,63.904,1.574,62.311,1.06,0.794,284.803,46.561,97301.691,39.018,115.159
河北,唐山市,141.705,200.537,35.028,82.734,2.758,37.786,-0.389,1.214,280.234,67.248,100641.839,39.731,118.354
河北,廊坊市,136.292,176.497,18.759,79.139,1.656,42.08,-0.856,1.68,283.417,56.78,101115.475,39.267,116.632
河北,张家口市,69.766,111.281,19.166,39.781,1.107,51.099,5.864,2.028,282.077,44.159,87129.038,40.877,115.042
河北,承德市,96.198,136.68,16.84,45.504,1.229,56.999,4.041,3.142,278.121,58.083,90424.676,41.339,117.578
河北,沧州市,124.955,177.615,24.61,65.908,1.504,58.305,3.234,7.085,288.905,44.681,101148.989,38.258,116.744
河北,石家庄市,139.791,207.236,27.565,59.192,1.771,71.782,1.124,1.641,287.674,42.277,97813.007,38.135,114.407
河北,秦皇岛市,130.708,188.068,33.352,74.52,2.273,52.225,3.52,2.508,279.612,67.329,98324.604,40.12,119.193
河北,衡水市,146.578,214.19,22.765,54.902,1.598,70.269,2.882,8.604,290.284,41.346,100989.818,37.755,115.813
河北,邢台市,143.204,212.497,24.353,49.56,1.549,77.826,2.743,7.329,291.168,38.566,99474.648,37.195,114.815
河北,邯郸市,135.723,197.953,22.901,45.502,1.484,87.343,3.885,8.135,290.872,40.727,99101.549,36.538,114.596
河南,三门峡市,96.123,121.505,17.438,20.988,0.968,86.424,2.436,4.175,287.846,50.228,91721.627,34.362,111.101
河南,信阳市,45.976,73.27,13.649,26.398,0.676,88.721,2.083,6.674,289.689,47.58,100491.868,32.091,114.907
河南,南阳市,70.752,103.645,14.9,29.494,0.975,79.469,1.013,4.103,288.594,55.988,98257.032,33.034,112.323
河南,周口市,44.735,92.361,14.673,31.086,0.764,93.638,1.646,7.307,289.205,49.29,101119.163,33.738,114.884
河南,商丘市,60.61,101.95,15.796,33.405,0.878,96.556,1.437,7.566,288.887,47.397,101197.752,34.277,115.718
河南,安阳市,125.062,181.271,19.824,45.771,1.474,92.256,3.988,8.108,290.839,41.339,98779.121,35.888,114.318
河南,平顶山市,85.976,121.291,14.335,35.649,1.009,82.45,2.601,6.27,289.73,49.764,98814.352,33.8,113.025
河南,开封市,64.189,117.43,16.344,40.12,1.029,87.515,2.192,8.01,289.464,48.12,100745.787,34.594,114.514
河南,新乡市,127.171,188.348,20.438,53.823,1.543,84.23,3.288,7.013,289.889,45.971,99716.482,35.256,114.111
河南,洛阳市,102.107,128.484,15.442,25.698,1.043,85.442,2.51,3.72,288.931,47.44,94095.613,34.274,112.019
河南,济源市,132.905,183.84,21.817,43.043,1.466,86.411,1.207,1.645,289.015,50.209,95901.798,35.105,112.445
河南,漯河市,54.512,101.292,14.364,38.253,0.855,84.704,2.263,6.357,289.877,50.243,100909.741,33.652,113.945
河南,濮阳市,90.948,149.232,17.587,33.108,1.329,96.045,2.696,9.929,290.199,43.226,100917.254,35.809,115.283
河南,焦作市,165.072,234.432,24.262,54.045,1.8,79.752,2.317,2.261,290.374,47.014,99501.015,35.121,113.163
河南,许昌市,90.177,140.42,16.054,49.97,1.089,78.121,2.42,6.501,289.371,51.537,100185.057,34.075,113.707
河南,郑州市,134.529,185.863,18.125,58.509,1.359,76.715,2.586,6.826,289.828,47.238,98788.877,34.634,113.438
河南,驻马店市,48.076,85.24,15.058,30.768,0.796,93.528,2.077,6.833,289.725,50.86,100679.4,32.925,114.174
河南,鹤壁市,141.804,202.149,20.902,54.43,1.666,84.951,4.186,9.047,290.361,44.123,99981.347,35.716,114.319
浙江,丽水市,18.084,26.386,4.397,14.261,0.363,81.707,-0.82,3.77,286.443,59.391,95005.73,28.194,119.51
浙江,台州市,19.919,31.585,6.465,23.116,0.404,73.172,-1.283,4.323,286.737,78.542,99412.921,28.742,121.109
浙江,嘉兴市,36.209,57.901,9.611,48.119,0.679,72.193,-2.184,4.883,288.051,58.485,102036.771,30.635,120.754
浙江,宁波市,17.561,27.364,6.227,19.971,0.416,81.922,-1.585,6.395,287.361,73.356,100899.709,29.706,121.49
浙江,杭州市,34.017,56.499,8.635,35.386,0.646,64.941,0.086,2.954,288.473,45.561,99065.697,29.891,119.464
浙江,温州市,22.32,35.179,6.509,26.395,0.43,70.952,-1.026,1.979,286.093,81.508,98209.129,27.897,120.411
浙江,湖州市,42.346,70.263,10.631,46.359,0.756,66.398,-0.717,3.874,289.079,43.819,100668.172,30.757,119.871
浙江,绍兴市,31.118,46.571,6.937,35.265,0.607,65.072,-0.788,5.866,288.311,55.041,99957.748,29.709,120.64
浙江,舟山市,5.145,7.53,1.55,2.35,0.19,104.23,-2.768,7.345,287.165,78.025,101980.502,30.038,122.23
浙江,衢州市,27.005,44.967,11.366,27.849,0.593,63.294,-0.054,2.239,289.383,41.949,98296.249,28.912,118.675
浙江,金华市,26.509,41.467,6.185,31.892,0.525,67.346,-1.185,4.561,288.167,54.685,98597.121,29.109,119.967
海南,万宁市,8.594,15.181,1.031,1.691,0.212,92.851,-5.547,-1.829,293.619,82.979,100394.996,18.842,110.294
海南,三亚市,10.544,19.881,1.641,4.937,0.359,80.573,-6.719,-1.014,293.473,76.936,99102.214,18.413,109.407
海南,东方市,13.58,18.944,1.922,2.816,0.236,85.943,-0.45,-0.129,294.046,68.925,99740.496,18.971,108.838
海南,临高县,15.457,27.511,2.864,7.103,0.339,70.276,-5.99,0.543,294.256,74.141,100966.42,19.821,109.733
海南,乐东黎族自治县,12.176,18.043,1.152,2.783,0.26,82.043,-2.928,-0.268,293.372,72.642,98199.529,18.659,109.072
海南,五指山市,11.34,16.936,1.018,2.384,0.236,82.93,-5.244,0.498,291.1,81.36,94966.784,18.81,109.518
海南,儋州市,13.686,21.811,1.628,3.587,0.271,79.291,-5.114,0.996,294.484,72.27,100592.16,19.568,109.399
海南,定安县,11.873,22.94,1.387,4.682,0.308,75.603,-5.39,0.445,293.88,77.733,100679.462,19.47,110.28
海南,屯昌县,11.71,20.608,1.254,3.84,0.28,79.352,-5.136,0.856,293.396,79.114,99876.536,19.342,110.076
海南,文昌市,8.105,15.829,0.921,1.799,0.222,85.033,-6.055,-0.688,293.982,81.15,101487.197,19.707,110.773
海南,昌江黎族自治县,12.838,18.594,1.678,2.651,0.231,84.614,-2.069,-0.071,293.47,73.043,98705.766,19.233,109.016
海南,海口市,12.167,24.57,2.063,5.997,0.334,71.983,-6.059,-0.15,294.095,77.422,101273.632,19.842,110.393
海南,澄迈县,14.727,28.049,2.539,7.247,0.364,69.343,-5.517,0.771,294.163,74.941,100796.364,19.676,109.989
海南,琼中黎族苗族自治县,11.615,18.574,1.171,2.678,0.248,81.133,-4.961,0.745,291.954,84.009,97656.839,19.087,109.847
海南,琼海市,8.762,15.912,0.87,2.058,0.223,87.963,-5.228,-0.7,294.095,80.318,101246.868,19.22,110.43
海南,白沙黎族自治县,11.674,17.331,1.112,2.132,0.234,82.466,-4.331,1.36,292.656,76.48,97342.938,19.2,109.388
海南,陵水黎族自治县,9.431,16.296,0.92,2.347,0.256,87.584,-5.563,-2.213,293.356,81.343,99694.649,18.581,109.913
湖北,仙桃市,44.261,71.55,11.473,32.483,0.878,73.911,1.608,4.564,290.278,59.073,101535.782,30.284,113.417
湖北,十堰市,54.348,73.98,15.389,14.346,0.719,79.947,1.05,1.171,288.247,50.77,93378.462,32.462,110.476
湖北,咸宁市,29.466,50.079,8.189,16.823,0.728,86.235,1.712,3.972,290.674,47.287,99702.634,29.621,114.178
湖北,天门市,49.561,78.408,14.128,35.441,1.006,71.761,1.311,5.364,290.1,59.22,101449.36,30.633,113.053
湖北,孝感市,49.301,83.811,13.381,40.898,0.954,72.048,0.23,5.2,289.105,59.039,100880.447,31.116,113.869
湖北,宜昌市,57.089,72.585,11.635,16.205,0.766,76.131,1.307,1.787,288.028,56.133,94287.747,30.746,111.129
湖北,恩施土家族苗族自治州,46.714,61.762,13.559,8.32,0.728,74.948,0.851,1.965,284.783,68.558,89778.798,30.195,109.552
湖北,武汉市,47.459,85.317,12.038,50.384,0.966,61.625,0.338,3.626,289.716,55.075,101467.597,30.606,114.349
湖北,潜江市,44.871,70.542,13.918,29.549,0.921,74.282,1.593,5.458,290.366,58.061,101452.034,30.33,112.77
湖北,神农架林区,41.921,50.337,9.462,3.942,0.46,89.029,2.243,2.885,282.432,58.475,83120.565,31.592,110.49
湖北,荆州市,42.815,65.205,13.276,24.663,0.853,75.66,1.225,4.671,290.61,57.008,101216.549,30.01,112.512
湖北,荆门市,55.202,79.197,15.428,30.9,0.955,74.655,0.451,5.234,289.475,61.29,100375.784,31.059,112.616
湖北,襄阳市,57.992,76.949,13.918,18.821,0.782,81.957,0.298,4.212,289.207,54.125,97545.811,31.919,111.96
湖北,鄂州市,42.193,72.417,16.617,44.467,0.957,65.056,0.347,2.434,290.141,51.189,101543.414,30.337,114.794
湖北,随州市,50.536,79.998,14.415,26.58,0.953,86.416,-0.247,6.041,288.751,58.827,99677.429,31.809,113.43
湖北,黄冈市,45.709,73.633,13.526,29.202,0.682,70.047,-1.071,3.535,288.894,50.749,99810.976,30.702,115.358
湖北,黄石市,31.785,56.488,12.21,23.16,0.763,77.841,0.92,2.904,290.421,47.906,100564.75,29.925,115.034
湖南,娄底市,43.78,74.971,15.985,26.444,1.015,53.316,0.541,3.052,289.793,53.783,97508.481,27.715,111.632
湖南,岳阳市,45.57,67.968,12.381,25.622,0.756,77.791,-0.23,4.278,290.78,49.934,100398.511,29.081,113.275
湖南,常德市,34.752,52.804,11.974,13.948,0.802,73.539,1.182,2.577,290.576,54.693,99509.892,29.271,111.524
湖南,张家界市,34.833,49.757,10.667,6.387,0.808,74.186,2.016,0.708,288.062,63.206,95564.549,29.379,110.526
湖南,怀化市,48.186,73.387,11.031,18.596,0.782,46.922,0.096,3.8,289.602,60.004,96551.781,27.535,110.071
湖南,株洲市,50.212,78.131,15.452,22.316,0.861,69.165,0.111,3.335,290.637,44.138,98315.824,27.109,113.513
湖南,永州市,51.564,70.173,12.937,21.153,0.716,56.005,1.174,4.165,290.57,52.997,96911.319,25.748,111.723
湖南,湘潭市,50.396,84.536,18.052,30.241,1.044,62.999,-0.381,3.19,290.8,50.781,100532.301,27.744,112.619
湖南,湘西土家族苗族自治州,45.693,71.994,10.832,16.196,0.804,46.048,-0.721,1.323,287.843,65.656,95503.253,28.708,109.718
湖南,益阳市,35.591,61.791,12.374,22.981,0.891,64.73,0.184,4.316,290.698,52.494,99053.896,28.525,111.919
湖南,衡阳市,61.555,91.944,17.859,31.004,1.038,51.758,-0.024,3.007,291.529,47.076,100077.376,26.781,112.565
湖南,邵阳市,54.476,74.936,14.055,22.909,0.782,52.419,0.664,3.346,289.007,58.676,95288.21,26.893,110.881
湖南,郴州市,45.764,71.69,14.668,28.508,0.853,60.36,1.292,3.464,290.164,47.21,96121.453,25.769,113.109
湖南,长沙市,51.036,82.794,17.781,33.332,0.939,68.34,-1.014,3.559,290.551,48.742,99945.674,28.235,113.159
甘肃,临夏回族自治州,35.7,59.784,7.107,20.659,0.964,76.544,-0.007,0.554,281.961,28.144,77309.209,35.617,103.291
甘肃,兰州市,36.264,75.213,15.28,29.313,0.98,68.513,-0.972,0.246,282.898,29.667,78927.69,36.359,103.633
甘肃,嘉峪关市,26.785,97.228,18.837,23.522,0.392,67.423,3.228,-0.062,283.983,11.018,81483.7,39.798,98.145
甘肃,天水市,44.569,84.109,14.7,27.745,0.703,67.89,0.273,6.431,282.69,57.812,82589.111,34.645,105.739
甘肃,定西市,35.735,62.857,9.244,16.087,0.663,78.141,-1.211,3.538,280.843,47.489,77114.246,35.124,104.432
甘肃,平凉市,53.24,97.017,13.442,32.378,0.793,67.463,2.185,6.0,284.955,46.346,84384.023,35.304,106.644
甘肃,庆阳市,53.477,84.021,12.183,19.893,0.738,75.668,1.766,4.153,285.302,45.348,85639.331,36.149,107.596
甘肃,张掖市,9.149,30.834,3.06,4.899,0.244,75.213,1.705,0.675,277.97,20.904,74535.022,38.94,99.855
甘肃,武威市,18.168,36.906,5.968,7.639,0.476,71.873,1.314,-0.001,282.893,20.381,81207.425,38.163,103.073
甘肃,甘南藏族自治州,8.407,11.139,1.624,3.075,0.248,89.796,0.562,1.713,273.518,51.011,67534.846,34.331,102.768
甘肃,白银市,40.469,79.839,17.254,21.864,0.798,67.988,-1.49,4.17,283.22,45.186,81311.825,36.59,104.646
甘肃,酒泉市,2.6,6.943,1.151,1.382,0.148,70.9,3.542,0.188,280.001,18.94,78903.289,40.236,96.062
甘肃,金昌市,17.421,45.18,8.275,10.433,0.465,73.329,1.497,-0.594,283.29,16.241,80444.05,38.44,102.048
甘肃,陇南市,33.635,59.464,15.467,17.066,0.486,77.81,0.654,5.182,281.362,66.039,82178.095,33.599,105.224
福建,三明市,25.627,36.02,8.546,20.376,0.699,62.229,-0.761,1.793,288.045,53.272,95612.86,26.29,117.395
福建,南平市,20.995,29.486,7.001,13.373,0.419,77.184,-0.946,1.994,287.734,53.97,96401.256,27.324,118.143
福建,厦门市,29.367,50.718,12.653,36.952,0.597,64.22,-2.43,-2.708,289.813,65.69,100914.492,24.642,118.11
福建,宁德市,14.002,20.517,2.741,7.329,0.302,85.59,-1.479,0.423,285.772,77.893,95792.542,26.968,119.474
福建,泉州市,25.431,41.494,7.573,22.944,0.55,69.314,-1.957,-1.309,287.791,68.156,97093.695,25.201,118.249
福建,漳州市,28.389,45.846,8.92,25.08,0.545,76.073,-2.022,-1.227,288.855,63.347,98711.315,24.372,117.444
福建,福州市,16.452,28.559,5.084,17.947,0.422,73.253,-2.395,-2.557,287.479,78.823,97897.217,26.083,119.206
福建,莆田市,20.691,33.349,6.185,17.629,0.475,73.468,-2.624,-3.312,288.53,73.471,98645.739,25.445,118.864
福建,龙岩市,27.957,43.647,9.268,23.901,0.616,74.601,-0.723,1.673,288.438,52.909,95601.738,25.256,116.739
西藏,山南市,14.892,17.376,1.254,1.352,0.2,100.336,0.833,0.246,271.672,70.568,66060.381,28.295,92.274
西藏,拉萨市,1.551,3.318,0.069,1.412,0.162,103.765,-0.756,-0.859,264.867,57.135,56417.099,30.043,91.093
西藏,日喀则市,2.196,2.856,0.268,0.422,0.132,93.985,3.683,-1.157,263.739,58.069,55120.353,29.483,86.493
西藏,昌都市,7.561,9.296,0.528,0.707,0.156,95.151,4.211,0.384,265.408,62.095,58915.699,30.753,97.044
西藏,林芝市,13.415,15.314,1.085,1.164,0.18,100.782,0.28,-0.436,270.589,71.181,66346.055,29.184,95.25
西藏,玉树藏族自治州,1.908,2.342,0.151,0.486,0.148,91.168,2.309,-2.862,263.237,52.949,57180.41,34.196,94.317
西藏,那曲市,0.682,0.716,0.033,0.22,0.136,102.952,0.167,-0.953,263.003,36.238,55326.345,32.709,89.262
西藏,阿里地区,0.421,0.541,0.053,0.611,0.132,94.223,3.899,-2.694,261.903,43.621,54764.215,33.013,82.553
贵州,六盘水市,56.584,82.887,10.548,11.816,0.713,90.93,1.341,5.012,286.489,64.865,83158.455,26.106,104.896
贵州,安顺市,42.537,62.789,7.802,7.266,0.512,86.552,-0.887,7.318,287.873,74.487,88285.64,25.986,105.978
贵州,毕节市,60.657,87.103,9.914,12.677,0.663,84.996,1.367,3.572,285.893,66.967,83482.062,27.063,105.211
贵州,贵阳市,51.434,75.665,10.343,23.498,0.612,80.4,0.89,8.22,287.61,74.822,88301.101,26.845,106.71
贵州,遵义市,48.952,67.461,11.068,13.319,0.572,69.247,-2.45,3.036,287.027,74.371,90503.391,28.167,107.102
贵州,铜仁市,43.108,74.516,11.837,14.418,0.628,46.813,-1.367,3.457,287.501,74.08,92957.484,27.937,108.534
贵州,黔东南苗族侗族自治州,56.632,70.92,11.732,13.289,0.555,50.495,0.15,6.328,288.282,72.759,92897.056,26.495,108.574
贵州,黔南布依族苗族自治州,43.631,55.518,6.507,9.305,0.44,74.249,-0.413,7.05,287.933,78.583,90566.913,26.0,107.265
贵州,黔西南布依族苗族自治州,33.024,54.148,6.945,5.214,0.635,86.139,-0.369,6.277,288.792,69.186,88675.801,25.256,105.467
辽宁,丹东市,47.036,66.108,14.832,13.588,0.823,100.709,-1.075,7.286,275.342,85.279,98656.325,40.554,124.376
辽宁,大连市,64.058,89.474,13.043,25.5,0.761,105.593,0.18,7.094,279.621,76.727,100744.12,39.591,122.22
辽宁,抚顺市,55.316,74.474,19.944,16.667,0.877,109.235,1.57,11.694,276.772,75.906,96560.543,41.841,124.65
辽宁,朝阳市,116.711,158.067,24.578,30.741,1.519,96.018,6.016,6.49,280.896,54.713,95732.786,41.545,120.053
辽宁,本溪市,53.108,72.088,19.629,16.159,0.942,104.799,-0.515,11.014,275.098,81.038,96054.911,41.232,124.544
辽宁,沈阳市,86.004,115.2,25.255,29.28,1.062,96.939,2.954,11.083,279.392,68.856,100543.07,42.081,123.159
辽宁,盘锦市,92.196,117.063,21.44,29.083,1.169,103.185,2.966,10.19,277.819,81.396,101275.187,41.13,122.01
辽宁,营口市,69.106,93.908,17.502,22.92,0.846,110.733,0.497,10.241,280.25,71.177,99199.965,40.395,122.478
辽宁,葫芦岛市,117.125,155.579,33.824,44.84,1.79,79.419,4.861,6.048,279.839,66.132,98654.067,40.66,120.215
辽宁,辽阳市,65.073,88.569,21.355,22.348,1.037,109.319,0.088,11.473,279.76,70.218,99341.121,41.153,123.261
辽宁,铁岭市,71.709,99.77,24.604,25.596,0.897,99.064,3.276,11.599,278.229,71.81,98964.486,42.653,124.158
辽宁,锦州市,115.47,139.07,33.919,32.055,1.364,94.739,2.359,9.003,277.388,78.718,100332.66,41.502,121.659
辽宁,阜新市,116.134,137.924,27.522,28.154,1.186,91.236,2.34,9.196,278.001,71.28,98712.834,42.289,121.968
辽宁,鞍山市,68.08,91.704,18.137,21.9,0.957,108.596,0.17,9.021,278.655,77.463,99510.148,40.731,123.007
重庆,重庆城区,58.397,86.273,15.169,32.304,0.826,56.341,-2.097,0.575,288.584,61.276,95044.451,29.824,107.125
重庆,重庆郊县,47.949,64.41,15.769,11.419,0.595,73.264,-0.762,1.817,286.309,62.502,91286.257,30.334,108.755
陕西,咸阳市,120.659,172.142,13.998,39.334,1.153,73.184,0.725,0.912,288.418,43.183,91302.143,34.779,108.367
陕西,商洛市,64.834,95.445,15.233,14.079,0.788,72.995,1.631,3.305,285.76,56.164,89365.061,33.64,109.889
陕西,安康市,46.537,66.753,16.753,11.117,0.615,79.848,2.656,1.95,286.545,52.651,89942.232,32.735,108.932
陕西,宝鸡市,76.753,115.58,12.717,31.083,0.82,66.632,2.852,4.262,285.395,48.652,86273.498,34.386,107.193
陕西,延安市,67.351,101.784,17.503,34.521,1.351,68.35,3.664,3.492,286.225,45.222,87367.926,36.432,109.316
陕西,榆林市,51.159,84.368,19.112,43.253,1.397,61.16,4.164,2.569,285.674,38.295,87624.328,38.041,109.581
陕西,汉中市,46.855,69.394,15.063,14.633,0.654,74.904,1.812,2.609,285.477,56.531,89007.567,33.088,107.098
陕西,渭南市,116.482,178.731,23.555,47.035,1.423,71.241,1.292,1.75,289.483,43.172,93626.037,34.919,109.855
陕西,西安市,105.4,160.32,13.612,39.044,1.125,72.921,2.07,3.561,288.043,42.56,90405.184,34.12,108.77
陕西,铜川市,95.753,133.321,16.066,35.349,1.176,72.303,2.414,1.887,287.27,43.247,89028.763,35.198,109.058
青海,保亭黎族苗族自治县,11.374,19.576,1.308,4.414,0.324,80.158,-5.494,-1.246,292.024,83.05,97512.04,18.566,109.618
青海,吐鲁番市,13.657,54.023,2.035,4.052,0.251,60.864,0.766,-0.54,285.202,25.628,89900.387,42.386,89.851
青海,果洛藏族自治州,7.322,8.611,0.592,0.846,0.154,89.886,0.46,0.682,265.167,71.974,59821.419,34.127,99.404
青海,海东市,17.15,24.596,6.52,9.201,0.641,76.354,-0.046,-0.033,278.456,20.687,72664.08,36.347,102.34
青海,海北藏族自治州,3.007,4.333,1.626,1.584,0.165,81.378,0.604,0.271,270.591,30.138,65282.008,37.775,100.288
青海,海南藏族自治州,2.259,2.671,0.46,0.78,0.141,91.207,1.422,-0.491,272.481,30.823,66417.285,35.89,100.272
青海,海西蒙古族藏族自治州,0.741,0.856,0.327,0.359,0.135,85.305,2.246,-0.984,269.852,26.901,64477.686,36.677,94.519
青海,西宁市,14.931,26.722,7.98,10.58,0.728,74.692,0.646,-0.55,275.371,21.896,69486.291,36.842,101.423
青海,黄南藏族自治州,4.273,4.873,0.682,1.022,0.164,90.636,-0.093,0.475,272.2,40.226,65725.677,35.022,101.631
香港,香港特别行政区,15.385,23.37,4.185,20.36,0.325,87.465,-6.295,0.165,292.7,80.08,101412.85,22.45,114.22
黑龙江,七台河市,48.184,67.95,17.339,34.02,0.934,62.983,0.678,5.636,266.918,80.84,98006.381,45.87,130.943
黑龙江,伊春市,30.633,45.737,13.508,13.462,0.523,74.727,1.136,4.965,264.564,80.08,96219.218,47.772,129.184
黑龙江,佳木斯市,31.584,43.513,9.63,15.326,0.48,68.58,-0.102,5.286,263.376,86.004,100127.34,47.207,132.11
黑龙江,双鸭山市,26.709,36.525,8.608,10.92,0.424,70.325,0.088,6.96,264.616,83.423,99737.718,46.722,132.643
黑龙江,哈尔滨市,53.588,67.592,19.315,23.413,0.721,78.4,0.946,5.685,269.593,82.664,98141.044,45.634,127.964
黑龙江,大兴安岭地区,12.098,13.814,5.58,3.565,0.23,50.819,4.099,0.837,263.862,81.351,93684.092,52.286,124.212
黑龙江,大庆市,63.547,85.959,23.533,26.843,0.872,93.518,-0.34,4.009,269.819,83.386,99213.472,46.327,124.687
黑龙江,牡丹江市,55.42,74.221,19.649,32.483,0.958,47.109,2.776,6.792,269.352,79.326,95154.814,44.592,129.883
黑龙江,绥化市,41.533,62.16,20.314,27.381,0.794,79.298,-0.753,4.522,266.545,88.863,98519.691,46.89,126.634
黑龙江,鸡西市,36.902,48.15,10.85,18.266,0.69,59.37,0.726,6.467,264.933,85.348,99536.137,45.626,132.289
黑龙江,鹤岗市,29.26,47.455,11.835,16.676,0.535,76.729,-0.114,3.174,262.033,83.831,98951.267,47.661,130.778
黑龙江,黑河市,45.651,68.036,18.295,16.384,0.63,71.259,2.179,5.398,263.017,86.426,96377.247,49.268,127.004
黑龙江,齐齐哈尔市,65.106,84.768,21.334,24.897,0.795,69.72,-0.298,3.596,266.047,86.914,98358.553,47.715,124.57
