province,city,PM2.5,PM10,SO2,NO2,CO,O3,U,V,TEMP,RH,PSFC,lat,lon
上海,上海市,61.751,72.484,10.601,50.417,0.663,80.296,-1.124,2.542,280.485,63.54,102654.568,31.173,121.42
云南,临沧市,54.918,72.094,8.669,11.309,0.953,93.886,1.266,4.357,287.749,62.767,84125.79,23.935,99.686
云南,丽江市,38.061,59.434,6.444,4.416,0.941,101.047,6.723,2.019,280.447,62.689,74690.604,26.96,100.515
云南,保山市,57.19,80.909,9.418,17.678,0.792,93.095,2.66,2.336,286.185,68.691,82056.861,24.953,98.962
云南,大理白族自治州,47.747,70.995,8.273,6.122,0.852,102.412,4.571,3.386,282.857,74.483,78257.474,25.726,100.053
云南,德宏傣族景颇族自治州,74.938,96.366,10.458,34.547,0.83,91.869,0.144,2.471,289.496,61.898,86239.183,24.535,98.052
云南,怒江傈僳族自治州,36.041,55.239,5.213,2.917,0.554,101.953,4.062,2.032,277.81,75.481,72864.639,26.916,98.885
云南,文山壮族苗族自治州,32.888,48.868,9.937,5.759,0.56,85.578,1.066,5.499,285.284,44.333,86910.901,23.696,104.735
云南,昆明市,49.395,70.047,10.502,13.513,0.924,91.993,6.313,5.374,283.37,66.043,79402.186,25.384,102.863
云南,昭通市,44.609,76.776,14.561,10.95,0.665,95.252,2.804,1.044,286.189,50.78,84111.269,27.667,103.985
云南,普洱市,39.356,57.764,8.495,6.361,0.741,93.619,-0.713,4.306,287.909,54.85,86267.765,23.159,100.718
云南,曲靖市,40.842,62.277,10.587,10.104,0.711,89.697,6.006,5.02,283.671,57.582,80160.227,25.737,103.929
云南,楚雄彝族自治州,47.412,66.47,8.319,6.066,0.982,91.454,4.387,5.868,284.64,67.547,81167.569,25.328,101.567
云南,玉溪市,41.183,64.44,8.712,7.311,0.758,95.393,2.051,5.484,286.041,54.344,83748.132,24.136,102.217
云南,红河哈尼族彝族自治州,36.573,56.058,9.428,5.728,0.562,95.992,-0.6,4.316,285.585,49.64,85506.628,23.451,103.034
云南,西双版纳傣族自治州,35.044,56.139,8.992,10.2,0.664,78.803,-2.566,2.428,289.919,47.546,89291.219,21.939,100.912
云南,迪庆藏族自治州,21.982,37.484,3.846,1.891,0.455,105.11,7.086,1.59,273.072,67.033,67230.469,27.957,99.459
内蒙古,乌兰察布市,12.187,22.753,4.309,6.894,0.366,61.552,0.962,-0.407,274.55,36.471,86171.889,41.691,112.44
内蒙古,乌海市,39.192,95.576,52.74,47.512,1.109,60.238,-1.145,0.91,280.618,23.595,87835.78,39.396,106.856
内蒙古,兴安盟,26.914,32.665,7.814,5.356,0.355,68.478,3.611,-3.758,258.053,71.639,95237.237,46.244,121.341
内蒙古,包头市,18.289,29.064,5.645,15.554,0.412,60.405,-0.152,1.567,276.054,30.835,86119.348,41.549,110.276
内蒙古,呼伦贝尔市,19.014,23.04,7.387,5.843,0.285,58.695,2.243,0.569,255.318,79.89,93857.136,49.636,121.171
内蒙古,呼和浩特市,23.89,50.145,9.229,23.358,0.705,60.949,-1.147,-0.687,276.897,29.469,86520.245,40.578,111.513
内蒙古,巴彦淖尔市,17.322,31.551,7.359,13.753,0.401,55.358,-0.52,2.766,278.091,28.084,87479.296,41.446,107.582
内蒙古,赤峰市,15.789,23.262,6.731,5.494,0.41,58.791,3.745,-3.983,266.897,59.884,92331.313,43.226,118.892
内蒙古,通辽市,32.689,39.158,7.849,6.421,0.386,74.551,4.058,-5.319,264.508,61.679,98570.527,43.814,121.591
内蒙古,鄂尔多斯市,21.849,44.421,12.536,23.532,0.602,57.983,-1.209,0.418,279.179,28.115,87195.932,39.407,108.63
内蒙古,锡林郭勒盟,2.969,4.561,1.579,1.025,0.201,59.12,2.313,-1.437,266.722,64.018,89342.408,44.179,115.482
内蒙古,阿拉善盟,8.491,13.898,5.014,4.029,0.222,62.877,-0.479,2.167,281.164,25.793,87538.003,40.473,102.467
北京,北京市,76.586,91.225,10.341,43.631,1.013,67.086,-0.952,-0.913,279.006,33.91,98396.266,40.158,116.395
台湾,台湾省,19.601,23.652,5.168,12.058,0.259,77.38,-2.487,-2.732,284.63,64.256,93562.544,23.757,120.975
吉林,吉林市,39.184,48.829,13.208,15.936,0.698,90.279,3.439,1.538,263.807,82.343,97521.708,43.573,126.859
吉林,四平市,54.97,65.65,12.557,19.561,0.881,80.92,2.781,-2.568,264.957,71.55,100035.444,43.472,124.386
吉林,延边朝鲜族自治州,28.458,34.913,11.871,11.34,0.466,77.691,3.037,1.72,263.302,75.496,94342.916,43.141,129.147
吉林,松原市,40.861,53.129,9.62,12.851,0.684,90.534,1.414,-4.484,261.769,80.303,100460.183,44.785,124.496
吉林,白城市,52.429,63.7,10.921,10.956,0.585,101.219,0.89,-4.63,261.619,70.969,100701.657,45.35,123.031
吉林,白山市,36.457,46.598,14.493,13.009,0.732,78.855,5.47,2.885,265.204,73.64,92429.874,42.063,127.256
吉林,辽源市,52.44,66.05,14.315,21.326,0.888,79.643,4.293,0.342,265.417,76.33,97998.688,42.836,125.32
吉林,通化市,39.581,53.803,14.162,15.012,0.841,85.067,3.986,1.934,266.701,74.125,96115.98,41.939,125.927
吉林,长春市,39.973,49.851,11.454,20.079,0.788,88.698,2.475,-2.589,262.642,84.707,99876.615,44.268,125.611
四川,乐山市,55.888,85.145,15.085,25.648,0.611,83.197,0.317,-3.628,286.337,50.369,89601.378,29.218,103.569
四川,内江市,41.131,80.14,15.639,30.07,0.694,81.792,-2.927,-1.95,292.013,36.708,96595.802,29.62,104.95
四川,凉山彝族自治州,34.83,49.431,7.834,6.251,0.792,97.775,6.072,3.215,279.765,57.087,74134.547,27.883,102.065
四川,南充市,47.766,86.237,11.699,41.386,0.713,51.109,-5.805,0.599,288.031,46.809,96873.081,31.19,106.199
四川,宜宾市,54.921,92.41,19.464,30.057,0.696,84.994,2.346,-2.637,291.49,37.755,94963.868,28.573,104.621
四川,巴中市,38.518,65.975,12.174,26.729,0.587,51.809,-4.362,1.783,285.434,49.318,92676.263,32.033,107.031
四川,广元市,37.652,72.789,15.95,31.214,0.635,50.254,-4.103,2.606,284.954,52.735,91738.631,32.261,105.788
四川,广安市,38.157,71.983,11.281,30.854,0.65,61.903,-4.597,4.067,289.887,42.16,96837.583,30.43,106.628
四川,德阳市,52.419,94.151,10.179,34.583,0.649,70.628,-3.167,-2.407,286.478,51.254,93235.931,31.13,104.436
四川,成都市,53.935,91.828,12.035,36.45,0.648,76.93,-2.44,-3.798,287.285,49.525,93345.521,30.64,103.929
四川,攀枝花市,51.478,73.201,18.769,22.426,1.451,85.711,3.672,4.253,286.169,57.29,81572.099,26.791,101.734
四川,泸州市,40.544,68.754,18.019,23.231,0.592,81.811,0.288,4.913,291.339,36.917,93363.313,28.424,105.675
四川,甘孜藏族自治州,9.282,11.689,1.079,1.073,0.183,90.752,4.549,1.082,267.215,70.272,61014.653,30.936,100.009
四川,眉山市,52.697,90.959,13.281,34.228,0.659,76.456,-1.412,-4.091,287.995,48.274,93773.082,29.912,103.766
四川,绵阳市,46.951,79.796,12.961,25.693,0.557,69.326,-2.49,0.139,282.827,58.974,88056.353,31.86,104.704
四川,自贡市,50.807,89.569,17.642,33.51,0.747,80.096,-0.707,-3.616,291.988,36.977,96563.693,29.307,104.659
四川,资阳市,33.195,72.93,11.917,28.369,0.646,74.631,-5.097,-1.274,291.363,38.217,96904.047,30.102,105.149
四川,达州市,40.549,66.617,13.768,34.563,0.593,55.808,-4.516,2.289,286.97,45.075,94269.265,31.335,107.636
四川,遂宁市,40.867,82.137,10.535,35.243,0.7,64.443,-5.977,-0.243,289.767,43.297,97228.252,30.642,105.457
四川,阿坝藏族羌族自治州,12.042,15.911,2.884,2.59,0.193,87.871,2.311,0.513,270.317,68.133,65343.573,32.406,102.61
四川,雅安市,48.375,65.435,11.515,10.963,0.453,89.15,-0.579,-0.769,279.363,70.774,80048.269,29.932,102.689
天津,天津市,83.297,122.473,17.813,58.093,1.461,51.667,-4.704,-0.275,277.862,47.659,102218.313,39.315,117.308
宁夏,中卫市,39.44,79.727,17.529,21.191,0.668,65.772,-0.484,3.375,280.922,42.791,83644.927,37.018,105.509
宁夏,吴忠市,31.465,59.698,14.164,18.413,0.461,58.433,-1.195,2.092,280.976,32.9,85238.781,37.454,106.577
宁夏,固原市,43.415,88.726,16.959,37.409,0.808,63.159,0.861,4.048,278.39,65.913,81095.262,35.905,106.183
宁夏,石嘴山市,41.509,89.749,49.224,38.307,0.917,66.644,-0.369,0.226,280.771,23.197,86914.475,39.013,106.499
宁夏,银川市,38.733,83.627,29.645,32.515,0.695,58.652,-1.466,1.1,281.748,24.792,87203.328,38.287,106.342
安徽,亳州市,55.251,94.705,11.209,27.142,0.676,93.084,1.857,6.377,284.361,55.173,102000.164,33.44,116.162
安徽,六安市,42.458,65.482,9.299,16.862,0.508,88.003,0.843,3.931,284.741,43.867,99555.445,31.617,116.209
安徽,合肥市,58.309,81.237,8.905,33.471,0.693,78.317,-0.802,5.02,283.796,49.017,102042.976,31.766,117.359
安徽,安庆市,56.866,82.33,11.478,24.361,0.607,78.077,1.675,2.678,283.007,52.702,100121.54,30.557,116.473
安徽,宣城市,42.284,57.107,8.073,21.118,0.6,66.079,-0.325,2.79,283.036,42.511,100080.524,30.676,118.846
安徽,宿州市,77.804,111.42,14.168,35.688,0.763,89.81,2.062,6.463,283.659,52.899,101974.788,33.844,117.23
安徽,池州市,40.078,55.527,8.768,19.005,0.516,68.487,0.488,3.053,283.614,45.397,100305.623,30.296,117.379
安徽,淮北市,65.558,103.364,14.069,35.89,0.708,89.92,1.856,6.63,283.825,54.932,102009.232,33.722,116.747
安徽,淮南市,52.841,82.896,9.033,27.314,0.572,89.971,-1.123,4.971,284.129,51.449,102146.317,32.463,116.746
安徽,滁州市,75.235,104.025,11.63,38.625,0.813,77.206,-0.084,5.651,282.946,48.721,101934.907,32.55,118.076
安徽,芜湖市,60.6,75.616,10.769,32.967,0.782,70.824,0.209,3.181,283.44,47.145,102287.976,31.167,118.162
安徽,蚌埠市,65.478,97.935,13.175,33.56,0.65,87.749,0.817,6.114,283.658,51.095,102115.306,33.121,117.263
安徽,铜陵市,58.28,77.591,11.499,37.992,0.722,68.739,1.523,3.419,283.522,49.592,102134.436,30.883,117.531
安徽,阜阳市,47.78,87.766,10.05,24.34,0.635,89.229,2.282,5.852,285.002,53.674,101990.377,32.937,115.723
安徽,马鞍山市,76.576,100.245,13.165,44.655,0.926,69.049,-0.615,3.839,282.842,49.301,102288.361,31.622,118.386
安徽,黄山市,28.736,49.749,9.39,16.875,0.551,60.515,-0.715,1.824,282.434,44.623,98058.669,29.869,118.09
山东,东营市,100.596,147.37,24.052,43.693,1.245,55.41,-1.361,-0.32,279.098,61.188,102254.716,37.57,118.572
山东,临沂市,98.056,150.8,23.271,48.952,1.095,75.177,2.986,4.474,282.03,56.324,100423.349,35.289,118.27
山东,威海市,46.382,78.679,12.301,27.032,0.8,76.64,2.026,1.858,277.798,72.128,101694.047,37.148,122.028
山东,德州市,106.608,166.562,18.98,34.536,1.157,85.89,-0.435,2.557,282.763,57.793,101981.776,37.233,116.679
山东,日照市,100.981,150.757,22.073,52.555,1.08,67.241,3.729,4.324,281.245,55.661,100539.737,35.566,119.108
山东,枣庄市,92.046,152.134,23.026,45.242,1.063,80.256,1.962,5.618,283.022,55.758,101155.859,34.925,117.383
山东,泰安市,91.204,159.133,19.387,38.394,1.094,91.427,0.532,3.926,282.447,58.584,100224.931,35.993,117.04
山东,济南市,99.241,164.077,22.828,39.473,1.143,92.162,0.496,4.067,281.947,58.216,100181.024,36.639,117.254
山东,济宁市,75.704,141.892,16.838,32.307,1.04,96.109,1.574,5.368,284.16,54.912,101524.61,35.375,116.697
山东,淄博市,103.183,159.958,23.492,43.173,1.24,87.877,2.163,3.167,281.07,59.1,99584.382,36.623,118.062
山东,滨州市,101.311,145.131,21.42,38.94,1.155,74.093,-0.291,1.115,280.702,57.616,102143.418,37.516,117.852
山东,潍坊市,100.099,155.054,20.262,45.601,1.167,73.685,1.54,1.505,280.938,56.907,101095.567,36.53,119.092
山东,烟台市,61.962,105.775,14.973,39.077,1.0,64.952,0.365,1.68,277.642,62.438,101147.289,37.25,120.789
山东,聊城市,119.307,187.498,17.147,35.36,1.293,79.558,0.397,2.605,284.736,58.09,101705.415,36.458,115.863
山东,菏泽市,84.797,137.154,12.766,29.175,1.101,90.517,2.921,5.166,285.622,54.989,101626.478,35.134,115.69
山东,青岛市,81.457,129.295,16.085,44.049,1.06,69.745,0.818,3.39,279.943,58.083,101720.279,36.46,120.172
山西,临汾市,84.767,130.181,39.425,46.262,1.666,65.138,1.486,3.294,283.375,45.283,90290.665,36.227,111.398
山西,吕梁市,60.058,106.987,28.546,38.86,1.508,51.913,0.826,1.627,281.716,39.882,87860.875,37.663,111.27
山西,大同市,30.625,59.637,11.067,18.123,0.823,60.305,-0.222,-0.789,276.564,33.241,87505.186,39.911,113.713
山西,太原市,79.041,156.588,39.057,45.499,1.174,61.825,-0.882,-0.785,280.163,36.515,87801.817,37.967,112.321
山西,忻州市,57.185,104.259,23.52,34.693,0.92,57.008,-0.736,0.008,278.04,32.765,86308.836,38.877,112.391
山西,晋中市,82.308,144.472,33.704,43.129,1.305,70.36,-0.339,0.323,280.68,40.82,88745.529,37.328,112.997
山西,晋城市,120.787,174.263,26.172,39.086,1.902,83.054,-0.485,0.998,282.883,43.0,90731.07,35.625,112.752
山西,朔州市,47.325,102.13,30.108,34.746,1.033,55.434,-0.978,0.088,277.025,34.01,86812.886,39.619,112.655
山西,运城市,116.407,177.348,46.387,48.054,1.769,67.995,0.393,2.133,285.415,46.794,94495.523,35.205,111.071
山西,长治市,85.429,136.527,23.599,36.878,1.431,78.087,0.6,1.814,281.615,43.304,89052.284,36.48,112.915
山西,阳泉市,99.572,180.598,34.521,48.056,1.442,69.428,-1.311,-1.233,279.244,33.134,90724.437,38.031,113.512
广东,东莞市,35.709,57.092,10.727,44.888,0.691,77.942,-4.869,-2.509,288.622,43.373,102047.017,22.931,113.81
广东,中山市,38.041,57.916,10.152,41.264,0.677,84.89,-5.128,-3.134,289.176,48.761,102028.874,22.5,113.383
广东,云浮市,39.362,59.703,10.397,32.973,0.695,75.295,-5.119,-1.804,287.722,41.698,99958.921,22.776,111.818
广东,佛山市,44.843,72.413,13.539,64.824,0.831,65.761,-3.559,-2.583,288.665,41.912,102091.612,23.035,112.979
广东,广州市,34.146,53.986,10.717,43.031,0.643,71.927,-4.187,-2.42,288.159,41.019,101169.042,23.339,113.525
广东,惠州市,27.692,44.964,8.605,19.36,0.54,81.466,-4.253,-3.174,287.306,43.549,100174.066,23.244,114.485
广东,揭阳市,45.876,67.378,12.467,25.068,0.82,97.576,-5.66,-3.682,286.954,45.796,100827.725,23.323,116.123
广东,梅州市,34.691,52.177,10.169,21.216,0.682,79.704,-3.576,-1.525,285.783,45.072,98740.76,24.169,116.07
广东,汕头市,38.768,54.189,11.264,21.148,0.676,107.027,-6.668,-5.45,287.61,50.639,101988.256,23.339,116.614
广东,汕尾市,34.401,53.912,9.969,17.706,0.63,94.859,-5.981,-3.788,287.373,44.059,100520.268,23.024,115.527
广东,江门市,41.559,60.127,11.596,41.881,0.699,82.97,-5.133,-3.432,288.881,47.783,101434.256,22.289,112.676
广东,河源市,27.834,46.606,9.122,17.75,0.579,72.82,-3.145,-2.9,285.935,44.865,98930.087,24.021,114.969
广东,深圳市,30.794,51.66,9.206,35.088,0.633,82.861,-5.468,-2.996,288.493,47.417,101536.65,22.667,114.143
广东,清远市,32.606,48.964,8.999,19.553,0.53,67.515,-2.7,-1.57,286.272,40.998,98413.292,24.295,112.871
广东,湛江市,34.48,48.911,11.414,14.996,0.636,111.44,-6.61,-1.682,291.119,49.503,101775.717,21.091,110.163
广东,潮州市,41.478,58.204,10.051,20.105,0.7,95.795,-6.27,-4.454,286.366,46.121,100259.364,23.755,116.754
广东,珠海市,29.212,41.507,10.23,22.815,0.502,92.053,-5.822,-4.062,289.835,53.51,102083.173,22.095,113.317
广东,肇庆市,35.279,52.172,8.642,24.427,0.586,68.352,-4.691,-1.756,287.694,39.292,100083.08,23.505,112.199
广东,茂名市,37.915,57.122,12.308,20.428,0.68,95.544,-6.036,-1.467,289.359,39.761,99968.922,22.013,110.952
广东,阳江市,40.479,58.883,12.491,29.349,0.682,88.999,-5.297,-3.16,288.678,45.361,100545.612,22.042,111.786
广东,韶关市,30.555,49.943,10.085,22.624,0.664,61.324,-3.063,-1.945,285.208,42.449,97622.905,24.785,113.819
广西,北海市,46.589,67.011,10.499,18.689,0.879,101.926,-5.599,-0.427,291.158,35.563,101835.989,21.674,109.37
广西,南宁市,49.021,79.442,12.292,30.746,0.847,80.731,-3.876,0.711,289.723,37.15,99965.167,23.051,108.469
广西,崇左市,46.759,62.013,12.573,20.625,0.655,84.671,-3.019,0.833,289.376,37.358,98624.131,22.483,107.291
广西,来宾市,47.08,72.654,10.531,20.663,0.664,69.649,-3.967,1.241,288.774,36.396,98782.547,23.859,109.417
广西,柳州市,40.315,61.459,9.294,19.852,0.597,69.732,-2.285,1.517,287.991,38.352,98154.882,24.956,109.372
广西,桂林市,37.441,55.812,10.351,18.185,0.54,71.271,-2.338,0.508,286.54,39.226,96517.703,25.353,110.513
广西,梧州市,38.795,59.413,9.719,22.127,0.714,62.461,-4.947,-0.355,288.044,38.58,99670.992,23.484,110.996
广西,河池市,40.269,65.11,11.458,17.071,0.583,68.281,-2.707,3.4,287.241,38.554,95736.335,24.628,107.843
广西,玉林市,43.993,72.371,13.173,24.355,0.862,84.442,-5.142,-0.876,289.545,36.215,100042.63,22.452,110.164
广西,百色市,39.2,56.945,15.318,12.057,0.803,78.009,-2.567,4.18,287.444,36.251,93561.376,23.981,106.292
广西,贵港市,48.578,81.574,10.792,24.366,0.818,69.705,-5.107,-1.049,289.081,37.674,100514.655,23.322,110.021
广西,贺州市,36.998,55.627,8.881,13.257,0.577,65.125,-2.916,-0.089,286.955,38.082,97810.075,24.364,111.394
广西,钦州市,48.988,79.923,11.182,25.062,1.013,91.753,-4.301,0.098,290.724,34.503,101111.25,22.173,109.01
广西,防城港市,42.248,62.112,12.117,21.769,0.8,99.47,-3.986,0.331,289.787,39.223,99476.528,21.88,108.002
新疆,乌鲁木齐市,15.724,38.371,3.394,10.225,0.406,61.477,-0.003,1.856,277.932,39.055,83934.622,43.746,87.818
新疆,五家渠市,38.18,57.66,10.74,21.997,0.793,48.427,-1.81,0.193,279.53,57.897,96180.303,44.363,87.517
新疆,伊犁哈萨克自治州,5.701,9.735,2.903,3.952,0.286,64.003,0.754,2.101,276.272,48.874,80106.125,43.438,82.146
新疆,克孜勒苏柯尔克孜自治州,16.519,25.75,0.391,1.093,0.202,69.313,7.019,-2.135,272.14,49.002,70336.516,39.661,75.949
新疆,克拉玛依市,11.873,23.713,3.308,6.108,0.355,64.948,-0.96,-0.872,278.511,56.7,97021.473,45.457,85.207
新疆,北屯市,3.152,5.508,1.614,2.77,0.232,80.21,-4.398,4.986,274.178,66.364,95179.396,47.27,87.868
新疆,博尔塔拉蒙古自治州,9.554,13.621,3.951,4.165,0.344,62.791,3.519,3.139,277.004,55.737,85782.963,44.714,82.114
新疆,双河市,19.848,27.132,8.06,8.31,0.586,57.196,0.18,-1.31,279.142,57.408,97472.69,44.87,82.474
新疆,可克达拉市,20.394,38.758,12.24,14.744,0.728,57.334,-3.924,1.55,283.782,43.992,94395.926,43.918,80.786
新疆,和田地区,9.982,35.062,0.859,0.949,0.183,75.215,3.694,-0.155,274.978,31.33,73915.679,37.059,80.934
新疆,哈密市,4.545,17.539,1.31,1.828,0.287,61.715,1.9,1.939,280.945,30.606,88059.462,43.042,93.517
新疆,喀什地区,46.551,66.451,1.859,2.741,0.312,66.369,4.868,0.627,275.797,36.95,76051.673,38.125,77.178
新疆,图木舒克市,15.692,10.207,2.83,1.832,0.233,56.032,2.407,1.368,284.175,32.415,89082.655,39.892,79.182
新疆,塔城地区,7.995,12.309,2.75,4.072,0.276,64.939,2.158,1.053,277.275,59.886,89126.48,45.642,84.789
新疆,巴音郭楞蒙古自治州,10.975,10.931,0.675,0.725,0.175,72.177,2.708,0.73,277.281,29.127,79066.026,39.463,87.481
新疆,新星市,13.3,68.78,3.04,11.385,0.765,56.195,-3.005,0.55,284.465,25.045,92493.9,42.75,93.68
新疆,昆玉市,47.78,164.31,4.21,4.907,0.443,61.843,1.93,-1.193,286.097,20.453,86861.243,37.457,79.093
新疆,昌吉回族自治州,12.862,25.052,3.383,6.815,0.321,63.721,-0.187,1.717,278.272,48.132,89550.506,44.342,88.608
新疆,石河子市,27.315,46.225,7.525,19.645,0.545,60.655,1.095,1.5,280.78,51.995,94244.245,44.245,86.035
新疆,胡杨河市,21.458,35.14,4.816,9.974,0.438,61.58,-1.762,-0.888,278.986,60.158,97478.86,44.852,84.772
新疆,铁门关市,108.787,101.453,2.017,4.227,0.51,60.603,3.857,-2.96,284.647,26.267,91501.477,41.773,85.66
新疆,阿克苏地区,33.373,5.786,1.817,3.058,0.301,60.956,1.003,-0.565,280.263,34.959,85133.426,40.965,81.578
新疆,阿勒泰地区,2.479,3.523,1.23,1.229,0.176,68.671,-3.31,5.115,274.001,61.83,88082.088,46.902,88.421
新疆,阿拉尔市,92.12,10.797,3.342,7.916,0.567,52.316,-0.778,-0.952,282.292,36.632,89963.523,40.629,80.998
江苏,南京市,78.471,107.741,14.767,48.566,0.955,63.665,-0.521,3.984,282.525,47.322,102353.123,31.899,118.876
江苏,南通市,64.343,86.636,15.76,56.676,0.866,71.011,-0.3,3.598,280.806,57.911,102594.664,32.201,120.979
江苏,宿迁市,80.904,105.818,13.344,35.566,0.791,89.588,1.43,6.329,282.876,51.534,102309.325,33.765,118.495
江苏,常州市,72.012,95.122,13.536,51.438,0.9,67.885,-1.023,3.314,282.119,48.529,102459.524,31.613,119.666
江苏,徐州市,88.888,127.485,15.868,39.923,0.887,86.47,2.572,6.345,283.529,53.052,101941.882,34.363,117.513
江苏,扬州市,86.904,119.783,16.733,58.52,1.008,68.111,0.174,5.078,282.013,46.687,102495.736,32.709,119.486
江苏,无锡市,72.232,100.73,15.14,64.572,0.998,60.916,-1.11,3.042,281.837,49.258,102384.722,31.546,120.066
江苏,泰州市,87.741,120.428,16.425,62.921,1.088,65.549,0.114,4.442,281.577,49.853,102493.365,32.605,120.048
江苏,淮安市,86.094,119.516,15.686,47.414,0.921,79.796,0.94,6.022,282.424,47.79,102365.204,33.362,118.985
江苏,盐城市,79.02,111.21,17.05,49.019,0.876,77.047,1.109,5.435,281.261,49.235,102476.129,33.529,120.156
江苏,苏州市,73.035,100.081,14.151,66.624,0.924,64.692,-1.041,2.821,281.243,55.951,102582.272,31.374,120.661
江苏,连云港市,80.316,119.113,17.439,46.503,0.889,79.339,2.675,6.319,282.246,49.662,102157.079,34.519,119.133
江苏,镇江市,80.198,107.381,14.181,53.688,0.95,66.747,-0.567,4.103,281.982,48.814,102414.851,32.016,119.49
江西,上饶市,38.143,63.44,13.037,20.373,0.66,58.947,-1.453,0.004,283.706,46.426,100184.899,28.778,117.47
江西,九江市,36.318,63.129,10.321,17.738,0.576,72.836,-1.201,2.849,283.789,52.562,100086.735,29.313,115.444
江西,南昌市,38.791,73.14,13.104,30.972,0.632,63.041,-0.972,0.596,284.162,55.176,102066.368,28.671,116.016
江西,吉安市,36.487,59.255,12.632,15.766,0.558,65.837,-2.076,-0.206,284.326,48.354,99695.346,26.954,114.831
江西,宜春市,38.883,68.409,13.839,25.556,0.639,66.251,-2.036,0.668,283.662,52.679,100062.98,28.29,114.974
江西,抚州市,30.788,47.522,9.857,12.333,0.442,68.716,-1.907,-0.459,284.176,48.252,99720.888,27.514,116.42
江西,新余市,41.519,73.965,16.603,30.873,0.792,63.665,-2.016,0.149,284.1,50.659,101019.809,27.847,114.836
江西,景德镇市,39.45,65.242,11.205,20.79,0.587,58.754,-1.115,0.607,283.731,49.526,101041.865,29.287,117.24
江西,萍乡市,37.265,65.488,15.813,20.058,0.702,66.345,-3.878,1.549,284.79,45.458,98627.673,27.505,113.908
江西,赣州市,33.799,53.021,10.331,17.028,0.71,62.788,-1.875,-2.007,284.176,47.859,97982.784,25.692,115.279
江西,鹰潭市,35.381,58.47,11.949,22.848,0.597,64.009,-1.737,-0.488,284.11,46.971,100718.151,28.222,117.094
河北,保定市,91.677,131.073,14.35,45.175,1.047,70.207,-3.048,-2.775,280.54,31.449,98325.544,39.018,115.159
河北,唐山市,75.499,115.347,25.45,50.178,1.693,58.314,-4.287,-1.077,276.226,49.406,101738.795,39.731,118.354
河北,廊坊市,100.053,146.322,17.356,62.948,1.336,52.211,-4.31,-1.049,278.737,41.78,102240.081,39.267,116.632
河北,张家口市,20.625,41.641,4.164,11.669,0.486,66.643,2.181,-2.166,274.939,38.348,87965.188,40.877,115.042
河北,承德市,33.026,50.674,6.605,19.926,0.682,65.36,2.034,-2.714,273.49,44.378,91355.983,41.339,117.578
河北,沧州市,101.821,148.664,16.853,45.012,1.117,62.119,-3.31,-0.839,280.0,54.016,102179.668,38.258,116.744
河北,石家庄市,126.079,197.878,22.982,51.57,1.489,68.985,-1.455,-3.526,282.535,30.58,98842.772,38.135,114.407
河北,秦皇岛市,54.006,80.675,17.46,36.71,1.093,69.525,-2.708,-2.747,274.15,51.674,99386.55,40.12,119.193
河北,衡水市,120.472,178.052,16.689,43.799,1.272,69.597,-2.303,-2.072,282.829,47.84,101954.694,37.755,115.813
河北,邢台市,138.744,208.55,20.201,46.551,1.455,66.587,-0.281,-3.936,284.613,38.676,100414.67,37.195,114.815
河北,邯郸市,142.653,206.442,18.168,44.149,1.514,60.615,0.62,-2.193,285.159,43.941,99900.653,36.538,114.596
河南,三门峡市,86.077,116.162,17.478,24.719,0.935,67.794,1.62,2.817,284.433,52.991,92125.018,34.362,111.101
河南,信阳市,47.554,79.668,12.519,24.225,0.662,88.674,2.543,7.175,285.591,50.256,101010.926,32.091,114.907
河南,南阳市,85.301,116.134,12.238,32.039,1.042,70.38,0.9,3.855,285.493,62.304,98728.747,33.034,112.323
河南,周口市,66.12,109.457,12.747,30.974,0.861,85.971,2.763,6.616,285.667,56.883,101653.325,33.738,114.884
河南,商丘市,73.292,112.903,13.101,30.893,0.876,92.988,2.945,6.487,285.105,55.935,101734.964,34.277,115.718
河南,安阳市,139.173,191.376,16.929,44.278,1.625,59.018,1.179,-1.436,285.881,43.23,99490.263,35.888,114.318
河南,平顶山市,84.683,118.159,11.351,33.293,0.961,77.716,2.611,5.108,286.601,57.318,99318.726,33.8,113.025
河南,开封市,100.049,129.473,12.509,33.836,1.001,80.533,2.839,5.268,286.424,58.229,101292.811,34.594,114.514
河南,新乡市,140.059,186.966,16.432,46.966,1.543,64.187,0.582,0.163,286.341,47.761,100315.686,35.256,114.111
河南,洛阳市,90.158,120.42,13.788,25.533,0.971,71.408,1.676,2.047,285.787,49.709,94544.672,34.274,112.019
河南,济源市,134.175,186.593,24.594,43.398,1.765,73.934,-1.214,-0.647,286.133,40.758,96412.183,35.105,112.445
河南,漯河市,70.487,108.678,11.502,32.004,0.872,86.105,3.138,5.518,286.743,57.035,101439.541,33.652,113.945
河南,濮阳市,126.537,177.485,13.457,33.432,1.395,67.007,1.757,2.112,285.824,55.327,101556.886,35.809,115.283
河南,焦作市,156.806,220.512,24.256,54.296,2.034,65.698,-1.329,-1.292,287.357,39.98,100081.234,35.121,113.163
河南,许昌市,88.81,126.468,11.842,38.606,0.996,78.488,2.861,5.194,286.434,60.502,100710.467,34.075,113.707
河南,郑州市,131.945,168.5,14.031,48.734,1.259,63.246,1.716,3.059,286.852,51.807,99326.615,34.634,113.438
河南,驻马店市,60.832,100.526,12.449,30.611,0.87,86.478,2.841,6.815,286.364,53.774,101199.642,32.925,114.174
河南,鹤壁市,147.449,198.426,16.27,47.536,1.658,53.531,1.414,-1.213,286.101,44.697,100677.829,35.716,114.319
浙江,丽水市,35.028,47.444,8.907,16.9,0.485,76.551,-1.851,0.85,280.816,40.706,95323.954,28.194,119.51
浙江,台州市,45.417,64.144,9.439,31.282,0.6,77.714,-1.008,-0.596,281.059,54.356,99803.159,28.742,121.109
浙江,嘉兴市,78.359,99.236,10.176,58.429,0.865,73.913,-1.329,1.671,281.154,56.965,102609.27,30.635,120.754
浙江,宁波市,51.474,65.248,8.719,37.659,0.647,73.721,-1.108,0.318,281.099,59.851,101365.843,29.706,121.49
浙江,杭州市,50.244,73.438,10.235,34.947,0.714,60.862,-0.833,1.32,281.805,44.186,99560.05,29.891,119.464
浙江,温州市,51.759,71.573,11.453,30.563,0.599,81.39,-1.186,-0.756,280.838,52.861,98564.767,27.897,120.411
浙江,湖州市,66.737,88.652,11.411,48.773,0.812,65.501,-1.231,2.436,282.169,45.564,101234.226,30.757,119.871
浙江,绍兴市,57.032,75.283,8.525,37.468,0.765,73.18,-1.155,1.122,281.566,49.455,100450.469,29.709,120.64
浙江,舟山市,28.778,31.955,4.29,8.54,0.362,88.292,-1.128,-0.645,281.182,60.875,102437.878,30.038,122.23
浙江,衢州市,34.746,54.455,12.046,27.755,0.625,55.864,-1.92,-0.167,282.674,40.009,98753.63,28.912,118.675
浙江,金华市,45.825,64.538,9.616,31.362,0.658,67.385,-1.51,0.687,281.757,41.83,99044.928,29.109,119.967
海南,万宁市,16.878,23.888,4.292,2.289,0.302,100.329,-5.052,-5.351,291.577,75.437,100626.427,18.842,110.294
海南,三亚市,17.506,25.577,4.957,4.476,0.401,93.827,-6.959,-3.609,291.579,66.354,99296.734,18.413,109.407
海南,东方市,20.657,25.705,6.525,2.758,0.304,91.587,-3.622,-1.241,292.34,58.842,99946.109,18.971,108.838
海南,临高县,21.034,29.773,7.496,5.753,0.359,90.97,-6.766,-1.494,291.877,63.521,101252.567,19.821,109.733
海南,乐东黎族自治县,19.673,25.418,5.422,2.805,0.321,91.178,-4.19,-2.532,291.182,64.276,98392.998,18.659,109.072
海南,五指山市,20.63,26.852,5.224,2.726,0.322,91.222,-6.034,-3.302,288.308,76.246,95138.35,18.81,109.518
海南,儋州市,22.36,30.371,6.838,5.079,0.357,87.361,-6.63,-1.115,291.749,63.036,100876.66,19.568,109.399
海南,定安县,18.775,27.915,5.068,5.132,0.382,89.295,-5.453,-2.64,291.655,66.922,100943.443,19.47,110.28
海南,屯昌县,20.058,29.06,5.296,5.21,0.376,88.326,-4.956,-2.2,290.972,69.512,100135.248,19.342,110.076
海南,文昌市,16.157,23.618,4.859,1.825,0.313,100.852,-6.868,-3.595,292.413,67.125,101745.458,19.707,110.773
海南,昌江黎族自治县,21.341,26.721,6.739,3.072,0.314,91.777,-6.863,-2.184,290.979,64.549,98932.929,19.233,109.016
海南,海口市,18.242,27.439,6.158,4.45,0.367,93.719,-6.732,-2.603,292.184,64.535,101549.187,19.842,110.393
海南,澄迈县,20.689,30.544,6.683,6.779,0.397,86.709,-6.127,-1.787,291.764,64.491,101076.579,19.676,109.989
海南,琼中黎族苗族自治县,21.63,29.58,5.229,3.971,0.352,86.905,-4.687,-2.408,289.202,77.156,97885.545,19.087,109.847
海南,琼海市,16.558,24.103,4.425,2.678,0.32,99.262,-4.987,-3.625,292.152,69.472,101499.928,19.22,110.43
海南,白沙黎族自治县,22.344,29.155,6.024,3.368,0.339,88.752,-5.829,-1.098,289.418,72.871,97576.698,19.2,109.388
海南,陵水黎族自治县,17.939,24.833,4.61,2.859,0.334,95.269,-5.427,-5.696,291.066,74.423,99908.129,18.581,109.913
湖北,仙桃市,44.173,75.678,10.799,30.414,0.807,75.693,-0.163,5.03,286.786,51.767,102069.883,30.284,113.417
湖北,十堰市,54.194,72.698,10.942,14.199,0.692,69.1,-0.327,0.516,285.377,52.779,93740.057,32.462,110.476
湖北,咸宁市,35.56,60.686,8.989,16.698,0.774,77.722,-1.043,4.514,285.78,49.313,100205.626,29.621,114.178
湖北,天门市,48.39,86.55,15.08,40.119,0.973,74.272,-0.211,5.983,286.557,52.866,101986.641,30.633,113.053
湖北,孝感市,49.435,85.737,13.153,38.141,0.916,67.783,-1.12,5.871,285.301,56.63,101413.098,31.116,113.869
湖北,宜昌市,51.854,73.026,11.905,19.008,0.76,70.11,1.043,3.147,285.259,51.553,94669.414,30.746,111.129
湖北,恩施土家族苗族自治州,39.688,60.008,12.64,8.985,0.612,60.796,0.327,3.927,282.484,55.518,90071.696,30.195,109.552
湖北,武汉市,47.717,80.263,13.328,41.339,0.938,64.262,-2.149,4.325,285.496,54.859,102015.476,30.606,114.349
湖北,潜江市,48.159,89.606,17.031,37.904,0.963,75.411,-0.011,6.438,286.93,51.574,101984.708,30.33,112.77
湖北,神农架林区,34.324,43.038,8.358,4.849,0.426,78.864,2.417,3.212,280.411,49.135,83338.843,31.592,110.49
湖北,荆州市,45.757,84.517,15.402,31.025,0.92,74.061,-0.094,6.118,287.124,50.351,101737.579,30.01,112.512
湖北,荆门市,53.498,88.228,17.32,34.716,0.991,78.999,0.044,6.714,286.284,55.121,100887.125,31.059,112.616
湖北,襄阳市,59.643,81.788,13.906,21.77,0.831,78.201,0.172,5.347,286.344,54.293,97981.711,31.919,111.96
湖北,鄂州市,44.157,72.87,17.229,36.254,0.987,69.617,-2.671,4.051,285.547,53.577,102098.35,30.337,114.794
湖北,随州市,50.238,83.148,14.408,29.393,0.955,82.102,-0.249,6.828,285.16,57.558,100184.528,31.809,113.43
湖北,黄冈市,46.824,75.01,13.478,25.382,0.777,74.087,-1.984,3.937,283.721,50.975,100343.045,30.702,115.358
湖北,黄石市,38.446,64.55,12.751,22.626,0.794,75.823,-2.0,4.093,285.04,52.68,101107.427,29.925,115.034
湖南,娄底市,36.126,75.971,16.367,27.118,0.889,62.029,-1.11,3.363,286.204,44.936,97942.704,27.715,111.632
湖南,岳阳市,39.141,69.402,11.922,24.173,0.72,74.116,-1.929,5.038,286.209,49.949,100910.713,29.081,113.275
湖南,常德市,35.334,71.754,13.655,20.059,0.851,69.132,-0.157,3.949,287.247,46.165,99986.73,29.271,111.524
湖南,张家界市,32.614,64.093,11.768,12.161,0.679,60.965,0.936,1.831,285.488,50.14,95965.657,29.379,110.526
湖南,怀化市,36.163,70.351,11.325,19.404,0.626,57.293,-0.878,3.043,287.029,41.569,96940.132,27.535,110.071
湖南,株洲市,34.238,60.759,13.994,18.826,0.632,65.906,-3.559,0.897,285.55,42.981,98738.831,27.109,113.513
湖南,永州市,32.445,54.235,12.302,16.001,0.495,68.522,-1.922,-0.132,286.173,41.17,97277.847,25.748,111.723
湖南,湘潭市,32.598,70.673,15.574,28.859,0.813,66.667,-1.901,2.869,286.741,46.631,101035.039,27.744,112.619
湖南,湘西土家族苗族自治州,37.758,73.737,10.942,18.298,0.625,48.748,-1.112,3.093,285.588,48.592,95882.564,28.708,109.718
湖南,益阳市,31.519,69.992,13.059,25.188,0.892,69.396,-1.272,5.293,287.085,44.328,99523.4,28.525,111.919
湖南,衡阳市,38.171,69.075,16.35,28.979,0.755,59.945,-2.506,0.487,286.598,45.84,100545.247,26.781,112.565
湖南,邵阳市,40.249,68.831,13.69,18.947,0.627,65.971,-1.795,2.166,285.715,42.744,95666.753,26.893,110.881
湖南,郴州市,29.69,52.129,12.246,21.067,0.523,58.458,-1.864,-0.124,285.353,39.266,96449.057,25.769,113.109
湖南,长沙市,35.504,71.005,15.048,30.208,0.796,68.015,-3.267,3.272,285.787,48.738,100445.356,28.235,113.159
甘肃,临夏回族自治州,36.91,61.378,10.239,26.234,0.888,64.812,0.611,-0.943,278.31,32.188,77495.108,35.617,103.291
甘肃,兰州市,31.693,62.433,15.322,32.551,0.938,64.483,-0.79,0.418,279.452,32.231,79125.333,36.359,103.633
甘肃,嘉峪关市,17.803,64.423,27.277,25.347,0.417,72.577,2.758,0.215,281.883,11.808,81615.415,39.798,98.145
甘肃,天水市,48.828,90.126,17.822,28.934,0.7,58.826,-0.598,5.052,279.629,66.479,82820.048,34.645,105.739
甘肃,定西市,43.167,73.18,15.775,21.188,0.788,67.944,-1.657,1.68,277.179,62.859,77283.351,35.124,104.432
甘肃,平凉市,53.704,103.856,16.654,35.69,0.853,55.731,1.065,4.193,280.697,61.512,84690.307,35.304,106.644
甘肃,庆阳市,45.63,79.384,14.037,20.32,0.697,65.836,0.591,1.951,280.637,52.455,85981.259,36.149,107.596
甘肃,张掖市,7.83,20.935,2.986,4.79,0.232,81.517,2.18,1.326,275.625,24.748,74610.365,38.94,99.855
甘肃,武威市,18.557,34.545,5.934,9.034,0.43,69.835,-0.459,0.745,278.676,27.679,81418.182,38.163,103.073
甘肃,甘南藏族自治州,11.807,16.331,3.492,4.857,0.292,89.856,0.955,-1.832,271.506,53.591,67579.577,34.331,102.768
甘肃,白银市,38.438,74.202,19.497,22.616,0.817,64.05,-1.68,3.717,279.824,49.19,81540.855,36.59,104.646
甘肃,酒泉市,3.302,6.719,2.393,1.935,0.16,71.421,2.981,1.169,277.972,19.999,79042.047,40.236,96.062
甘肃,金昌市,25.386,59.101,10.709,14.404,0.497,76.414,0.694,1.272,279.194,23.204,80609.266,38.44,102.048
甘肃,陇南市,39.62,67.737,17.904,22.041,0.543,67.814,-0.779,5.027,279.18,67.79,82352.796,33.599,105.224
福建,三明市,24.063,35.13,9.899,14.406,0.478,66.417,-3.283,-0.877,282.676,49.892,95908.466,26.29,117.395
福建,南平市,25.099,35.271,8.746,10.916,0.431,71.803,-1.921,-0.169,282.636,43.332,96730.674,27.324,118.143
福建,厦门市,39.568,56.715,10.63,23.94,0.575,85.9,-5.738,-7.113,285.457,57.332,101249.973,24.642,118.11
福建,宁德市,42.302,52.541,10.195,14.188,0.511,89.667,-2.215,-1.149,280.887,56.093,96087.667,26.968,119.474
福建,泉州市,36.132,49.062,9.118,18.26,0.548,85.878,-4.474,-4.114,283.097,60.228,97376.96,25.201,118.249
福建,漳州市,36.605,53.063,9.88,20.902,0.566,85.219,-4.675,-4.098,284.571,54.493,98997.016,24.372,117.444
福建,福州市,40.442,49.517,7.643,17.403,0.568,97.414,-3.869,-3.907,282.567,64.763,98236.223,26.083,119.206
福建,莆田市,38.712,47.107,7.892,16.661,0.55,98.442,-4.682,-5.923,283.709,64.264,98978.089,25.445,118.864
福建,龙岩市,24.978,38.075,9.864,16.194,0.488,71.487,-2.719,-1.342,283.814,46.556,95850.855,25.256,116.739
西藏,山南市,13.913,16.386,1.051,1.297,0.183,97.805,3.659,1.882,271.967,65.173,66016.811,28.295,92.274
西藏,拉萨市,2.72,3.729,0.308,0.958,0.151,92.338,4.232,1.465,265.32,57.502,56263.774,30.043,91.093
西藏,日喀则市,2.788,3.281,0.286,0.365,0.119,95.638,6.086,-1.906,263.012,51.821,55113.038,29.483,86.493
西藏,昌都市,11.146,14.084,0.862,0.555,0.178,94.805,3.343,3.565,265.274,72.273,58925.502,30.753,97.044
西藏,林芝市,18.579,21.693,1.385,1.34,0.197,99.238,0.206,2.665,270.73,77.386,66334.933,29.184,95.25
西藏,玉树藏族自治州,1.234,1.48,0.116,0.382,0.134,96.306,0.774,-1.097,262.797,51.39,57172.156,34.196,94.317
西藏,那曲市,1.864,2.202,0.108,0.221,0.128,95.565,0.558,-1.281,262.201,51.823,55231.418,32.709,89.262
西藏,阿里地区,0.831,1.054,0.145,0.491,0.125,93.656,4.582,-3.194,260.159,49.374,54737.355,33.013,82.553
贵州,六盘水市,37.88,68.439,12.015,12.796,0.664,81.136,1.403,6.953,284.049,52.78,83379.792,26.106,104.896
贵州,安顺市,24.658,52.223,10.815,10.827,0.462,83.798,-0.7,7.914,285.164,41.568,88582.034,25.986,105.978
贵州,毕节市,39.725,71.099,12.978,13.658,0.57,87.835,3.57,8.037,284.687,51.156,83644.576,27.063,105.211
贵州,贵阳市,29.646,60.909,12.972,27.94,0.515,78.237,0.414,10.466,284.628,41.887,88571.377,26.845,106.71
贵州,遵义市,31.4,55.831,13.859,18.641,0.521,66.308,-3.004,8.068,284.962,49.047,90740.43,28.167,107.102
贵州,铜仁市,29.696,64.958,12.57,16.067,0.559,54.604,-1.644,5.18,284.964,46.775,93296.287,27.937,108.534
贵州,黔东南苗族侗族自治州,29.343,50.108,11.425,12.565,0.454,66.974,-0.539,5.236,285.547,42.504,93244.331,26.495,108.574
贵州,黔南布依族苗族自治州,28.654,48.173,9.734,13.369,0.401,75.996,-0.982,6.715,285.032,40.606,90892.648,26.0,107.265
贵州,黔西南布依族苗族自治州,21.413,46.298,9.924,7.627,0.64,74.808,-0.535,6.572,285.986,41.028,88981.182,25.256,105.467
辽宁,丹东市,39.995,52.42,14.205,17.47,0.845,75.467,1.858,-0.785,271.13,69.887,99216.136,40.554,124.376
辽宁,大连市,51.968,70.166,14.615,26.441,0.797,68.88,0.739,-2.412,273.98,58.713,101565.912,39.591,122.22
辽宁,抚顺市,48.906,63.558,14.976,19.923,0.829,81.477,3.783,0.798,267.494,69.413,97400.283,41.841,124.65
辽宁,朝阳市,45.07,60.428,21.191,19.523,0.853,66.841,0.834,-4.82,270.8,50.923,97058.528,41.545,120.053
辽宁,本溪市,43.742,58.298,14.772,19.154,0.891,80.704,3.061,0.228,268.1,71.911,96724.999,41.232,124.544
辽宁,沈阳市,54.377,65.684,15.372,22.156,0.694,73.845,3.078,-2.566,269.472,55.529,101856.462,42.081,123.159
辽宁,盘锦市,56.897,68.692,19.935,25.245,0.904,81.105,0.265,-2.865,271.282,51.963,102568.954,41.13,122.01
辽宁,营口市,52.408,71.09,16.33,24.902,0.907,77.009,0.502,-2.56,271.353,59.426,100161.868,40.395,122.478
辽宁,葫芦岛市,50.427,66.794,23.73,28.168,0.94,73.147,-0.582,-3.373,272.568,49.96,99900.96,40.66,120.215
辽宁,辽阳市,57.355,75.675,20.2,28.533,1.084,79.807,2.008,-1.502,270.161,60.918,100405.777,41.153,123.261
辽宁,铁岭市,56.614,70.43,15.645,23.669,0.83,72.66,3.22,-1.122,267.443,63.42,100150.852,42.653,124.158
辽宁,锦州市,52.143,58.083,20.466,21.623,0.716,78.746,1.034,-4.222,270.76,49.549,101715.243,41.502,121.659
辽宁,阜新市,44.044,48.672,12.032,13.202,0.509,75.582,3.827,-5.952,268.717,52.288,100148.05,42.289,121.968
辽宁,鞍山市,53.17,70.142,17.723,24.67,1.009,77.681,1.556,-2.544,271.005,60.964,100454.131,40.731,123.007
重庆,重庆城区,33.732,58.867,14.314,24.956,0.564,63.219,-4.429,5.941,289.122,41.707,95172.271,29.824,107.125
重庆,重庆郊县,36.015,55.11,14.087,10.178,0.491,62.073,-2.314,4.647,284.748,48.18,91542.533,30.334,108.755
陕西,咸阳市,116.08,170.855,16.71,50.596,1.146,49.693,1.527,0.159,284.206,53.569,91718.593,34.779,108.367
陕西,商洛市,61.12,86.463,12.034,13.419,0.708,66.484,1.066,2.095,282.359,63.587,89701.466,33.64,109.889
陕西,安康市,37.965,58.008,12.011,10.006,0.579,68.11,0.568,0.665,283.697,54.624,90247.791,32.735,108.932
陕西,宝鸡市,79.72,123.831,14.0,35.796,0.861,49.534,1.458,3.103,281.588,60.693,86585.122,34.386,107.193
陕西,延安市,53.908,88.745,21.251,37.189,1.175,58.056,1.784,1.452,282.015,44.461,87754.807,36.432,109.316
陕西,榆林市,37.556,79.867,21.737,41.994,1.184,51.078,-0.21,-0.703,280.806,30.08,88099.37,38.041,109.581
陕西,汉中市,42.317,66.062,13.161,17.475,0.627,55.551,-1.177,1.995,283.363,55.553,89260.957,33.088,107.098
陕西,渭南市,105.424,166.218,32.148,54.835,1.349,53.255,1.387,0.622,285.669,46.982,94085.429,34.919,109.855
陕西,西安市,101.222,148.022,14.481,45.142,1.067,56.028,1.815,2.535,284.019,52.295,90803.992,34.12,108.77
陕西,铜川市,89.918,131.619,20.864,43.154,1.103,55.074,3.059,0.802,283.409,52.417,89406.951,35.198,109.058
青海,保亭黎族苗族自治县,18.698,26.048,4.98,3.994,0.37,92.89,-5.97,-4.212,289.92,73.97,97698.264,18.566,109.618
青海,吐鲁番市,10.451,39.593,2.547,5.266,0.283,60.637,2.784,0.194,282.712,29.176,90051.863,42.386,89.851
青海,果洛藏族自治州,0.693,0.742,0.106,0.694,0.131,95.247,1.909,-1.602,264.552,58.371,59882.395,34.127,99.404
青海,海东市,18.55,26.583,8.269,10.949,0.538,74.015,1.234,-0.955,275.107,27.972,72779.539,36.347,102.34
青海,海北藏族自治州,3.461,4.655,2.002,2.026,0.173,91.299,2.3,-0.337,267.673,36.761,65309.605,37.775,100.288
青海,海南藏族自治州,2.178,2.706,0.961,1.098,0.157,91.945,3.039,-1.708,270.018,32.987,66490.67,35.89,100.272
青海,海西蒙古族藏族自治州,0.539,0.659,0.33,0.377,0.131,89.607,1.616,-0.17,268.27,29.298,64493.77,36.677,94.519
青海,西宁市,15.584,27.364,8.093,11.598,0.639,78.224,2.266,-1.33,272.196,29.753,69566.734,36.842,101.423
青海,黄南藏族自治州,3.74,4.449,1.576,1.594,0.18,93.759,2.41,-2.47,269.886,42.17,65782.165,35.022,101.631
香港,香港特别行政区,24.405,38.04,7.905,22.0,0.465,94.925,-6.755,-3.66,289.3,50.905,101711.675,22.45,114.22
黑龙江,七台河市,24.391,38.54,8.141,15.27,0.519,64.937,-3.429,-0.173,257.342,80.565,98910.935,45.87,130.943
黑龙江,伊春市,9.105,11.847,3.912,5.521,0.271,69.068,-1.833,-1.535,257.179,78.581,97442.928,47.772,129.184
黑龙江,佳木斯市,16.487,24.173,4.836,10.345,0.411,59.853,-0.261,-1.31,255.027,78.836,101210.089,47.207,132.11
黑龙江,双鸭山市,13.768,20.441,4.969,8.98,0.36,59.018,-0.182,-0.905,255.92,78.845,100733.319,46.722,132.643
黑龙江,哈尔滨市,25.633,31.514,9.237,13.458,0.454,76.236,-1.88,-1.858,260.33,85.377,99169.323,45.634,127.964
黑龙江,大兴安岭地区,5.759,6.721,3.031,2.122,0.209,65.908,3.649,1.335,257.771,74.019,95360.639,52.286,124.212
黑龙江,大庆市,36.593,47.518,10.837,15.473,0.592,94.676,0.477,-4.494,259.222,83.841,100795.835,46.327,124.687
黑龙江,牡丹江市,28.466,39.449,10.359,14.593,0.445,71.352,0.181,1.506,260.525,79.91,95759.649,44.592,129.883
黑龙江,绥化市,18.398,23.129,5.583,8.7,0.42,78.31,-2.179,-3.471,259.324,83.301,99873.98,46.89,126.634
黑龙江,鸡西市,18.705,26.386,6.505,10.994,0.409,58.766,-1.373,-1.812,256.571,80.983,100344.417,45.626,132.289
黑龙江,鹤岗市,12.782,18.545,4.194,8.079,0.451,63.615,0.806,-2.31,255.982,77.291,100157.361,47.661,130.778
黑龙江,黑河市,9.651,11.848,4.074,2.89,0.264,68.794,-0.03,-0.652,257.053,79.394,97923.45,49.268,127.004
黑龙江,齐齐哈尔市,38.985,47.966,10.074,10.889,0.506,73.245,-0.314,-3.416,256.885,81.075,100014.718,47.715,124.57
