province,city,PM2.5,PM10,SO2,NO2,CO,O3,U,V,TEMP,RH,PSFC,lat,lon
上海,上海市,54.0,69.064,10.31,46.976,0.624,85.981,-3.736,4.528,283.274,69.446,102565.859,31.173,121.42
云南,临沧市,53.218,76.725,7.384,13.306,0.989,91.922,3.322,2.988,289.367,55.298,84027.472,23.935,99.686
云南,丽江市,32.208,51.405,4.633,4.954,0.91,104.507,6.545,-0.148,280.75,52.591,74643.887,26.96,100.515
云南,保山市,56.0,78.02,7.309,13.21,0.751,94.701,3.659,0.788,287.101,52.706,81976.83,24.953,98.962
云南,大理白族自治州,38.971,61.226,5.564,6.661,0.817,103.748,5.3,0.853,283.735,55.966,78191.054,25.726,100.053
云南,德宏傣族景颇族自治州,70.716,94.433,8.963,21.188,0.739,93.848,1.626,0.438,290.131,47.287,86169.836,24.535,98.052
云南,怒江傈僳族自治州,33.788,48.596,3.664,1.718,0.511,108.51,3.871,0.46,277.662,73.469,72828.35,26.916,98.885
云南,文山壮族苗族自治州,41.719,60.399,8.37,5.49,0.597,97.422,2.554,6.411,286.974,55.619,86761.16,23.696,104.735
云南,昆明市,44.011,64.376,9.003,15.515,0.896,91.54,7.917,4.071,285.037,59.671,79311.868,25.384,102.863
云南,昭通市,55.326,73.535,13.857,8.704,0.719,95.024,-0.835,-1.544,283.888,61.86,84202.043,27.667,103.985
云南,普洱市,41.529,61.491,7.5,6.303,0.775,92.488,0.613,3.783,289.703,60.216,86145.089,23.159,100.718
云南,曲靖市,43.55,59.141,9.494,10.129,0.698,94.294,6.587,2.848,285.505,54.61,80067.028,25.737,103.929
云南,楚雄彝族自治州,44.374,65.398,6.56,8.543,1.025,84.234,5.327,3.873,286.446,56.973,81074.223,25.328,101.567
云南,玉溪市,38.698,67.66,7.845,7.792,0.827,98.337,2.855,4.57,287.514,58.199,83647.893,24.136,102.217
云南,红河哈尼族彝族自治州,46.05,70.515,8.656,6.124,0.646,106.882,0.707,4.233,287.344,55.081,85383.389,23.451,103.034
云南,西双版纳傣族自治州,45.091,58.357,8.041,8.785,0.717,73.236,-0.163,2.803,292.107,55.649,89147.533,21.939,100.912
云南,迪庆藏族自治州,22.701,37.421,3.795,1.596,0.485,107.906,5.961,0.762,273.109,68.648,67198.27,27.957,99.459
内蒙古,乌兰察布市,43.159,69.922,24.448,31.661,0.798,49.217,5.679,5.548,279.152,33.066,85710.055,41.691,112.44
内蒙古,乌海市,66.648,129.972,81.812,50.774,1.551,69.789,1.321,2.375,283.656,31.546,87530.211,39.396,106.856
内蒙古,兴安盟,17.312,22.372,7.288,6.073,0.311,54.949,0.916,3.051,262.793,65.192,94946.98,46.244,121.341
内蒙古,包头市,48.011,73.181,20.806,43.735,0.828,49.204,4.745,5.344,280.098,26.046,85667.902,41.549,110.276
内蒙古,呼伦贝尔市,11.783,14.167,6.933,6.211,0.236,56.116,0.961,4.339,259.828,78.859,93271.274,49.636,121.171
内蒙古,呼和浩特市,59.241,103.978,29.941,50.948,1.076,62.103,2.761,4.05,279.248,38.686,86196.999,40.578,111.513
内蒙古,巴彦淖尔市,26.693,42.887,12.22,17.999,0.48,52.244,4.445,4.232,281.266,24.243,87049.613,41.446,107.582
内蒙古,赤峰市,38.837,57.715,16.01,15.405,0.77,53.857,1.336,4.414,270.307,60.009,91952.869,43.226,118.892
内蒙古,通辽市,28.181,38.283,10.389,12.282,0.466,58.629,-0.484,3.471,267.173,58.293,98376.471,43.814,121.591
内蒙古,鄂尔多斯市,40.338,67.35,24.873,25.872,0.737,65.852,3.45,3.913,282.409,37.666,86889.302,39.407,108.63
内蒙古,锡林郭勒盟,23.98,33.178,14.051,9.179,0.494,49.17,2.857,5.751,273.986,47.894,88652.347,44.179,115.482
内蒙古,阿拉善盟,12.316,17.963,5.729,4.017,0.256,58.874,4.691,0.638,283.343,24.773,87320.018,40.473,102.467
北京,北京市,56.957,77.375,14.694,42.744,1.139,53.246,-1.3,2.184,274.911,52.868,98375.69,40.158,116.395
台湾,台湾省,12.007,14.462,4.063,13.12,0.212,87.821,-2.495,-1.385,286.268,60.059,93612.466,23.757,120.975
吉林,吉林市,37.813,46.41,10.757,15.944,0.683,90.885,1.321,1.68,262.306,78.721,97879.945,43.573,126.859
吉林,四平市,53.165,68.284,12.806,24.061,0.835,70.81,-1.389,2.664,266.105,67.012,100196.84,43.472,124.386
吉林,延边朝鲜族自治州,30.838,36.416,9.479,9.083,0.476,84.651,5.467,-1.39,261.697,73.616,94645.834,43.141,129.147
吉林,松原市,43.875,57.853,11.746,17.448,0.729,81.513,-0.929,2.89,263.279,74.132,100567.984,44.785,124.496
吉林,白城市,43.368,55.14,10.418,12.524,0.545,69.996,-0.718,3.59,264.68,63.964,100567.611,45.35,123.031
吉林,白山市,37.077,47.09,14.141,17.162,0.738,71.342,2.445,1.383,262.52,75.636,92743.867,42.063,127.256
吉林,辽源市,51.37,63.293,11.033,21.933,0.845,75.154,-0.417,2.343,265.53,72.526,98255.405,42.836,125.32
吉林,通化市,42.041,54.546,12.616,20.318,0.806,72.549,0.355,1.609,265.709,70.301,96405.047,41.939,125.927
吉林,长春市,45.839,58.562,12.984,22.801,0.866,87.742,-0.464,1.978,262.064,79.361,100157.931,44.268,125.611
四川,乐山市,48.311,66.566,12.948,13.757,0.568,84.866,-0.391,-1.03,285.953,62.431,89712.626,29.218,103.569
四川,内江市,48.808,79.039,10.861,24.187,0.675,72.344,-0.165,-3.076,290.023,47.786,96795.04,29.62,104.95
四川,凉山彝族自治州,34.896,45.532,8.558,7.075,0.807,95.15,2.586,0.481,279.053,57.878,74139.427,27.883,102.065
四川,南充市,45.754,78.584,12.476,30.911,0.719,63.828,-3.026,-0.738,289.41,47.436,96854.332,31.19,106.199
四川,宜宾市,60.528,79.597,14.642,20.812,0.69,80.596,0.063,-1.702,289.818,53.27,95174.681,28.573,104.621
四川,巴中市,39.656,63.374,12.305,20.686,0.648,64.086,-2.825,1.021,286.735,52.476,92614.759,32.033,107.031
四川,广元市,37.455,62.802,13.752,17.86,0.585,65.935,-1.77,0.807,285.961,55.082,91710.813,32.261,105.788
四川,广安市,46.877,79.949,13.644,38.474,0.77,59.096,-2.295,2.681,290.112,45.223,96856.991,30.43,106.628
四川,德阳市,44.86,83.379,10.397,30.072,0.642,69.823,-0.851,-1.418,286.878,55.639,93278.725,31.13,104.436
四川,成都市,44.937,81.518,12.093,29.789,0.62,79.396,-0.054,-1.682,287.213,57.718,93422.372,30.64,103.929
四川,攀枝花市,44.491,66.223,21.113,26.457,1.488,85.984,4.555,2.87,287.202,41.288,81488.237,26.791,101.734
四川,泸州市,60.073,81.89,13.656,19.922,0.668,70.391,0.785,-0.376,288.338,57.841,93557.856,28.424,105.675
四川,甘孜藏族自治州,11.903,14.544,1.264,1.459,0.205,93.002,1.047,0.793,266.801,73.667,61057.074,30.936,100.009
四川,眉山市,45.048,74.965,11.98,23.306,0.606,81.608,-0.608,-1.414,288.173,57.204,93875.958,29.912,103.766
四川,绵阳市,41.047,66.652,11.828,18.537,0.521,73.012,-0.686,-0.27,283.764,61.22,88073.693,31.86,104.704
四川,自贡市,57.319,81.475,12.441,25.753,0.721,75.272,-0.405,-1.846,290.462,49.403,96778.55,29.307,104.659
四川,资阳市,41.181,79.343,9.795,23.392,0.667,70.979,-0.666,-2.653,289.837,46.546,97042.327,30.102,105.149
四川,达州市,44.021,69.134,15.667,31.812,0.732,65.671,-2.288,2.712,288.187,48.356,94214.905,31.335,107.636
四川,遂宁市,43.164,84.047,10.711,28.743,0.723,66.799,-2.167,-2.249,289.706,46.503,97288.449,30.642,105.457
四川,阿坝藏族羌族自治州,9.029,12.089,2.479,2.167,0.183,94.293,0.771,0.118,270.398,63.578,65457.558,32.406,102.61
四川,雅安市,38.538,51.718,11.301,5.996,0.401,88.651,-0.143,-0.181,279.354,75.844,80127.379,29.932,102.689
天津,天津市,65.809,91.676,16.284,52.321,1.367,49.665,-4.598,0.269,276.049,64.431,102230.563,39.315,117.308
宁夏,中卫市,54.612,95.92,19.547,27.244,0.848,70.675,2.442,3.557,283.682,44.652,83508.077,37.018,105.509
宁夏,吴忠市,55.711,88.316,16.564,21.004,0.619,66.501,2.292,3.849,283.778,46.907,85058.096,37.454,106.577
宁夏,固原市,42.674,78.534,13.313,30.414,0.689,68.899,2.049,4.829,280.528,60.072,81005.098,35.905,106.183
宁夏,石嘴山市,68.909,123.531,67.016,49.041,1.317,68.346,3.081,1.209,284.441,29.765,86624.818,39.013,106.499
宁夏,银川市,65.984,114.931,30.821,45.881,0.839,60.975,3.087,1.981,285.058,36.522,86952.529,38.287,106.342
安徽,亳州市,52.412,95.732,13.921,40.278,0.799,76.698,-0.793,4.214,287.024,50.408,101953.825,33.44,116.162
安徽,六安市,32.903,54.099,8.768,19.566,0.514,82.381,-0.3,3.18,287.432,35.147,99447.054,31.617,116.209
安徽,合肥市,46.846,71.699,10.685,42.885,0.747,70.39,-2.071,3.539,286.853,45.682,101907.994,31.766,117.359
安徽,安庆市,43.511,68.233,9.965,27.456,0.586,76.863,0.25,1.697,285.958,45.514,99961.919,30.557,116.473
安徽,宣城市,38.841,58.355,7.134,24.455,0.587,68.942,-1.603,3.4,287.264,36.444,99923.928,30.676,118.846
安徽,宿州市,79.039,114.08,16.532,51.983,0.9,73.974,-1.24,4.897,286.502,48.659,101945.88,33.844,117.23
安徽,池州市,30.674,48.087,7.344,23.331,0.506,67.871,-0.597,2.202,287.333,41.127,100134.558,30.296,117.379
安徽,淮北市,62.879,104.292,18.517,54.185,0.858,67.871,-1.098,4.781,286.888,48.807,101971.194,33.722,116.747
安徽,淮南市,41.91,72.997,12.162,36.204,0.651,74.554,-2.682,4.139,286.856,47.265,102033.157,32.463,116.746
安徽,滁州市,67.284,101.302,12.773,56.109,0.849,72.035,-2.366,4.162,285.967,48.887,101831.246,32.55,118.076
安徽,芜湖市,54.411,72.38,10.939,41.295,0.82,66.162,-1.146,1.012,286.945,45.262,102110.278,31.167,118.162
安徽,蚌埠市,61.846,94.148,16.028,48.269,0.81,71.814,-1.769,4.749,286.613,47.587,102037.823,33.121,117.263
安徽,铜陵市,47.003,71.239,12.598,50.769,0.821,60.901,0.219,1.219,286.949,45.684,101957.148,30.883,117.531
安徽,阜阳市,45.117,88.883,11.601,32.017,0.724,78.359,-1.294,3.056,287.154,48.478,101922.953,32.937,115.723
安徽,马鞍山市,66.047,92.054,13.365,55.222,0.879,69.924,-2.509,1.747,286.208,48.804,102129.238,31.622,118.386
安徽,黄山市,23.672,42.471,7.641,17.494,0.505,63.961,-1.613,2.033,286.577,37.956,97919.041,29.869,118.09
山东,东营市,137.304,194.558,28.2,51.816,1.35,58.579,-2.377,2.2,281.948,62.64,102229.121,37.57,118.572
山东,临沂市,103.549,162.964,22.39,57.584,1.284,69.191,-1.062,2.771,284.284,58.852,100478.079,35.289,118.27
山东,威海市,52.971,83.991,10.28,23.62,0.885,80.025,-3.65,1.792,277.728,74.435,101871.953,37.148,122.028
山东,德州市,134.251,198.967,27.736,66.244,1.677,50.386,-1.236,0.99,282.203,60.032,102036.133,37.233,116.679
山东,日照市,114.836,160.247,18.423,51.86,1.164,72.867,-1.677,1.9,282.769,65.597,100622.56,35.566,119.108
山东,枣庄市,85.915,154.48,25.734,53.71,1.102,72.316,-1.34,4.46,286.058,52.836,101180.588,34.925,117.383
山东,泰安市,113.682,193.197,26.86,56.561,1.646,65.036,-1.69,3.818,285.158,58.949,100264.248,35.993,117.04
山东,济南市,149.487,228.907,31.779,73.438,1.975,51.892,-0.567,3.684,284.324,60.235,100221.884,36.639,117.254
山东,济宁市,79.617,154.318,24.389,46.926,1.282,76.087,-0.614,4.88,286.686,55.037,101560.401,35.375,116.697
山东,淄博市,160.125,226.026,29.873,73.041,2.04,57.237,0.007,3.807,283.578,62.122,99635.626,36.623,118.062
山东,滨州市,140.805,195.353,30.032,63.746,1.581,52.523,-1.663,1.527,281.831,62.74,102144.419,37.516,117.852
山东,潍坊市,134.068,191.712,21.004,51.601,1.465,67.469,-1.746,3.961,282.908,62.078,101162.584,36.53,119.092
山东,烟台市,75.739,122.973,12.619,34.574,1.125,72.792,-4.394,3.791,278.94,65.833,101249.973,37.25,120.789
山东,聊城市,157.999,236.828,26.257,62.588,1.835,53.581,-0.559,0.353,283.975,57.512,101794.079,36.458,115.863
山东,菏泽市,125.599,187.714,17.142,48.223,1.524,74.39,0.672,3.265,286.92,56.087,101677.666,35.134,115.69
山东,青岛市,87.056,130.311,12.666,36.293,1.06,78.232,-4.891,3.144,280.217,67.871,101831.427,36.46,120.172
山西,临汾市,115.23,173.533,47.496,40.733,1.786,81.718,-0.632,5.493,283.065,55.388,90284.381,36.227,111.398
山西,吕梁市,81.445,141.821,40.947,46.548,1.775,61.461,1.52,6.482,282.197,53.584,87781.706,37.663,111.27
山西,大同市,69.468,117.924,26.303,38.041,1.393,62.361,3.298,4.996,278.713,46.272,87244.862,39.911,113.713
山西,太原市,105.406,198.705,43.067,54.421,1.543,74.486,2.006,4.659,280.956,49.628,87699.661,37.967,112.321
山西,忻州市,78.31,134.675,28.901,41.993,1.124,69.93,2.213,5.747,279.875,48.112,86145.332,38.877,112.391
山西,晋中市,122.771,185.346,31.143,45.258,1.398,92.03,1.945,5.588,281.186,51.271,88696.277,37.328,112.997
山西,晋城市,170.078,228.071,25.7,40.917,1.805,92.708,-1.645,4.726,281.726,61.512,90782.348,35.625,112.752
山西,朔州市,74.415,137.087,36.1,41.247,1.192,67.005,4.327,6.414,280.429,43.655,86543.686,39.619,112.655
山西,运城市,128.82,180.686,27.602,31.94,1.481,94.295,-4.88,3.053,285.429,53.085,94481.709,35.205,111.071
山西,长治市,137.088,194.607,22.333,38.47,1.709,97.424,0.831,4.624,280.815,55.308,89063.822,36.48,112.915
山西,阳泉市,137.959,212.467,30.874,58.213,1.553,70.171,-0.599,1.657,279.074,54.201,90589.138,38.031,113.512
广东,东莞市,39.324,57.423,10.048,41.469,0.697,85.617,-5.638,0.649,290.859,55.489,101939.031,22.931,113.81
广东,中山市,26.702,41.238,11.126,28.801,0.488,87.911,-6.707,0.184,291.696,64.273,101913.561,22.5,113.383
广东,云浮市,41.7,55.524,9.293,24.368,0.635,81.877,-4.93,2.53,290.405,58.357,99825.863,22.776,111.818
广东,佛山市,45.2,71.499,12.611,60.237,0.801,80.023,-4.569,1.137,291.271,54.845,101962.442,23.035,112.979
广东,广州市,45.971,61.367,10.269,48.588,0.728,87.587,-4.998,1.161,290.55,49.827,101066.38,23.339,113.525
广东,惠州市,31.882,41.183,5.649,17.325,0.541,91.469,-5.215,-0.102,289.474,52.052,100094.445,23.244,114.485
广东,揭阳市,40.209,57.748,11.3,27.58,0.819,91.64,-5.435,-2.672,288.666,55.126,100765.643,23.323,116.123
广东,梅州市,34.737,46.876,7.369,25.225,0.72,79.96,-4.478,0.416,287.917,43.478,98683.013,24.169,116.07
广东,汕头市,26.388,39.726,9.594,21.025,0.588,101.405,-6.194,-4.055,289.319,62.655,101918.5,23.339,116.614
广东,汕尾市,33.599,46.377,6.947,16.835,0.597,93.233,-6.085,-2.559,288.976,58.839,100454.68,23.024,115.527
广东,江门市,25.2,34.907,6.889,19.447,0.428,89.763,-6.195,0.219,291.43,63.691,101316.224,22.289,112.676
广东,河源市,39.079,51.177,6.645,22.077,0.714,80.762,-3.639,0.21,288.271,46.083,98863.359,24.021,114.969
广东,深圳市,28.28,44.472,9.046,31.084,0.548,90.596,-7.176,-0.079,290.754,64.452,101440.91,22.667,114.143
广东,清远市,45.662,55.903,8.023,24.586,0.631,82.651,-2.437,2.306,289.019,43.537,98315.161,24.295,112.871
广东,湛江市,22.823,32.423,4.987,8.133,0.499,101.941,-6.933,1.161,292.775,69.315,101639.947,21.091,110.163
广东,潮州市,30.647,44.556,7.898,21.021,0.648,89.621,-6.314,-2.985,287.994,51.993,100208.921,23.755,116.754
广东,珠海市,13.252,18.558,4.218,7.497,0.263,104.278,-7.872,-0.31,292.193,66.663,101974.028,22.095,113.317
广东,肇庆市,50.925,68.094,11.13,42.307,0.769,76.907,-4.077,1.978,290.188,51.819,99962.985,23.505,112.199
广东,茂名市,28.883,39.322,6.485,11.444,0.529,92.298,-6.268,1.922,291.098,62.483,99855.564,22.013,110.952
广东,阳江市,26.825,33.567,5.023,12.193,0.425,89.252,-5.819,0.297,290.97,64.208,100428.171,22.042,111.786
广东,韶关市,42.28,60.871,10.197,27.809,0.82,76.084,-1.816,1.912,288.374,42.523,97525.263,24.785,113.819
广西,北海市,36.515,50.246,7.864,13.672,0.708,95.229,-5.351,2.568,292.702,65.746,101677.061,21.674,109.37
广西,南宁市,47.162,66.12,10.526,20.675,0.817,93.879,-2.253,4.424,291.535,59.511,99778.892,23.051,108.469
广西,崇左市,39.902,46.817,8.47,13.687,0.563,90.245,-1.923,3.693,290.783,63.952,98438.025,22.483,107.291
广西,来宾市,57.201,82.044,13.359,21.373,0.741,80.246,-3.085,4.696,290.819,46.394,98617.792,23.859,109.417
广西,柳州市,56.334,79.775,12.438,23.671,0.718,76.476,-1.097,5.085,290.127,42.541,97990.007,24.956,109.372
广西,桂林市,50.7,67.915,14.097,24.906,0.642,73.675,-0.634,4.285,288.964,39.514,96380.523,25.353,110.513
广西,梧州市,47.474,68.294,12.96,26.283,0.829,70.106,-4.271,2.873,290.533,47.387,99524.243,23.484,110.996
广西,河池市,45.247,65.714,10.657,16.073,0.629,80.813,-1.53,6.246,289.039,52.713,95548.99,24.628,107.843
广西,玉林市,39.326,56.959,11.208,14.882,0.698,90.334,-4.057,3.396,291.432,57.675,99898.828,22.452,110.164
广西,百色市,40.102,53.546,11.047,9.728,0.859,89.254,-1.487,6.087,289.315,51.118,93359.85,23.981,106.292
广西,贵港市,56.972,86.347,14.936,24.14,0.877,79.562,-3.22,2.346,291.648,47.085,100341.391,23.322,110.021
广西,贺州市,48.932,66.772,12.508,21.963,0.742,73.408,-2.858,3.791,289.275,42.003,97693.738,24.364,111.394
广西,钦州市,42.395,61.827,9.876,17.071,0.849,93.756,-3.833,3.65,292.179,64.624,100944.973,22.173,109.01
广西,防城港市,33.849,45.931,10.102,17.501,0.629,98.935,-3.626,4.072,290.882,76.77,99312.786,21.88,108.002
新疆,乌鲁木齐市,28.205,116.8,3.956,7.097,0.42,64.037,-0.455,3.282,281.05,29.662,83788.2,43.746,87.818
新疆,五家渠市,39.363,85.43,10.337,16.253,0.75,52.4,-2.457,0.87,284.77,33.937,95828.157,44.363,87.517
新疆,伊犁哈萨克自治州,5.814,12.957,2.568,3.411,0.291,64.334,1.089,2.036,277.828,45.486,80049.767,43.438,82.146
新疆,克孜勒苏柯尔克孜自治州,13.493,42.217,0.439,1.323,0.211,71.752,6.307,-0.712,273.731,46.606,70301.522,39.661,75.949
新疆,克拉玛依市,12.208,33.106,3.943,6.356,0.282,68.938,-1.197,-1.768,281.001,52.754,96713.317,45.457,85.207
新疆,北屯市,5.122,12.702,1.602,1.954,0.232,75.342,-4.21,5.46,276.638,75.192,94877.32,47.27,87.868
新疆,博尔塔拉蒙古自治州,8.689,15.069,3.556,3.495,0.297,61.864,3.693,3.825,279.613,51.262,85620.334,44.714,82.114
新疆,双河市,19.402,31.394,8.266,7.112,0.456,52.182,-0.186,-1.21,281.924,54.842,97180.66,44.87,82.474
新疆,可克达拉市,18.446,46.372,9.064,12.354,0.77,61.562,-2.332,0.908,285.318,41.778,94268.742,43.918,80.786
新疆,和田地区,7.052,21.67,0.825,1.32,0.208,77.463,2.743,1.124,276.671,26.01,73843.015,37.059,80.934
新疆,哈密市,5.696,30.266,1.275,2.144,0.216,62.298,2.349,2.595,282.312,29.499,87925.001,43.042,93.517
新疆,喀什地区,36.69,98.534,1.746,3.208,0.35,71.043,3.736,0.684,277.069,34.225,75960.263,38.125,77.178
新疆,图木舒克市,31.443,21.98,3.885,2.158,0.235,55.805,-1.718,0.017,284.565,32.632,88971.508,39.892,79.182
新疆,塔城地区,8.627,14.858,2.749,3.808,0.284,63.867,2.839,0.594,279.512,57.11,88923.064,45.642,84.789
新疆,巴音郭楞蒙古自治州,5.747,15.266,0.528,0.698,0.158,71.634,3.148,0.505,278.482,26.624,79007.996,39.463,87.481
新疆,新星市,17.67,114.335,2.985,11.85,0.535,64.995,-3.08,0.555,285.175,25.695,92381.22,42.75,93.68
新疆,昆玉市,33.827,105.26,3.923,7.637,0.547,68.847,1.767,-0.267,289.353,13.7,86658.657,37.457,79.093
新疆,昌吉回族自治州,15.004,43.679,3.143,5.028,0.308,65.228,-0.195,1.992,281.925,36.167,89295.526,44.342,88.608
新疆,石河子市,36.065,65.1,10.215,19.935,0.615,72.0,3.74,0.7,284.165,42.555,93967.51,44.245,86.035
新疆,胡杨河市,20.884,36.952,4.15,6.426,0.33,65.01,-3.328,-1.72,280.352,55.396,97182.284,44.852,84.772
新疆,铁门关市,71.877,167.53,1.973,4.683,0.467,66.22,3.03,-2.833,286.623,20.427,91365.987,41.773,85.66
新疆,阿克苏地区,41.939,39.574,1.989,3.038,0.275,64.26,0.39,-0.749,281.673,31.536,85045.307,40.965,81.578
新疆,阿勒泰地区,3.569,6.395,1.435,1.105,0.177,68.575,-2.996,5.306,276.617,64.132,87848.941,46.902,88.421
新疆,阿拉尔市,117.688,79.857,3.414,8.12,0.515,55.144,-1.853,-1.127,283.799,33.152,89845.111,40.629,80.998
江苏,南京市,68.241,103.52,13.976,55.822,0.88,71.587,-3.241,3.032,285.759,48.908,102208.173,31.899,118.876
江苏,南通市,74.48,99.486,17.339,53.695,0.883,74.615,-3.07,4.54,283.207,65.34,102517.752,32.201,120.979
江苏,宿迁市,90.492,124.431,16.269,58.558,0.957,79.918,-1.511,4.889,285.269,51.828,102278.417,33.765,118.495
江苏,常州市,82.373,115.778,14.833,62.227,1.006,79.099,-3.944,3.586,285.292,53.235,102310.539,31.613,119.666
江苏,徐州市,90.014,130.068,17.831,53.754,0.97,74.342,-0.661,5.028,286.219,50.002,101942.445,34.363,117.513
江苏,扬州市,105.869,149.604,21.097,68.884,1.205,73.928,-3.11,4.413,284.617,55.305,102405.818,32.709,119.486
江苏,无锡市,83.304,120.092,16.194,69.151,1.08,72.746,-4.035,4.074,284.725,56.774,102247.792,31.546,120.066
江苏,泰州市,109.047,148.01,19.979,68.986,1.253,72.87,-3.243,4.324,284.057,57.327,102407.594,32.605,120.048
江苏,淮安市,96.056,139.488,17.558,63.266,1.016,77.686,-2.101,4.785,284.89,52.901,102310.988,33.362,118.985
江苏,盐城市,100.174,136.009,16.912,52.853,0.95,86.574,-1.758,4.858,283.246,58.332,102444.653,33.529,120.156
江苏,苏州市,72.846,105.888,14.445,64.921,0.952,73.715,-3.945,4.232,283.963,62.356,102461.485,31.374,120.661
江苏,连云港市,84.184,125.526,18.249,56.63,0.936,78.966,-0.267,4.644,284.969,51.592,102170.552,34.519,119.133
江苏,镇江市,92.463,131.024,18.774,68.812,1.127,74.606,-3.729,3.804,284.912,54.587,102287.327,32.016,119.49
江西,上饶市,32.49,56.425,18.93,24.697,0.621,60.771,-1.636,1.085,287.861,40.379,99999.25,28.778,117.47
江西,九江市,34.967,63.316,9.606,21.388,0.564,69.56,-1.425,2.892,286.921,50.414,99889.664,29.313,115.444
江西,南昌市,41.572,81.075,17.195,43.445,0.763,49.372,-1.187,1.636,287.849,51.038,101835.481,28.671,116.016
江西,吉安市,41.434,66.254,17.62,20.438,0.741,59.518,-1.325,0.944,288.113,42.556,99514.819,26.954,114.831
江西,宜春市,47.542,81.559,21.909,35.009,0.838,52.808,-1.018,1.218,287.19,49.783,99862.805,28.29,114.974
江西,抚州市,31.793,45.571,13.655,16.408,0.486,63.33,-1.406,2.327,288.065,44.8,99555.39,27.514,116.42
江西,新余市,53.357,92.143,34.042,45.174,1.071,45.165,-1.012,0.933,287.367,50.503,100811.24,27.847,114.836
江西,景德镇市,29.612,53.515,11.6,20.811,0.516,61.538,-1.666,0.986,287.812,41.496,100840.455,29.287,117.24
江西,萍乡市,48.44,79.21,27.276,31.161,0.992,51.866,-2.786,1.919,287.608,45.598,98475.997,27.505,113.908
江西,赣州市,36.813,56.458,11.856,22.032,0.788,68.863,-1.515,1.816,287.905,44.88,97864.662,25.692,115.279
江西,鹰潭市,34.221,53.649,22.384,28.814,0.587,60.842,-1.272,2.422,288.612,39.73,100518.721,28.222,117.094
河北,保定市,57.656,84.276,12.976,38.211,0.858,66.472,-1.227,-0.187,277.072,53.829,98308.873,39.018,115.159
河北,唐山市,59.711,95.345,22.757,47.379,1.591,55.585,-4.453,0.629,275.027,63.422,101763.0,39.731,118.354
河北,廊坊市,64.164,88.97,14.138,51.35,1.112,48.432,-3.313,-0.038,277.165,56.617,102249.83,39.267,116.632
河北,张家口市,54.316,89.25,16.281,27.895,1.006,71.111,0.494,5.211,275.65,48.199,87704.698,40.877,115.042
河北,承德市,50.925,82.147,14.029,34.423,0.97,62.292,1.813,5.117,272.047,59.51,91236.459,41.339,117.578
河北,沧州市,78.474,111.741,16.392,45.345,1.022,59.389,-3.009,-0.422,278.92,62.228,102205.839,38.258,116.744
河北,石家庄市,95.357,143.926,16.537,42.518,1.18,64.134,-1.73,-0.544,278.696,54.755,98826.304,38.135,114.407
河北,秦皇岛市,35.394,59.99,17.192,32.235,0.863,67.463,-2.852,1.702,273.205,62.926,99412.992,40.12,119.193
河北,衡水市,93.364,137.118,15.865,43.94,1.162,60.366,-1.567,-0.265,280.37,55.706,102032.231,37.755,115.813
河北,邢台市,126.654,185.468,17.174,45.702,1.309,63.86,-0.495,0.349,281.697,53.625,100470.01,37.195,114.815
河北,邯郸市,158.728,218.514,19.051,48.033,1.657,63.648,-0.311,0.039,283.151,53.468,99978.553,36.538,114.596
河南,三门峡市,114.136,152.922,15.526,24.629,1.111,80.211,-2.889,3.205,284.29,59.04,92107.078,34.362,111.101
河南,信阳市,41.07,70.62,10.529,26.059,0.684,76.694,-0.809,4.583,288.226,38.656,100910.203,32.091,114.907
河南,南阳市,89.062,126.915,12.563,33.148,1.063,72.16,-2.293,3.513,287.111,55.442,98679.017,33.034,112.323
河南,周口市,71.883,132.324,14.012,41.699,0.952,73.976,-0.263,4.446,287.537,50.568,101647.034,33.738,114.884
河南,商丘市,85.18,132.052,14.98,46.387,1.032,77.577,0.324,4.567,287.193,52.923,101744.742,34.277,115.718
河南,安阳市,173.539,227.992,18.139,47.16,1.894,68.681,0.407,0.025,284.3,52.324,99572.848,35.888,114.318
河南,平顶山市,141.489,196.019,13.781,44.462,1.363,67.874,-1.277,2.254,286.514,56.664,99361.138,33.8,113.025
河南,开封市,159.121,197.589,13.427,43.793,1.451,74.451,-0.838,0.993,286.653,54.181,101349.884,34.594,114.514
河南,新乡市,178.603,227.497,17.209,49.588,1.799,73.333,-0.814,-1.322,286.063,49.445,100398.608,35.256,114.111
河南,洛阳市,147.161,198.368,15.856,33.333,1.426,74.305,-2.323,2.026,284.4,60.381,94586.916,34.274,112.019
河南,济源市,200.635,270.999,24.752,45.799,2.026,78.0,-3.797,0.611,284.214,55.402,96505.495,35.105,112.445
河南,漯河市,110.858,165.543,13.241,42.896,1.069,72.222,-0.642,3.686,287.792,52.142,101444.853,33.652,113.945
河南,濮阳市,172.597,233.283,18.531,50.482,1.826,62.749,-0.332,-0.303,285.272,55.306,101652.78,35.809,115.283
河南,焦作市,206.789,270.828,19.785,51.541,1.976,76.669,-3.102,0.152,286.542,48.466,100183.404,35.121,113.163
河南,许昌市,165.591,211.005,14.727,50.975,1.451,66.831,-1.66,0.654,286.345,55.897,100755.785,34.075,113.707
河南,郑州市,202.437,252.483,16.248,54.272,1.816,65.714,-3.113,0.878,285.592,52.261,99413.825,34.634,113.438
河南,驻马店市,64.049,111.897,11.966,40.044,0.942,69.547,-0.757,4.987,288.157,45.646,101153.727,32.925,114.174
河南,鹤壁市,182.976,240.341,19.429,49.968,2.06,63.819,0.932,-1.251,284.906,50.681,100776.02,35.716,114.319
浙江,丽水市,28.49,38.742,6.438,17.729,0.424,76.979,-2.061,3.175,283.992,43.062,95266.659,28.194,119.51
浙江,台州市,37.316,55.898,7.961,31.196,0.528,78.092,-1.027,2.822,283.608,55.733,99748.857,28.742,121.109
浙江,嘉兴市,66.471,90.804,10.358,52.276,0.837,77.763,-3.491,3.175,284.375,59.141,102475.511,30.635,120.754
浙江,宁波市,40.65,53.915,7.784,27.76,0.582,89.126,-2.105,4.082,284.341,55.791,101276.659,29.706,121.49
浙江,杭州市,44.296,70.385,9.662,36.752,0.7,66.974,-1.766,2.047,285.779,41.713,99420.616,29.891,119.464
浙江,温州市,38.847,55.342,8.072,31.022,0.495,77.967,-0.96,1.296,282.894,59.945,98522.432,27.897,120.411
浙江,湖州市,66.421,95.658,11.485,50.326,0.852,75.119,-2.903,3.729,285.96,45.238,101083.583,30.757,119.871
浙江,绍兴市,48.785,70.855,8.823,39.552,0.745,70.452,-1.795,3.893,285.566,42.074,100322.213,29.709,120.64
浙江,舟山市,16.27,17.742,2.698,5.282,0.272,103.648,-2.602,3.548,283.602,68.61,102378.248,30.038,122.23
浙江,衢州市,30.087,48.447,12.033,29.674,0.592,59.565,-1.699,0.935,286.961,39.244,98603.554,28.912,118.675
浙江,金华市,36.204,55.383,7.948,34.511,0.595,65.976,-2.281,3.934,285.557,39.234,98922.463,29.109,119.967
海南,万宁市,13.934,21.771,1.747,1.787,0.272,98.343,-5.731,-2.701,292.811,80.88,100533.924,18.842,110.294
海南,三亚市,14.811,22.811,2.281,4.864,0.393,88.503,-7.137,-1.927,292.63,74.509,99222.039,18.413,109.407
海南,东方市,16.983,22.489,2.705,2.617,0.275,91.196,-1.24,-0.294,293.096,66.389,99866.235,18.971,108.838
海南,临高县,20.404,30.974,3.819,7.151,0.369,81.516,-6.393,0.263,293.076,71.396,101124.867,19.821,109.733
海南,乐东黎族自治县,16.152,22.052,1.997,2.864,0.298,87.298,-3.585,-0.853,292.378,70.81,98319.498,18.659,109.072
海南,五指山市,16.97,23.382,1.902,2.512,0.294,88.704,-6.116,-0.358,289.826,81.254,95076.636,18.81,109.518
海南,儋州市,19.857,28.064,2.885,4.315,0.328,85.131,-5.699,0.742,293.054,70.944,100748.687,19.568,109.399
海南,定安县,16.85,27.465,2.207,4.883,0.355,83.832,-5.683,-0.467,292.895,74.317,100832.543,19.47,110.28
海南,屯昌县,17.57,27.074,2.214,4.328,0.336,86.158,-5.144,-0.112,292.172,76.94,100026.364,19.342,110.076
海南,文昌市,12.911,21.346,1.616,1.643,0.28,93.476,-6.804,-1.163,293.429,74.973,101640.675,19.707,110.773
海南,昌江黎族自治县,17.327,23.168,2.516,2.45,0.281,89.866,-3.922,-0.099,292.376,72.11,98834.439,19.233,109.016
海南,海口市,16.431,27.452,2.708,5.521,0.364,84.32,-6.563,-0.604,293.287,72.66,101432.272,19.842,110.393
海南,澄迈县,19.766,31.343,3.41,7.396,0.393,79.549,-5.923,0.069,292.964,72.34,100954.306,19.676,109.989
海南,琼中黎族苗族自治县,18.639,26.714,2.091,3.175,0.316,86.47,-4.843,-0.081,290.481,84.533,97793.301,19.087,109.847
海南,琼海市,13.713,21.977,1.642,2.088,0.283,94.633,-5.557,-1.435,293.402,75.993,101394.992,19.22,110.43
海南,白沙黎族自治县,18.191,24.655,2.14,2.301,0.295,88.095,-5.188,0.985,290.996,78.709,97479.142,19.2,109.388
海南,陵水黎族自治县,14.913,22.543,1.731,2.596,0.316,93.05,-5.643,-3.394,292.421,80.131,99826.124,18.581,109.913
湖北,仙桃市,42.789,68.814,10.542,31.192,0.799,68.113,-1.623,3.703,288.715,46.239,101878.546,30.284,113.417
湖北,十堰市,54.758,78.33,11.914,16.143,0.733,76.23,-1.768,0.143,286.07,58.301,93662.237,32.462,110.476
湖北,咸宁市,34.588,54.902,8.559,18.915,0.733,79.35,-0.672,4.521,288.541,41.592,100011.284,29.621,114.178
湖北,天门市,50.329,84.287,14.691,43.0,0.945,60.049,-2.388,3.549,287.95,51.482,101816.81,30.633,113.053
湖北,孝感市,44.542,82.349,14.174,49.112,0.969,56.597,-3.628,4.172,287.25,49.155,101259.582,31.116,113.869
湖北,宜昌市,52.568,76.886,13.166,24.635,0.82,64.986,-0.387,2.376,285.977,54.494,94572.415,30.746,111.129
湖北,恩施土家族苗族自治州,39.594,55.207,11.711,7.778,0.618,69.704,-0.263,2.941,283.872,59.022,89967.487,30.195,109.552
湖北,武汉市,44.154,80.156,16.992,52.146,1.014,59.457,-3.996,3.169,287.535,47.536,101827.377,30.606,114.349
湖北,潜江市,45.212,81.479,14.3,36.921,0.892,58.634,-1.683,4.83,288.709,46.926,101802.036,30.33,112.77
湖北,神农架林区,34.087,43.298,8.273,4.127,0.423,86.545,1.548,4.565,280.5,64.53,83281.328,31.592,110.49
湖北,荆州市,42.509,77.314,14.734,32.326,0.879,60.79,-0.814,4.738,289.03,48.062,101550.275,30.01,112.512
湖北,荆门市,51.879,86.349,18.237,40.71,0.942,64.604,-2.183,4.492,287.678,52.923,100750.525,31.059,112.616
湖北,襄阳市,54.022,78.658,14.389,25.075,0.807,74.588,-1.138,5.409,287.565,51.457,97888.265,31.919,111.96
湖北,鄂州市,41.889,72.301,23.299,46.697,1.071,68.451,-4.401,3.171,287.39,51.029,101900.764,30.337,114.794
湖北,随州市,43.458,77.364,13.09,37.524,0.946,68.565,-2.762,5.457,287.148,50.348,100078.566,31.809,113.43
湖北,黄冈市,37.732,63.551,14.422,27.033,0.756,71.901,-3.746,3.196,286.536,44.856,100169.942,30.702,115.358
湖北,黄石市,35.648,63.248,14.689,28.307,0.82,76.907,-3.405,3.557,287.488,49.136,100903.702,29.925,115.034
湖南,娄底市,40.546,75.418,17.289,34.887,0.979,41.349,-0.512,2.656,287.726,50.727,97785.289,27.715,111.632
湖南,岳阳市,38.728,64.572,13.644,28.35,0.68,60.703,-1.26,5.157,288.533,46.853,100712.188,29.081,113.275
湖南,常德市,34.251,61.699,13.063,18.461,0.805,61.233,0.715,3.537,288.636,51.061,99813.441,29.271,111.524
湖南,张家界市,37.01,60.707,11.024,10.503,0.756,59.409,1.078,1.78,286.694,58.705,95811.312,29.379,110.526
湖南,怀化市,46.435,75.678,12.73,22.75,0.775,53.24,-0.371,3.48,288.158,48.851,96801.288,27.535,110.071
湖南,株洲市,44.763,72.946,18.151,28.184,0.848,51.779,-2.848,1.622,288.175,42.133,98589.412,27.109,113.513
湖南,永州市,43.564,64.32,13.672,22.787,0.589,58.952,-0.049,3.674,289.457,36.142,97127.892,25.748,111.723
湖南,湘潭市,39.954,75.695,19.146,41.254,0.956,43.223,-1.692,2.055,288.534,50.527,100847.46,27.744,112.619
湖南,湘西土家族苗族自治州,42.786,72.792,12.123,18.874,0.758,41.985,-0.627,1.944,286.263,60.206,95756.476,28.708,109.718
湖南,益阳市,32.16,63.259,13.729,25.896,0.842,55.35,0.146,4.467,288.063,51.296,99361.896,28.525,111.919
湖南,衡阳市,53.044,84.804,18.518,41.937,0.953,33.76,-2.192,1.515,289.697,41.513,100349.088,26.781,112.565
湖南,邵阳市,53.475,77.741,15.833,26.845,0.771,53.275,-0.664,2.684,287.826,44.897,95516.351,26.893,110.881
湖南,郴州市,36.88,63.181,12.058,28.781,0.657,55.596,-0.861,2.935,288.659,34.95,96330.412,25.769,113.109
湖南,长沙市,42.04,75.973,22.238,40.597,0.857,48.853,-1.862,3.228,287.906,50.202,100261.782,28.235,113.159
甘肃,临夏回族自治州,33.136,55.057,7.071,18.701,0.783,73.928,0.821,1.232,281.199,26.546,77460.108,35.617,103.291
甘肃,兰州市,37.076,74.425,18.013,34.298,1.082,64.707,0.558,0.378,281.926,31.496,79069.906,36.359,103.633
甘肃,嘉峪关市,18.067,68.508,14.645,17.195,0.363,71.785,3.952,-1.103,282.657,12.663,81594.467,39.798,98.145
甘肃,天水市,41.641,72.564,12.418,18.417,0.595,69.982,0.088,5.288,281.28,59.027,82768.46,34.645,105.739
甘肃,定西市,39.603,64.908,9.318,16.224,0.676,79.688,0.025,2.773,279.623,50.296,77272.771,35.124,104.432
甘肃,平凉市,50.769,94.014,12.963,28.251,0.774,68.844,0.584,5.236,282.354,57.378,84597.924,35.304,106.644
甘肃,庆阳市,49.018,84.735,14.73,21.063,0.691,74.937,0.792,5.075,282.425,58.928,85867.73,36.149,107.596
甘肃,张掖市,6.534,20.586,2.713,5.023,0.235,77.129,3.074,0.71,276.928,20.846,74629.072,38.94,99.855
甘肃,武威市,20.451,36.672,8.014,9.563,0.521,70.253,2.045,-0.302,281.488,24.875,81332.17,38.163,103.073
甘肃,甘南藏族自治州,7.705,10.03,1.685,3.563,0.226,94.795,1.842,0.219,273.068,39.995,67673.091,34.331,102.768
甘肃,白银市,46.762,85.232,19.53,27.031,0.968,70.284,-0.215,3.433,282.086,46.068,81462.975,36.59,104.646
甘肃,酒泉市,2.481,5.087,1.012,1.141,0.149,67.439,5.169,0.482,278.984,20.546,79008.522,40.236,96.062
甘肃,金昌市,21.203,47.229,10.361,12.732,0.514,75.549,3.159,-0.546,282.361,16.332,80555.29,38.44,102.048
甘肃,陇南市,35.319,57.334,12.992,13.194,0.47,75.954,0.102,3.634,280.532,64.706,82352.82,33.599,105.224
福建,三明市,21.825,29.966,7.247,16.355,0.475,66.85,-2.978,0.985,285.437,46.277,95850.449,26.29,117.395
福建,南平市,25.259,33.884,9.714,13.338,0.405,70.684,-1.852,1.797,285.442,45.041,96661.056,27.324,118.143
福建,厦门市,23.138,42.702,10.495,27.118,0.505,75.827,-4.95,-5.75,287.132,63.175,101197.753,24.642,118.11
福建,宁德市,23.735,30.768,4.251,8.429,0.35,85.648,-2.171,0.057,282.829,60.252,96064.829,26.968,119.474
福建,泉州市,21.57,36.048,6.574,17.876,0.47,78.8,-4.12,-3.145,284.898,61.905,97343.403,25.201,118.249
福建,漳州市,25.736,41.184,7.916,21.816,0.501,82.411,-4.402,-3.012,286.243,58.111,98960.975,24.372,117.444
福建,福州市,21.024,31.936,5.169,16.502,0.437,83.559,-3.561,-3.274,284.291,71.932,98193.26,26.083,119.206
福建,莆田市,20.327,32.441,5.786,15.538,0.459,84.836,-4.181,-5.214,285.472,70.942,98929.088,25.445,118.864
福建,龙岩市,26.283,36.827,8.057,18.342,0.512,78.483,-2.625,0.75,286.317,45.351,95810.058,25.256,116.739
西藏,山南市,16.146,18.667,1.183,1.313,0.199,98.79,2.109,0.663,271.639,70.906,66058.407,28.295,92.274
西藏,拉萨市,2.442,3.606,0.164,1.113,0.149,95.95,0.944,-0.357,264.989,64.705,56355.361,30.043,91.093
西藏,日喀则市,1.541,1.925,0.197,0.379,0.126,96.39,3.968,-2.071,263.602,52.221,55152.156,29.483,86.493
西藏,昌都市,13.63,15.855,0.973,0.537,0.177,97.092,2.405,1.975,264.913,71.719,58963.462,30.753,97.044
西藏,林芝市,18.985,21.779,1.356,1.246,0.203,100.807,-0.942,0.191,270.158,75.785,66368.204,29.184,95.25
西藏,玉树藏族自治州,3.123,3.703,0.261,0.486,0.139,94.051,0.698,0.12,263.098,58.67,57197.086,34.196,94.317
西藏,那曲市,2.707,3.172,0.128,0.207,0.137,97.832,1.225,-2.411,262.186,50.098,55313.752,32.709,89.262
西藏,阿里地区,0.357,0.452,0.044,0.614,0.132,93.431,2.235,-2.331,261.069,40.494,54793.652,33.013,82.553
贵州,六盘水市,44.795,70.029,12.317,12.304,0.681,89.614,-0.356,3.942,284.98,56.393,83283.27,26.106,104.896
贵州,安顺市,35.91,58.517,10.072,7.782,0.49,99.538,-1.355,6.201,286.48,50.78,88442.491,25.986,105.978
贵州,毕节市,56.406,80.653,10.995,12.629,0.668,94.346,0.26,1.509,283.97,61.491,83656.46,27.063,105.211
贵州,贵阳市,44.025,72.931,12.805,23.407,0.601,102.338,0.933,6.186,285.997,51.91,88494.465,26.845,106.71
贵州,遵义市,41.492,59.661,12.246,13.305,0.557,76.78,-1.409,3.516,285.866,57.016,90705.472,28.167,107.102
贵州,铜仁市,36.615,62.776,13.039,11.502,0.573,60.187,-1.43,3.503,286.576,55.165,93174.561,27.937,108.534
贵州,黔东南苗族侗族自治州,43.068,58.717,13.955,9.977,0.508,77.952,-0.192,6.592,287.584,49.063,93094.039,26.495,108.574
贵州,黔南布依族苗族自治州,39.798,55.216,9.459,8.85,0.445,95.141,-0.698,6.775,286.746,52.648,90739.03,26.0,107.265
贵州,黔西南布依族苗族自治州,27.926,51.58,8.691,6.554,0.654,87.637,-1.27,6.132,287.87,49.338,88799.858,25.256,105.467
辽宁,丹东市,31.832,46.932,14.322,19.362,0.731,64.721,-0.064,-0.148,271.149,52.044,99490.392,40.554,124.376
辽宁,大连市,35.059,52.758,11.846,22.265,0.741,68.513,-3.949,1.492,274.033,54.096,101765.51,39.591,122.22
辽宁,抚顺市,40.644,54.583,11.356,18.166,0.663,66.259,0.042,1.921,268.503,58.818,97611.836,41.841,124.65
辽宁,朝阳市,45.085,67.92,21.191,25.14,0.927,61.656,0.328,5.879,271.75,57.151,96937.948,41.545,120.053
辽宁,本溪市,36.866,52.464,14.688,22.909,0.806,63.07,0.398,1.117,269.006,57.869,96947.368,41.232,124.544
辽宁,沈阳市,57.239,82.591,25.538,44.06,0.966,52.957,-0.449,1.54,270.687,52.371,101931.036,42.081,123.159
辽宁,盘锦市,47.667,66.661,23.003,40.839,1.175,57.331,-0.251,1.426,272.927,48.472,102596.037,41.13,122.01
辽宁,营口市,41.809,63.576,15.891,33.486,1.233,58.217,-1.794,2.14,273.132,48.028,100279.459,40.395,122.478
辽宁,葫芦岛市,41.426,63.048,27.908,31.601,0.966,62.307,-0.572,3.052,272.372,59.257,99900.55,40.66,120.215
辽宁,辽阳市,45.677,68.273,21.478,38.843,1.151,56.057,0.016,1.996,271.989,51.856,100513.983,41.153,123.261
辽宁,铁岭市,51.144,70.216,15.094,29.121,0.766,60.137,-1.033,2.483,268.628,59.012,100308.579,42.653,124.158
辽宁,锦州市,45.107,62.756,26.457,33.786,0.909,57.933,-0.161,2.307,271.821,51.439,101713.342,41.502,121.659
辽宁,阜新市,34.338,49.295,15.783,21.833,0.621,62.222,0.221,3.003,270.12,52.141,100118.356,42.289,121.968
辽宁,鞍山市,40.045,61.965,17.273,33.876,1.092,59.081,-0.318,1.313,272.327,49.937,100602.034,40.731,123.007
重庆,重庆城区,43.235,67.048,14.548,27.822,0.666,60.118,-1.642,3.313,288.53,51.432,95218.093,29.824,107.125
重庆,重庆郊县,37.507,52.863,13.842,9.848,0.511,70.733,-1.32,3.136,285.521,56.183,91473.416,30.334,108.755
陕西,咸阳市,121.991,182.196,15.981,51.238,1.292,68.098,-2.661,0.885,285.509,54.289,91619.732,34.779,108.367
陕西,商洛市,58.549,90.248,12.97,12.6,0.717,76.632,-1.421,2.693,283.33,67.205,89653.262,33.64,109.889
陕西,安康市,40.987,61.849,13.096,9.871,0.596,77.489,-1.185,1.427,284.701,59.25,90173.406,32.735,108.932
陕西,宝鸡市,67.105,107.31,11.792,29.25,0.835,69.845,-0.01,3.795,283.037,56.939,86503.293,34.386,107.193
陕西,延安市,59.877,101.369,23.179,32.214,1.202,71.942,1.767,5.758,282.969,57.325,87666.112,36.432,109.316
陕西,榆林市,56.513,95.462,26.316,42.104,1.426,61.996,2.399,5.901,283.142,50.952,87901.438,38.041,109.581
陕西,汉中市,41.767,63.174,12.541,13.714,0.674,67.897,-1.351,1.716,284.137,58.369,89211.531,33.088,107.098
陕西,渭南市,113.97,185.003,22.343,40.083,1.381,73.4,-2.34,0.172,286.617,51.665,94014.803,34.919,109.855
陕西,西安市,97.947,150.235,14.004,34.71,1.105,76.967,-0.123,3.068,285.622,54.31,90703.49,34.12,108.77
陕西,铜川市,101.324,155.384,19.511,41.872,1.263,68.152,-1.509,2.517,283.752,57.112,89350.702,35.198,109.058
青海,保亭黎族苗族自治县,16.148,23.832,2.066,4.426,0.364,87.422,-5.988,-2.324,291.074,81.244,97631.078,18.566,109.618
青海,吐鲁番市,18.501,81.055,2.476,5.781,0.303,58.548,3.213,0.721,284.37,24.566,89923.007,42.386,89.851
青海,果洛藏族自治州,1.921,2.149,0.229,0.873,0.139,99.484,0.505,1.072,265.018,52.417,59961.224,34.127,99.404
青海,海东市,13.795,22.908,5.933,9.473,0.498,76.708,2.32,-0.814,277.59,21.457,72781.803,36.347,102.34
青海,海北藏族自治州,1.412,2.076,0.81,1.071,0.149,86.502,1.867,-0.632,269.596,29.7,65361.088,37.775,100.288
青海,海南藏族自治州,0.904,1.116,0.439,0.756,0.137,93.052,2.378,-0.323,271.725,23.079,66541.131,35.89,100.272
青海,海西蒙古族藏族自治州,0.609,0.72,0.324,0.355,0.13,88.856,1.338,-0.371,269.21,29.859,64525.116,36.677,94.519
青海,西宁市,8.991,17.731,4.852,8.359,0.505,80.191,2.542,-1.699,274.559,23.299,69586.947,36.842,101.423
青海,黄南藏族自治州,1.108,1.322,0.37,0.891,0.141,95.584,2.656,-0.656,271.511,24.593,65862.555,35.022,101.631
香港,香港特别行政区,16.32,23.095,4.305,13.83,0.305,103.64,-8.61,-1.195,291.415,70.49,101618.025,22.45,114.22
黑龙江,七台河市,30.75,42.296,8.204,16.507,0.568,74.748,4.896,-0.772,258.146,82.09,99052.07,45.87,130.943
黑龙江,伊春市,14.063,18.662,5.336,6.366,0.304,74.845,3.727,1.236,259.021,74.893,97390.284,47.772,129.184
黑龙江,佳木斯市,19.843,26.623,5.579,10.988,0.407,64.832,3.547,1.45,257.054,80.5,101115.594,47.207,132.11
黑龙江,双鸭山市,20.359,26.604,6.644,11.591,0.395,63.184,3.75,0.343,257.322,79.886,100659.286,46.722,132.643
黑龙江,哈尔滨市,37.482,42.139,11.717,14.782,0.532,86.083,1.316,2.278,258.752,83.025,99492.814,45.634,127.964
黑龙江,大兴安岭地区,6.84,7.709,4.276,2.494,0.193,56.66,3.861,3.533,260.445,76.169,94752.242,52.286,124.212
黑龙江,大庆市,43.536,52.599,12.369,17.288,0.665,93.255,-0.126,3.106,261.257,78.414,100777.527,46.327,124.687
黑龙江,牡丹江市,25.197,31.957,6.08,9.14,0.409,78.937,4.044,-1.145,259.507,78.538,96061.215,44.592,129.883
黑龙江,绥化市,29.336,36.108,11.632,14.544,0.591,92.902,0.211,2.685,258.347,83.721,99968.549,46.89,126.634
黑龙江,鸡西市,26.406,32.637,7.537,14.466,0.479,60.028,3.6,-1.93,258.632,82.477,100387.594,45.626,132.289
黑龙江,鹤岗市,13.695,19.796,5.172,8.556,0.376,70.778,4.139,-0.035,259.46,73.288,100009.932,47.661,130.778
黑龙江,黑河市,25.093,33.444,10.184,6.457,0.398,69.24,3.331,4.134,258.107,80.165,97636.391,49.268,127.004
黑龙江,齐齐哈尔市,45.042,53.802,12.87,13.474,0.593,71.422,0.315,3.236,259.072,78.989,99799.815,47.715,124.57
