province,city,PM2.5,PM10,SO2,NO2,CO,O3,U,V,TEMP,RH,PSFC,lat,lon
上海,上海市,15.128,27.13,5.59,20.355,0.398,77.446,-7.738,-0.122,280.606,87.19,101759.607,31.173,121.42
云南,临沧市,38.664,58.964,4.79,8.479,0.669,89.101,6.16,-0.347,289.47,50.207,83735.181,23.935,99.686
云南,丽江市,17.016,27.183,3.239,3.521,0.715,78.035,8.632,-1.046,282.684,52.485,74248.28,26.96,100.515
云南,保山市,39.514,65.102,5.435,10.812,0.501,75.648,6.054,-0.846,286.822,59.797,81701.678,24.953,98.962
云南,大理白族自治州,26.357,40.443,3.993,5.3,0.663,79.536,8.366,-0.548,284.432,57.71,77844.944,25.726,100.053
云南,德宏傣族景颇族自治州,51.991,92.905,6.023,13.023,0.472,79.472,3.514,-0.858,289.715,57.987,85925.785,24.535,98.052
云南,怒江傈僳族自治州,22.967,29.987,2.507,1.67,0.407,77.187,4.779,-0.294,277.94,88.305,72561.201,26.916,98.885
云南,文山壮族苗族自治州,34.156,45.703,5.596,5.455,0.479,88.776,8.546,3.552,292.607,41.671,86145.223,23.696,104.735
云南,昆明市,25.065,39.0,6.434,11.931,0.577,77.876,11.276,2.439,286.922,44.756,78869.883,25.384,102.863
云南,昭通市,57.993,87.329,12.264,10.153,0.749,86.779,0.213,-0.267,285.785,55.933,83577.419,27.667,103.985
云南,普洱市,35.134,53.012,4.037,9.799,0.549,84.389,5.313,-0.068,291.502,43.586,85782.537,23.159,100.718
云南,曲靖市,23.838,36.459,7.405,9.906,0.428,73.375,9.679,2.073,287.857,40.87,79560.041,25.737,103.929
云南,楚雄彝族自治州,25.295,37.938,4.244,7.06,0.632,80.666,9.219,1.921,287.893,45.337,80653.601,25.328,101.567
云南,玉溪市,27.467,43.761,4.376,6.788,0.517,89.177,8.164,0.58,289.973,43.629,83217.874,24.136,102.217
云南,红河哈尼族彝族自治州,33.529,47.673,4.715,5.943,0.454,99.069,7.404,1.123,291.597,39.653,84891.317,23.451,103.034
云南,西双版纳傣族自治州,57.544,89.564,4.764,23.1,0.739,81.64,3.7,0.448,294.172,35.38,88768.179,21.939,100.912
云南,迪庆藏族自治州,12.139,18.091,2.085,1.182,0.396,80.455,7.384,0.156,274.945,75.802,66932.698,27.957,99.459
内蒙古,乌兰察布市,20.117,31.659,13.334,16.01,0.454,48.654,9.604,3.471,274.866,47.577,84654.316,41.691,112.44
内蒙古,乌海市,60.27,133.025,78.36,40.212,1.348,63.82,5.61,0.976,280.732,32.796,86681.394,39.396,106.856
内蒙古,兴安盟,9.738,13.452,5.742,3.721,0.27,55.127,2.944,0.472,259.262,56.48,93582.63,46.244,121.341
内蒙古,包头市,20.629,32.607,10.735,17.779,0.527,48.0,9.166,3.21,275.979,45.12,84659.541,41.549,110.276
内蒙古,呼伦贝尔市,13.185,16.691,6.792,5.044,0.292,49.906,0.388,-0.116,252.565,77.024,92199.562,49.636,121.171
内蒙古,呼和浩特市,37.364,68.578,24.914,37.409,0.911,50.109,6.125,4.557,275.58,44.87,85196.595,40.578,111.513
内蒙古,巴彦淖尔市,8.511,14.358,3.366,3.141,0.226,49.921,8.846,2.804,277.484,42.61,86091.075,41.446,107.582
内蒙古,赤峰市,22.842,44.896,12.933,10.734,0.484,48.649,4.527,3.01,269.204,50.711,90650.481,43.226,118.892
内蒙古,通辽市,21.9,38.594,11.095,10.115,0.443,54.25,2.194,2.796,267.098,46.674,96936.313,43.814,121.591
内蒙古,鄂尔多斯市,25.267,52.578,22.944,20.55,0.598,53.493,7.085,2.602,279.281,37.555,86004.313,39.407,108.63
内蒙古,锡林郭勒盟,5.298,12.377,6.52,2.817,0.241,47.295,5.39,2.786,268.98,59.06,87527.359,44.179,115.482
内蒙古,阿拉善盟,10.67,17.16,2.29,2.088,0.208,52.385,6.49,0.846,279.764,37.149,86458.161,40.473,102.467
北京,北京市,67.799,99.464,20.613,45.847,1.061,49.952,-0.241,4.447,275.9,32.909,97056.634,40.158,116.395
台湾,台湾省,29.958,34.767,6.509,17.02,0.305,70.855,0.258,0.834,291.971,71.865,92938.71,23.757,120.975
吉林,吉林市,26.283,49.128,13.361,14.087,0.583,74.825,4.598,5.692,262.847,70.349,96495.575,43.573,126.859
吉林,四平市,30.563,55.236,16.64,20.441,0.599,63.894,3.755,6.602,266.125,56.345,98741.06,43.472,124.386
吉林,延边朝鲜族自治州,19.21,33.664,9.103,8.555,0.419,68.321,7.987,1.467,261.88,65.093,93355.133,43.141,129.147
吉林,松原市,29.524,50.751,12.405,13.853,0.594,58.813,2.44,2.136,264.185,52.612,99007.486,44.785,124.496
吉林,白城市,22.724,34.764,9.011,8.024,0.376,55.674,2.27,0.771,263.644,43.045,99073.764,45.35,123.031
吉林,白山市,21.483,32.304,14.62,12.453,0.538,60.606,5.571,5.846,261.157,70.029,91599.286,42.063,127.256
吉林,辽源市,29.077,46.494,12.31,16.702,0.579,69.69,5.18,7.727,265.174,60.784,96910.441,42.836,125.32
吉林,通化市,27.532,43.097,15.258,15.795,0.647,65.781,2.944,7.156,263.594,66.97,95231.264,41.939,125.927
吉林,长春市,30.922,62.333,14.887,19.035,0.716,71.87,3.933,4.631,263.817,63.86,98630.908,44.268,125.611
四川,乐山市,75.651,100.931,12.463,23.575,0.843,80.35,-1.295,-0.507,286.797,59.734,89029.887,29.218,103.569
四川,内江市,72.042,103.312,11.375,33.126,0.975,77.622,-3.509,-2.095,290.24,60.009,96064.191,29.62,104.95
四川,凉山彝族自治州,23.039,33.054,7.241,7.134,0.634,75.241,3.666,1.62,282.211,46.659,73679.274,27.883,102.065
四川,南充市,34.438,55.082,10.858,22.886,0.816,64.37,-3.286,-1.018,287.342,62.673,96175.291,31.19,106.199
四川,宜宾市,83.803,117.139,16.796,29.697,0.97,86.845,-0.487,-1.555,290.693,51.769,94409.366,28.573,104.621
四川,巴中市,29.112,44.755,11.959,15.73,0.704,58.789,-2.553,-0.064,283.965,64.838,91935.251,32.033,107.031
四川,广元市,28.42,45.77,13.384,16.209,0.669,65.425,-0.968,0.656,284.008,65.242,91035.762,32.261,105.788
四川,广安市,36.969,61.802,10.531,24.764,0.919,63.25,-3.449,-0.024,287.616,69.007,96173.978,30.43,106.628
四川,德阳市,49.622,79.27,9.485,29.255,0.811,69.496,-2.013,-0.928,286.15,65.515,92595.272,31.13,104.436
四川,成都市,63.508,95.872,11.164,35.618,0.903,77.146,-1.489,-1.096,287.146,62.527,92727.028,30.64,103.929
四川,攀枝花市,25.215,41.354,17.008,21.211,1.248,69.093,5.996,2.889,289.382,35.6,80966.936,26.791,101.734
四川,泸州市,68.991,96.248,12.471,21.033,0.79,81.57,-0.844,-1.076,289.401,62.756,92807.334,28.424,105.675
四川,甘孜藏族自治州,3.442,4.242,0.567,1.096,0.148,78.399,5.44,-0.72,270.677,44.954,60799.963,30.936,100.009
四川,眉山市,74.545,105.475,11.461,30.727,0.928,75.756,-1.923,-1.254,288.2,60.989,93167.998,29.912,103.766
四川,绵阳市,35.109,52.705,10.203,17.672,0.579,66.934,-0.594,-0.001,282.874,69.424,87420.941,31.86,104.704
四川,自贡市,86.562,117.223,13.607,39.069,1.044,77.922,-3.149,-2.142,291.01,54.882,96024.074,29.307,104.659
四川,资阳市,50.649,81.016,8.933,24.459,0.879,76.319,-3.692,-1.862,289.329,63.563,96337.867,30.102,105.149
四川,达州市,33.075,49.984,14.459,23.226,0.765,50.521,-3.609,0.793,284.794,70.938,93531.032,31.335,107.636
四川,遂宁市,40.672,66.186,9.566,22.36,0.84,73.414,-3.307,-1.66,288.676,62.848,96596.172,30.642,105.457
四川,阿坝藏族羌族自治州,5.324,6.956,0.966,2.044,0.19,77.996,5.112,-1.029,272.41,52.816,65029.467,32.406,102.61
四川,雅安市,54.335,72.192,10.047,10.655,0.6,83.061,-0.167,-0.192,281.043,69.345,79543.481,29.932,102.689
天津,天津市,60.58,109.597,24.421,49.197,1.144,49.066,0.712,6.063,278.371,36.823,100951.681,39.315,117.308
宁夏,中卫市,35.787,103.109,13.902,23.729,0.772,54.384,5.186,3.564,281.169,31.999,82762.341,37.018,105.509
宁夏,吴忠市,29.099,79.041,10.819,15.287,0.662,52.723,5.686,2.987,281.191,34.801,84272.183,37.454,106.577
宁夏,固原市,37.911,84.227,12.02,28.924,0.905,62.462,4.251,3.35,278.956,52.429,80272.839,35.905,106.183
宁夏,石嘴山市,48.473,114.237,44.671,31.126,1.047,63.799,6.971,1.842,281.565,29.144,85763.454,39.013,106.499
宁夏,银川市,41.061,112.283,24.053,25.985,0.931,60.25,5.898,2.476,281.763,32.053,86134.667,38.287,106.342
安徽,亳州市,55.755,67.677,8.945,19.348,0.793,70.843,-3.078,3.722,279.047,84.807,101302.867,33.44,116.162
安徽,六安市,57.72,67.525,6.877,15.457,0.737,68.726,-3.774,0.461,280.158,88.066,98698.58,31.617,116.209
安徽,合肥市,51.797,63.494,5.825,23.269,0.733,64.913,-6.022,-0.081,279.864,87.63,101171.86,31.766,117.359
安徽,安庆市,61.493,59.822,8.58,13.77,0.741,71.475,-4.126,-4.341,281.9,83.381,99071.431,30.557,116.473
安徽,宣城市,36.173,45.159,7.207,19.325,0.632,60.318,-6.104,0.791,280.959,88.921,99066.931,30.676,118.846
安徽,宿州市,52.952,66.841,8.422,20.042,0.73,74.553,-3.191,4.683,278.937,79.196,101291.941,33.844,117.23
安徽,池州市,54.807,58.712,10.834,16.255,0.748,65.115,-3.863,-2.614,283.028,84.122,99194.348,30.296,117.379
安徽,淮北市,52.923,66.023,10.017,22.186,0.775,76.107,-3.242,4.342,279.009,81.501,101323.177,33.722,116.747
安徽,淮南市,58.623,70.177,8.487,23.411,0.769,66.967,-4.596,2.054,279.832,85.799,101355.66,32.463,116.746
安徽,滁州市,42.45,54.49,6.733,23.482,0.581,63.835,-5.515,1.994,278.339,89.439,101137.097,32.55,118.076
安徽,芜湖市,44.805,53.148,7.236,22.068,0.684,63.13,-7.507,-1.542,280.493,88.286,101313.066,31.167,118.162
安徽,蚌埠市,51.57,60.824,7.775,20.933,0.678,73.146,-4.442,2.977,278.902,85.296,101372.775,33.121,117.263
安徽,铜陵市,57.261,61.982,9.149,22.034,0.742,66.98,-5.918,-3.227,281.762,83.614,101111.182,30.883,117.531
安徽,阜阳市,60.852,75.939,10.13,19.317,0.817,63.322,-3.192,2.425,279.632,85.415,101262.969,32.937,115.723
安徽,马鞍山市,39.551,52.289,6.224,24.066,0.664,62.719,-7.284,-0.109,279.278,90.599,101381.871,31.622,118.386
安徽,黄山市,43.567,55.83,11.212,14.091,0.751,53.622,-4.962,-0.3,282.16,91.807,96946.635,29.869,118.09
山东,东营市,46.351,85.917,29.938,33.192,0.931,60.358,2.05,7.853,279.279,37.144,101308.477,37.57,118.572
山东,临沂市,52.473,90.619,14.761,25.111,0.854,69.44,-0.981,5.625,277.575,58.148,99783.679,35.289,118.27
山东,威海市,13.317,25.607,6.739,8.109,0.388,80.636,1.534,6.997,274.393,64.893,101054.95,37.148,122.028
山东,德州市,51.663,104.127,19.355,23.685,0.91,71.604,3.062,11.726,280.444,42.636,101064.517,37.233,116.679
山东,日照市,43.841,76.159,12.155,22.828,0.686,74.546,-0.402,5.78,277.312,59.183,99912.318,35.566,119.108
山东,枣庄市,59.267,99.887,15.338,24.087,0.841,68.568,-2.55,5.921,278.716,60.656,100514.258,34.925,117.383
山东,泰安市,47.819,97.377,17.643,24.598,0.896,66.581,-0.231,8.616,278.309,55.518,99536.821,35.993,117.04
山东,济南市,45.195,91.638,19.685,25.564,0.878,73.156,1.904,11.16,278.946,47.624,99370.461,36.639,117.254
山东,济宁市,48.786,92.961,15.049,22.326,0.898,67.045,-0.669,7.773,279.25,61.341,100886.809,35.375,116.697
山东,淄博市,46.547,86.522,21.861,27.763,0.993,71.758,2.87,9.854,278.463,44.082,98779.413,36.623,118.062
山东,滨州市,47.176,86.867,26.316,30.875,0.949,63.766,3.267,8.829,279.917,38.176,101192.701,37.516,117.852
山东,潍坊市,43.922,83.664,15.837,22.721,0.791,74.433,1.05,8.762,278.061,47.918,100363.201,36.53,119.092
山东,烟台市,22.818,43.687,7.771,11.526,0.469,78.076,-0.23,8.49,275.279,57.633,100423.986,37.25,120.789
山东,聊城市,56.119,104.681,12.943,20.296,0.956,74.67,1.418,11.495,280.392,49.157,100917.232,36.458,115.863
山东,菏泽市,53.856,83.07,10.073,19.218,0.957,73.31,0.886,7.94,279.472,68.381,100993.072,35.134,115.69
山东,青岛市,28.498,58.476,8.597,14.642,0.465,84.25,-1.181,7.684,276.459,62.589,101070.219,36.46,120.172
山西,临汾市,59.704,97.062,37.481,31.522,1.52,59.939,2.007,5.477,279.863,51.853,89404.204,36.227,111.398
山西,吕梁市,60.646,99.814,44.589,36.917,1.695,47.42,3.781,6.246,278.819,51.994,86865.337,37.663,111.27
山西,大同市,36.543,64.731,22.321,24.694,0.841,54.373,7.367,3.436,276.973,37.283,86179.765,39.911,113.713
山西,太原市,69.84,122.447,54.871,41.319,1.339,54.476,6.921,4.505,279.843,43.158,86689.725,37.967,112.321
山西,忻州市,43.762,78.029,25.541,23.826,0.954,59.968,6.134,3.789,277.634,42.427,85144.852,38.877,112.391
山西,晋中市,52.312,96.875,37.47,33.083,1.077,64.509,6.87,5.056,279.464,44.347,87698.386,37.328,112.997
山西,晋城市,53.23,90.905,20.42,26.274,0.912,71.023,1.418,4.24,277.888,51.982,89887.011,35.625,112.752
山西,朔州市,28.908,59.164,19.131,17.196,0.746,73.781,8.561,3.802,277.508,39.401,85531.781,39.619,112.655
山西,运城市,65.629,105.79,31.633,30.057,1.274,63.147,-1.711,3.08,282.074,50.024,93644.735,35.205,111.071
山西,长治市,44.096,77.145,20.394,19.208,0.866,77.011,6.134,5.941,278.852,47.888,88094.926,36.48,112.915
山西,阳泉市,65.971,121.456,48.981,45.922,1.309,57.136,8.799,3.86,281.059,38.249,89467.071,38.031,113.512
广东,东莞市,39.236,49.946,9.9,33.836,0.717,69.154,-2.034,4.566,294.624,89.042,100974.364,22.931,113.81
广东,中山市,29.657,37.456,7.314,19.213,0.54,70.908,-3.007,4.438,294.368,92.366,100968.879,22.5,113.383
广东,云浮市,21.495,29.848,2.211,8.266,0.57,54.751,-1.048,6.133,295.289,82.815,98849.808,22.776,111.818
广东,佛山市,36.237,49.425,9.677,34.675,0.741,52.339,-2.321,4.942,295.443,85.366,100958.15,23.035,112.979
广东,广州市,42.393,54.474,11.328,38.814,0.767,59.147,-2.159,5.078,294.616,86.123,100091.797,23.339,113.525
广东,惠州市,29.156,38.797,5.546,10.998,0.552,83.441,-2.202,4.013,293.819,87.946,99165.69,23.244,114.485
广东,揭阳市,39.849,55.258,11.469,19.61,0.975,84.255,-2.753,0.681,293.046,86.219,99826.356,23.323,116.123
广东,梅州市,33.154,44.54,8.535,13.778,0.832,76.064,-1.291,3.821,293.155,74.7,97758.153,24.169,116.07
广东,汕头市,38.192,54.428,11.37,18.826,0.866,92.576,-3.75,-0.229,293.089,88.633,100961.422,23.339,116.614
广东,汕尾市,30.943,47.323,7.009,11.403,0.768,86.658,-3.299,1.307,293.169,89.413,99543.251,23.024,115.527
广东,江门市,20.933,27.7,2.801,10.341,0.373,68.733,-2.446,4.996,294.743,91.882,100371.49,22.289,112.676
广东,河源市,27.992,37.482,5.282,9.207,0.619,75.87,-0.379,4.152,293.25,81.09,97926.596,24.021,114.969
广东,深圳市,32.984,44.447,7.502,24.48,0.619,81.984,-3.253,3.827,293.967,93.682,100512.771,22.667,114.143
广东,清远市,37.262,47.707,8.334,23.578,0.656,61.38,-0.488,6.108,293.599,84.864,97344.736,24.295,112.871
广东,湛江市,21.17,27.97,3.886,7.005,0.554,52.451,-1.879,3.968,296.826,84.789,100701.253,21.091,110.163
广东,潮州市,38.533,52.453,10.416,18.812,0.891,81.384,-2.646,1.319,292.62,83.387,99279.186,23.755,116.754
广东,珠海市,20.998,26.423,2.613,6.332,0.307,85.265,-3.405,3.907,294.112,95.933,101055.23,22.095,113.317
广东,肇庆市,28.538,39.73,4.107,15.07,0.632,52.816,-1.591,5.462,294.796,84.52,98965.084,23.505,112.199
广东,茂名市,21.94,27.69,3.45,6.893,0.588,58.744,-2.033,5.748,295.302,87.195,98944.15,22.013,110.952
广东,阳江市,17.318,22.301,1.785,4.351,0.356,65.081,-1.475,5.253,295.048,89.945,99500.783,22.042,111.786
广东,韶关市,36.645,46.573,12.096,18.243,0.796,75.822,0.823,5.606,293.117,82.212,96576.837,24.785,113.819
广西,北海市,25.725,36.191,4.306,7.977,0.657,53.794,-0.89,4.258,296.083,87.89,100720.629,21.674,109.37
广西,南宁市,32.342,44.13,5.995,16.055,0.719,49.238,0.847,6.564,295.335,80.674,98760.088,23.051,108.469
广西,崇左市,32.48,38.526,4.622,7.067,0.512,67.519,3.193,5.668,295.589,74.734,97465.731,22.483,107.291
广西,来宾市,35.479,48.592,6.674,10.579,0.605,50.773,0.953,7.298,295.052,79.112,97604.016,23.859,109.417
广西,柳州市,41.746,52.613,10.561,10.596,0.627,49.319,0.597,5.505,294.019,79.56,96961.479,24.956,109.372
广西,桂林市,40.264,50.801,7.936,12.429,0.681,43.065,-0.07,3.066,291.777,83.985,95423.51,25.353,110.513
广西,梧州市,33.64,48.101,5.122,13.326,0.958,46.52,0.495,5.705,295.615,77.585,98512.461,23.484,110.996
广西,河池市,35.79,48.595,7.131,7.358,0.636,64.938,0.273,6.648,293.854,73.568,94554.159,24.628,107.843
广西,玉林市,28.533,41.252,5.884,10.409,0.719,48.389,-0.19,6.665,296.034,81.455,98934.994,22.452,110.164
广西,百色市,36.157,50.014,9.253,6.533,0.732,77.87,3.707,4.413,295.092,52.581,92473.307,23.981,106.292
广西,贵港市,38.873,57.752,7.26,13.655,0.834,43.336,1.25,5.859,296.44,76.572,99304.562,23.322,110.021
广西,贺州市,36.322,47.953,4.566,9.402,0.812,50.453,-0.176,6.022,293.863,82.752,96710.578,24.364,111.394
广西,钦州市,29.306,41.561,5.964,13.143,0.858,45.629,0.367,5.855,295.559,87.576,99965.889,22.173,109.01
广西,防城港市,21.242,26.91,3.914,8.008,0.604,56.193,1.798,5.822,294.716,85.067,98362.108,21.88,108.002
新疆,乌鲁木齐市,30.459,51.417,3.282,15.088,0.589,59.46,3.008,-2.59,271.879,66.621,83328.316,43.746,87.818
新疆,五家渠市,59.137,76.593,4.677,14.487,0.767,58.357,-0.967,-1.003,272.283,84.43,95903.05,44.363,87.517
新疆,伊犁哈萨克自治州,10.191,11.722,4.932,5.212,0.437,59.118,2.874,0.125,269.6,88.373,79634.983,43.438,82.146
新疆,克孜勒苏柯尔克孜自治州,4.362,11.505,0.57,2.351,0.257,71.697,7.309,-4.416,271.129,52.198,69592.085,39.661,75.949
新疆,克拉玛依市,18.643,23.001,5.149,6.255,0.424,56.48,-0.354,0.525,272.374,81.437,96779.132,45.457,85.207
新疆,北屯市,8.69,8.484,8.798,12.912,0.396,61.882,3.33,-4.522,264.332,81.74,94887.312,47.27,87.868
新疆,博尔塔拉蒙古自治州,8.798,10.247,3.962,3.256,0.399,58.921,4.648,0.745,271.674,70.544,85374.166,44.714,82.114
新疆,双河市,4.38,5.572,3.416,3.034,0.374,54.27,-0.018,-7.38,276.27,66.938,97239.486,44.87,82.474
新疆,可克达拉市,30.642,35.02,16.288,16.78,1.112,44.024,1.118,0.37,274.824,98.284,94388.918,43.918,80.786
新疆,和田地区,4.821,10.859,1.32,1.111,0.224,68.085,4.891,1.493,275.246,36.422,73175.579,37.059,80.934
新疆,哈密市,3.593,6.439,1.83,1.529,0.248,57.888,4.094,-0.697,276.636,53.094,87161.974,43.042,93.517
新疆,喀什地区,18.718,44.176,2.963,5.158,0.479,68.181,5.993,0.997,275.268,45.108,75268.724,38.125,77.178
新疆,图木舒克市,9.343,14.198,3.78,2.092,0.28,56.112,1.73,-0.323,281.377,44.188,88187.712,39.892,79.182
新疆,塔城地区,9.87,11.232,3.764,3.686,0.308,57.494,3.054,-1.339,269.391,80.334,88771.539,45.642,84.789
新疆,巴音郭楞蒙古自治州,2.705,4.335,0.674,0.742,0.156,60.585,3.717,-0.187,276.1,36.46,78240.622,39.463,87.481
新疆,新星市,9.225,31.78,4.78,10.265,0.73,61.585,-1.245,-1.205,281.05,35.855,91578.68,42.75,93.68
新疆,昆玉市,25.86,58.5,7.71,7.103,0.837,61.143,2.077,-1.653,283.343,33.123,85964.35,37.457,79.093
新疆,昌吉回族自治州,19.845,26.378,3.368,6.82,0.391,59.726,2.209,-0.688,271.856,76.154,89055.633,44.342,88.608
新疆,石河子市,52.82,66.805,9.785,25.26,0.775,56.555,-0.6,0.405,275.14,74.135,93959.425,44.245,86.035
新疆,胡杨河市,38.422,41.806,9.344,14.844,0.646,51.788,-1.598,0.148,272.758,92.766,97249.978,44.852,84.772
新疆,铁门关市,12.947,36.083,1.83,4.62,0.313,66.713,1.977,-0.72,282.19,32.047,90564.95,41.773,85.66
新疆,阿克苏地区,10.78,32.144,2.423,2.756,0.348,62.422,1.542,-1.502,278.032,43.947,84243.461,40.965,81.578
新疆,阿勒泰地区,5.708,5.92,3.706,2.978,0.257,63.029,2.92,-1.11,264.782,81.918,87511.28,46.902,88.421
新疆,阿拉尔市,27.16,98.346,4.518,7.78,0.735,57.423,-0.649,-0.278,279.71,49.461,89055.57,40.629,80.998
江苏,南京市,34.327,50.072,7.032,26.949,0.61,59.62,-6.912,0.897,278.8,90.916,101485.141,31.899,118.876
江苏,南通市,21.169,30.615,5.637,14.827,0.429,72.133,-5.757,1.693,278.83,91.11,101789.685,32.201,120.979
江苏,宿迁市,45.874,63.137,8.384,21.124,0.679,66.501,-3.924,4.309,278.645,73.541,101621.445,33.765,118.495
江苏,常州市,30.899,48.375,6.877,30.522,0.693,62.361,-7.388,1.121,279.321,90.617,101574.892,31.613,119.666
江苏,徐州市,57.972,81.478,10.235,21.735,0.79,71.665,-2.345,5.135,279.019,70.583,101291.649,34.363,117.513
江苏,扬州市,40.413,58.935,7.461,25.489,0.661,58.166,-5.255,2.652,277.803,89.968,101725.442,32.709,119.486
江苏,无锡市,28.626,47.801,7.333,33.075,0.698,62.388,-7.392,1.172,279.43,90.31,101506.252,31.546,120.066
江苏,泰州市,36.632,52.833,7.31,24.133,0.649,62.525,-5.347,2.433,278.005,90.63,101716.899,32.605,120.048
江苏,淮安市,40.657,57.893,7.402,20.659,0.629,64.19,-4.272,3.734,278.108,80.838,101645.495,33.362,118.985
江苏,盐城市,26.235,37.9,6.059,11.612,0.479,69.834,-3.866,3.762,278.699,77.425,101765.118,33.529,120.156
江苏,苏州市,23.04,40.862,6.667,29.388,0.56,70.175,-7.541,0.561,279.926,89.15,101694.783,31.374,120.661
江苏,连云港市,40.398,63.227,9.269,19.294,0.683,71.651,-1.685,4.934,278.68,64.858,101514.033,34.519,119.133
江苏,镇江市,37.371,57.625,7.887,32.616,0.701,57.362,-6.808,1.422,278.554,91.519,101572.586,32.016,119.49
江西,上饶市,44.786,55.842,12.555,11.98,0.815,57.236,-1.783,-0.351,287.801,84.277,98924.725,28.778,117.47
江西,九江市,58.593,62.851,10.302,14.311,0.909,61.028,-2.336,-3.758,283.964,84.116,98957.158,29.313,115.444
江西,南昌市,52.995,65.867,9.268,17.268,0.981,57.508,-0.829,-4.864,286.831,78.886,100804.39,28.671,116.016
江西,吉安市,50.134,68.484,15.092,12.208,0.951,56.676,0.619,-0.26,291.149,79.666,98477.81,26.954,114.831
江西,宜春市,55.452,71.439,11.759,15.45,0.992,59.685,-1.37,-2.129,287.143,82.545,98859.013,28.29,114.974
江西,抚州市,47.982,59.974,12.806,12.019,0.774,61.499,1.183,1.226,290.869,81.017,98491.715,27.514,116.42
江西,新余市,53.531,73.852,14.806,18.224,1.047,59.296,-2.141,-2.289,288.21,79.379,99782.688,27.847,114.836
江西,景德镇市,45.273,57.509,12.091,10.93,0.811,54.788,-3.434,-1.648,286.812,84.225,99767.459,29.287,117.24
江西,萍乡市,50.249,68.468,10.091,15.244,1.059,42.924,2.161,-0.192,288.294,88.539,97510.585,27.505,113.908
江西,赣州市,33.951,45.53,9.751,9.116,0.895,74.259,1.524,5.795,293.398,72.941,96879.049,25.692,115.279
江西,鹰潭市,51.831,60.487,15.001,15.316,0.826,55.776,0.384,1.923,289.803,83.833,99417.932,28.222,117.094
河北,保定市,82.531,132.446,26.988,43.368,1.206,59.394,1.256,3.908,279.597,31.363,96995.002,39.018,115.159
河北,唐山市,55.453,101.39,24.577,45.708,1.122,49.225,0.397,5.362,275.535,46.085,100523.015,39.731,118.354
河北,廊坊市,70.118,119.214,24.766,44.508,1.139,55.808,0.916,6.728,279.772,33.276,100928.448,39.267,116.632
河北,张家口市,38.414,64.838,19.105,27.388,0.823,49.147,5.294,3.472,274.416,42.634,86567.724,40.877,115.042
河北,承德市,44.773,77.375,19.042,32.503,0.847,50.545,3.75,5.686,270.814,45.09,90015.467,41.339,117.578
河北,沧州市,60.375,110.594,24.171,30.189,0.971,63.972,2.527,9.776,280.786,35.949,101024.114,38.258,116.744
河北,石家庄市,78.085,143.024,33.947,44.645,1.428,57.989,0.696,4.804,282.404,31.278,97490.616,38.135,114.407
河北,秦皇岛市,47.885,93.092,24.334,47.472,1.173,48.797,3.212,5.638,273.296,50.101,98185.132,40.12,119.193
河北,衡水市,57.962,113.577,18.163,25.28,0.975,73.812,2.052,11.384,281.816,36.116,100843.798,37.755,115.813
河北,邢台市,57.378,113.658,18.854,28.761,1.024,68.026,1.891,10.46,283.081,35.337,99280.86,37.195,114.815
河北,邯郸市,56.387,104.331,15.745,25.791,0.976,69.026,2.794,9.844,282.024,40.24,98924.204,36.538,114.596
河南,三门峡市,52.327,74.549,17.762,16.681,0.805,60.252,1.641,4.713,280.436,60.763,91309.562,34.362,111.101
河南,信阳市,60.576,76.477,9.843,16.118,0.759,50.285,-2.666,-0.562,279.651,87.57,100226.192,32.091,114.907
河南,南阳市,64.514,74.708,7.325,20.487,0.941,46.023,0.654,1.392,277.771,83.223,98091.064,33.034,112.323
河南,周口市,69.651,84.178,9.263,21.369,0.879,60.894,-0.676,3.76,277.891,86.863,101021.569,33.738,114.884
河南,商丘市,58.522,74.08,9.832,19.129,0.867,73.656,-0.863,5.581,278.937,80.045,101099.565,34.277,115.718
河南,安阳市,55.348,91.043,11.986,24.54,0.887,68.538,3.006,9.728,281.479,46.759,98605.492,35.888,114.318
河南,平顶山市,64.975,80.612,9.136,27.676,0.907,44.486,-0.149,4.745,278.479,76.566,98671.763,33.8,113.025
河南,开封市,66.62,79.582,8.669,22.66,0.9,59.137,1.074,6.371,278.051,80.811,100684.122,34.594,114.514
河南,新乡市,64.494,95.034,11.288,29.543,0.947,54.691,2.566,7.294,279.565,59.606,99618.11,35.256,114.111
河南,洛阳市,56.628,75.301,15.568,20.536,0.847,56.908,0.491,3.231,280.403,59.636,93776.258,34.274,112.019
河南,济源市,62.475,100.486,22.461,32.637,0.976,59.563,-0.0,1.545,279.257,52.664,95675.584,35.105,112.445
河南,漯河市,65.43,82.914,8.512,29.343,0.868,40.942,-0.727,3.764,276.638,90.264,100848.096,33.652,113.945
河南,濮阳市,58.052,92.829,10.147,19.418,0.982,74.744,2.152,10.251,280.179,56.238,100837.979,35.809,115.283
河南,焦作市,67.757,115.504,19.369,37.588,1.014,47.731,1.786,1.978,280.944,47.992,99387.202,35.121,113.163
河南,许昌市,70.475,88.223,9.417,31.328,0.948,41.392,0.065,4.641,277.484,84.158,100100.863,34.075,113.707
河南,郑州市,72.489,95.927,12.283,33.986,0.993,44.268,1.157,6.489,279.081,68.33,98650.224,34.634,113.438
河南,驻马店市,63.742,81.768,8.398,22.25,0.854,43.756,-0.823,1.477,277.308,90.803,100551.406,32.925,114.174
河南,鹤壁市,59.312,95.623,11.832,28.718,0.914,60.108,3.911,10.513,280.548,48.369,99859.058,35.716,114.319
浙江,丽水市,29.018,40.533,9.041,10.198,0.632,84.888,-2.677,4.774,286.356,89.092,94300.476,28.194,119.51
浙江,台州市,40.055,55.72,7.567,13.859,0.645,72.42,-4.622,-0.426,284.559,96.24,98755.082,28.742,121.109
浙江,嘉兴市,16.654,27.182,3.897,17.656,0.409,74.046,-7.618,-1.003,281.232,88.079,101640.667,30.635,120.754
浙江,宁波市,19.638,27.592,4.451,15.044,0.427,73.7,-6.523,-0.097,283.078,91.292,100357.197,29.706,121.49
浙江,杭州市,34.186,47.834,7.964,24.939,0.736,55.826,-4.553,-2.337,280.779,94.389,98521.235,29.891,119.464
浙江,温州市,40.721,56.008,9.103,22.328,0.802,76.471,-3.13,-0.497,285.638,95.828,97513.619,27.897,120.411
浙江,湖州市,24.338,36.439,4.839,24.067,0.549,64.247,-6.799,0.036,280.079,91.12,100286.579,30.757,119.871
浙江,绍兴市,31.321,39.509,5.84,19.994,0.601,63.584,-5.846,0.718,283.032,89.509,99403.649,29.709,120.64
浙江,舟山市,7.212,12.045,1.57,2.288,0.242,81.385,-8.622,-1.63,283.19,86.198,101449.5,30.038,122.23
浙江,衢州市,37.488,49.954,10.762,15.082,0.755,62.578,-3.38,-0.625,285.847,89.391,97577.705,28.912,118.675
浙江,金华市,40.741,53.575,9.068,18.431,0.757,67.263,-5.032,1.95,284.951,89.526,97934.461,29.109,119.967
海南,万宁市,11.614,15.857,1.073,1.763,0.189,48.943,0.386,4.797,296.283,92.778,99753.76,18.842,110.294
海南,三亚市,12.291,16.711,1.984,3.81,0.4,23.276,-2.413,2.239,295.864,89.911,98548.137,18.413,109.407
海南,东方市,11.235,14.686,1.123,2.118,0.182,52.315,-2.327,6.03,298.976,65.846,99049.075,18.971,108.838
海南,临高县,16.219,22.999,2.056,4.364,0.314,35.599,-0.844,1.186,297.781,73.63,100238.511,19.821,109.733
海南,乐东黎族自治县,12.363,16.126,1.178,2.565,0.237,34.265,-2.273,3.152,295.88,85.143,97638.749,18.659,109.072
海南,五指山市,13.47,16.79,1.576,3.292,0.226,29.658,-0.544,3.698,294.79,83.226,94456.122,18.81,109.518
海南,儋州市,17.579,23.332,2.157,3.981,0.28,45.311,-0.071,0.051,298.099,69.727,99887.472,19.568,109.399
海南,定安县,12.533,18.11,1.832,3.803,0.28,29.443,-1.595,4.683,297.848,81.655,99969.537,19.47,110.28
海南,屯昌县,12.372,16.736,1.368,2.89,0.244,33.896,-1.268,4.508,298.036,76.702,99177.244,19.342,110.076
海南,文昌市,11.145,16.447,1.098,1.774,0.204,44.899,-2.006,5.675,296.853,90.767,100772.814,19.707,110.773
海南,昌江黎族自治县,14.22,18.108,1.843,3.269,0.21,54.137,0.098,2.979,298.241,67.003,98052.812,19.233,109.016
海南,海口市,13.232,19.923,2.398,5.215,0.326,25.373,-1.7,3.959,298.071,81.078,100536.912,19.842,110.393
海南,澄迈县,14.709,21.217,2.621,5.046,0.324,28.969,-1.089,2.109,298.494,73.381,100066.987,19.676,109.989
海南,琼中黎族苗族自治县,13.5,17.225,1.287,2.805,0.229,38.105,0.959,4.201,297.102,74.689,97021.875,19.087,109.847
海南,琼海市,11.552,16.482,1.373,2.515,0.215,39.652,-0.953,4.54,297.407,87.452,100552.408,19.22,110.43
海南,白沙黎族自治县,14.969,18.739,1.659,2.994,0.231,50.781,0.979,3.378,297.791,66.756,96719.096,19.2,109.388
海南,陵水黎族自治县,12.334,15.886,0.94,2.327,0.254,32.019,0.489,2.486,295.909,91.81,99105.089,18.581,109.913
湖北,仙桃市,51.141,63.434,6.584,18.378,0.934,45.645,-1.109,-4.31,281.427,85.946,101210.259,30.284,113.417
湖北,十堰市,30.736,45.2,11.26,13.748,0.736,53.072,-0.379,0.648,277.939,82.142,93061.537,32.462,110.476
湖北,咸宁市,57.133,67.705,8.827,17.619,1.119,50.0,-2.475,-2.657,283.725,84.87,99204.669,29.621,114.178
湖北,天门市,50.374,60.595,7.126,16.537,1.003,49.131,-0.788,-3.664,280.572,86.422,101199.126,30.633,113.053
湖北,孝感市,54.927,66.296,8.391,15.128,0.868,49.938,-0.931,-3.341,280.663,85.387,100562.639,31.116,113.869
湖北,宜昌市,36.609,41.382,9.5,15.869,0.795,42.947,-0.371,-0.234,279.113,89.424,93946.052,30.746,111.129
湖北,恩施土家族苗族自治州,32.555,45.58,13.577,11.68,0.914,33.242,-0.953,0.964,279.861,94.173,89268.748,30.195,109.552
湖北,武汉市,58.458,71.631,7.716,29.945,1.063,40.481,-0.784,-2.501,282.935,80.841,101064.566,30.606,114.349
湖北,潜江市,48.551,62.908,5.487,20.159,1.104,43.029,-0.974,-4.296,280.553,87.657,101204.81,30.33,112.77
湖北,神农架林区,27.885,34.222,9.754,5.746,0.544,54.01,2.268,1.745,278.614,78.628,82575.832,31.592,110.49
湖北,荆州市,47.342,58.738,7.465,18.635,1.028,42.562,-0.725,-4.667,281.108,86.842,100948.646,30.01,112.512
湖北,荆门市,58.733,59.856,7.662,17.657,0.934,48.475,0.093,-2.732,279.365,88.971,100165.771,31.059,112.616
湖北,襄阳市,57.894,61.004,8.267,16.805,0.846,47.197,0.087,-0.061,278.041,88.613,97340.947,31.919,111.96
湖北,鄂州市,62.271,75.289,7.707,33.724,1.213,39.48,-1.424,-1.749,284.021,77.854,101090.144,30.337,114.794
湖北,随州市,50.788,65.059,7.538,13.392,0.844,48.837,-0.995,-1.236,278.658,89.896,99430.21,31.809,113.43
湖北,黄冈市,58.929,63.247,8.883,14.116,0.852,61.568,-2.304,-1.595,283.199,78.194,99300.363,30.702,115.358
湖北,黄石市,63.165,74.912,8.283,23.061,1.184,52.594,-2.739,-1.779,283.427,81.749,100070.75,29.925,115.034
湖南,娄底市,27.993,45.382,8.927,14.872,1.08,43.526,-1.551,-3.24,282.931,87.3,96989.403,27.715,111.632
湖南,岳阳市,54.091,67.36,8.069,14.256,0.969,46.425,-0.851,-4.352,283.999,86.199,99919.186,29.081,113.275
湖南,常德市,30.465,45.129,9.002,15.684,0.969,40.527,-0.955,-4.197,280.449,88.348,99219.15,29.271,111.524
湖南,张家界市,21.357,33.973,10.317,12.793,0.778,40.702,-2.936,-1.611,279.503,91.928,95159.252,29.379,110.526
湖南,怀化市,23.701,40.624,8.868,9.325,0.798,46.472,-2.242,-3.128,283.702,88.321,96008.535,27.535,110.071
湖南,株洲市,47.22,64.132,10.225,16.024,0.951,45.339,2.29,-1.766,287.888,86.18,97673.29,27.109,113.513
湖南,永州市,39.821,52.105,7.032,12.39,0.729,49.528,-0.399,0.882,290.025,84.123,96232.559,25.748,111.723
湖南,湘潭市,39.217,53.63,7.167,19.558,1.016,37.383,1.315,-5.503,284.13,85.269,100023.03,27.744,112.619
湖南,湘西土家族苗族自治州,21.559,35.753,7.854,10.298,0.754,40.837,-3.559,-2.329,280.527,90.388,95050.149,28.708,109.718
湖南,益阳市,34.475,52.501,7.45,13.709,1.056,41.558,-0.325,-4.609,281.343,89.517,98653.298,28.525,111.919
湖南,衡阳市,44.085,61.578,10.448,19.098,1.051,40.994,-0.106,-4.218,286.982,83.569,99476.42,26.781,112.565
湖南,邵阳市,33.401,48.966,10.158,14.445,0.92,44.465,-2.268,-1.11,285.458,87.942,94685.238,26.893,110.881
湖南,郴州市,44.124,59.032,10.646,14.802,0.864,60.54,1.189,2.086,291.012,82.997,95426.063,25.769,113.109
湖南,长沙市,50.589,65.664,7.924,16.021,0.981,42.535,1.375,-4.035,284.982,87.416,99392.098,28.235,113.159
甘肃,临夏回族自治州,32.265,55.422,6.957,20.209,0.849,62.522,3.148,0.197,279.959,23.641,76811.767,35.617,103.291
甘肃,兰州市,29.812,65.402,17.656,33.177,1.132,55.772,3.93,0.761,279.618,29.808,78377.851,36.359,103.633
甘肃,嘉峪关市,22.343,120.46,19.023,21.398,0.347,62.03,5.992,-3.593,278.775,27.993,80670.28,39.798,98.145
甘肃,天水市,44.627,82.398,11.458,22.023,0.718,58.81,1.805,5.398,279.774,66.553,82067.08,34.645,105.739
甘肃,定西市,31.998,58.722,8.52,16.686,0.834,61.097,2.563,1.146,279.016,34.52,76627.169,35.124,104.432
甘肃,平凉市,58.19,113.821,11.651,28.611,0.89,59.078,3.271,4.858,280.885,59.026,83842.92,35.304,106.644
甘肃,庆阳市,50.114,94.115,11.823,21.899,0.769,62.413,3.446,3.699,280.758,51.761,85072.333,36.149,107.596
甘肃,张掖市,6.405,18.919,2.099,2.946,0.196,67.734,6.844,0.805,274.467,31.715,73784.359,38.94,99.855
甘肃,武威市,14.508,30.849,5.72,6.49,0.374,63.258,4.815,0.522,279.443,28.021,80525.075,38.163,103.073
甘肃,甘南藏族自治州,3.853,4.815,0.49,2.538,0.177,77.199,6.048,-1.43,273.472,35.83,67147.994,34.331,102.768
甘肃,白银市,34.398,86.506,15.737,26.278,0.986,55.052,1.723,3.115,279.84,34.561,80737.746,36.59,104.646
甘肃,酒泉市,4.488,9.578,1.422,1.437,0.154,58.053,6.771,0.758,275.778,37.347,78143.574,40.236,96.062
甘肃,金昌市,14.461,39.896,10.556,9.057,0.371,66.818,4.825,-0.358,279.731,24.718,79729.152,38.44,102.048
甘肃,陇南市,27.397,44.672,10.32,12.243,0.496,65.461,1.064,3.411,279.045,73.353,81699.289,33.599,105.224
福建,三明市,28.501,37.756,10.052,10.529,0.733,70.516,0.956,4.048,291.357,70.798,94905.101,26.29,117.395
福建,南平市,29.732,38.796,11.392,6.594,0.61,79.466,-0.357,3.352,290.135,77.887,95648.994,27.324,118.143
福建,厦门市,28.785,50.262,10.05,26.942,0.697,73.557,-1.407,-0.875,291.862,82.287,100198.183,24.642,118.11
福建,宁德市,31.313,43.002,8.122,5.555,0.598,84.107,-1.885,1.173,287.766,89.05,95104.982,26.968,119.474
福建,泉州市,31.692,45.43,8.016,14.585,0.643,81.001,-0.741,1.244,290.448,83.091,96423.541,25.201,118.249
福建,漳州市,33.648,50.689,8.473,16.151,0.645,77.501,-0.91,1.011,291.409,85.475,98025.717,24.372,117.444
福建,福州市,32.817,46.588,7.423,9.748,0.651,89.453,-2.055,-0.907,289.636,86.942,97200.384,26.083,119.206
福建,莆田市,37.422,46.309,7.45,10.408,0.634,96.491,-1.258,-0.599,290.753,83.085,97959.658,25.445,118.864
福建,龙岩市,27.546,37.603,8.386,10.055,0.56,76.012,0.247,4.717,291.563,71.697,94936.871,25.256,116.739
西藏,山南市,18.913,21.778,1.477,1.417,0.207,88.356,1.646,1.397,273.639,75.577,65912.664,28.295,92.274
西藏,拉萨市,2.01,3.434,0.171,1.129,0.153,85.605,1.95,2.055,267.603,58.049,56276.329,30.043,91.093
西藏,日喀则市,2.688,3.322,0.263,0.392,0.126,88.059,7.061,-0.342,265.54,56.578,55053.594,29.483,86.493
西藏,昌都市,2.148,2.724,0.124,0.592,0.132,78.663,4.517,0.719,268.645,52.664,58806.065,30.753,97.044
西藏,林芝市,10.038,11.258,0.698,1.408,0.145,81.229,0.208,0.733,272.499,78.716,66192.885,29.184,95.25
西藏,玉树藏族自治州,0.327,0.377,0.043,0.295,0.125,75.091,6.84,0.399,266.188,35.626,56921.031,34.196,94.317
西藏,那曲市,0.486,0.533,0.037,0.2,0.119,74.51,4.924,0.453,265.341,46.858,55094.191,32.709,89.262
西藏,阿里地区,0.671,0.897,0.105,0.376,0.122,81.182,9.172,0.1,262.753,55.375,54527.562,33.013,82.553
贵州,六盘水市,42.858,66.668,13.343,14.621,0.618,72.391,3.874,0.022,288.621,46.269,82663.699,26.106,104.896
贵州,安顺市,42.5,63.7,11.467,17.99,0.553,67.856,-0.36,1.184,290.883,50.435,87655.891,25.986,105.978
贵州,毕节市,58.693,91.226,12.08,16.319,0.756,78.073,0.613,-0.109,285.984,62.097,83025.263,27.063,105.211
贵州,贵阳市,55.041,82.596,15.461,33.739,0.756,57.617,-0.505,1.999,288.548,65.598,87751.093,26.845,106.71
贵州,遵义市,56.857,78.542,16.812,13.931,0.758,49.52,-3.446,-0.4,284.524,85.394,89989.872,28.167,107.102
贵州,铜仁市,27.669,50.771,16.957,8.743,0.754,41.462,-3.929,-1.317,282.529,91.709,92444.181,27.937,108.534
贵州,黔东南苗族侗族自治州,35.943,53.648,16.326,9.144,0.633,52.721,-2.074,0.552,287.618,83.462,92256.773,26.495,108.574
贵州,黔南布依族苗族自治州,38.741,53.789,11.101,11.462,0.519,65.925,-1.55,2.807,290.592,67.894,89895.44,26.0,107.265
贵州,黔西南布依族苗族自治州,29.205,50.486,10.899,9.265,0.564,69.438,3.621,0.524,292.982,40.272,88049.039,25.256,105.467
辽宁,丹东市,20.822,45.418,9.909,12.104,0.614,66.305,1.463,5.295,268.102,61.245,98441.513,40.554,124.376
辽宁,大连市,25.252,45.366,11.086,17.566,0.536,72.422,1.046,6.938,272.547,61.692,100683.106,39.591,122.22
辽宁,抚顺市,24.593,44.451,11.849,16.032,0.579,67.853,2.575,7.943,266.103,59.658,96398.272,41.841,124.65
辽宁,朝阳市,51.176,112.132,28.077,28.073,1.187,62.107,4.565,7.266,272.162,39.904,95591.238,41.545,120.053
辽宁,本溪市,22.696,45.044,11.492,15.41,0.653,66.714,1.479,7.298,265.973,61.456,95820.214,41.232,124.544
辽宁,沈阳市,35.511,82.732,23.229,26.587,0.82,63.295,2.65,8.364,269.753,49.853,100581.361,42.081,123.159
辽宁,盘锦市,29.529,70.225,19.349,23.339,0.74,70.787,2.385,9.171,271.523,54.02,101292.901,41.13,122.01
辽宁,营口市,25.435,54.467,13.681,19.812,0.619,68.582,0.973,8.457,271.077,52.58,99134.857,40.395,122.478
辽宁,葫芦岛市,40.596,83.813,25.889,31.86,1.056,63.758,3.637,6.924,272.674,50.968,98580.263,40.66,120.215
辽宁,辽阳市,25.455,65.106,16.364,19.954,0.784,70.137,1.309,8.377,270.048,48.879,99304.29,41.153,123.261
辽宁,铁岭市,32.074,61.207,19.449,23.35,0.611,65.824,3.286,8.19,267.28,56.138,98950.722,42.653,124.158
辽宁,锦州市,36.896,88.055,22.113,21.366,0.767,71.759,1.896,8.454,271.166,51.069,100333.57,41.502,121.659
辽宁,阜新市,41.765,98.182,19.33,20.663,0.71,65.108,2.288,7.887,270.032,44.775,98689.738,42.289,121.968
辽宁,鞍山市,23.653,59.212,13.175,17.086,0.674,70.27,1.5,7.464,270.173,53.037,99433.197,40.731,123.007
重庆,重庆城区,41.691,61.236,14.727,22.188,0.818,50.721,-4.019,0.553,286.757,73.365,94511.456,29.824,107.125
重庆,重庆郊县,32.551,47.378,15.829,11.334,0.72,41.148,-2.975,0.742,282.004,83.101,90780.551,30.334,108.755
陕西,咸阳市,97.216,148.614,15.249,41.73,1.219,53.816,0.124,1.024,282.916,52.616,90835.611,34.779,108.367
陕西,商洛市,34.085,52.23,10.51,9.649,0.639,60.094,1.25,3.088,278.214,74.19,88933.904,33.64,109.889
陕西,安康市,26.445,39.191,12.94,10.021,0.701,61.366,-0.021,0.823,278.83,75.9,89531.213,32.735,108.932
陕西,宝鸡市,68.472,113.864,11.403,26.76,0.801,61.075,2.905,3.897,281.141,62.936,85763.685,34.386,107.193
陕西,延安市,47.353,86.785,21.258,31.446,1.222,55.472,4.191,4.663,280.724,52.47,86820.555,36.432,109.316
陕西,榆林市,36.5,68.492,22.526,33.132,1.178,49.953,4.236,4.062,280.034,43.783,87034.107,38.041,109.581
陕西,汉中市,28.999,46.133,12.325,12.029,0.736,64.75,-1.001,1.053,280.188,72.284,88558.345,33.088,107.098
陕西,渭南市,70.802,124.281,25.21,36.413,1.222,50.361,0.036,0.493,283.428,48.887,93210.543,34.919,109.855
陕西,西安市,66.428,104.864,13.346,31.966,0.977,50.578,1.393,2.67,283.379,50.119,89943.341,34.12,108.77
陕西,铜川市,81.719,124.166,17.379,37.412,1.249,55.468,2.417,3.032,281.576,53.353,88534.413,35.198,109.058
青海,保亭黎族苗族自治县,13.122,16.898,2.254,4.408,0.354,19.542,-0.656,2.098,295.134,90.736,96965.468,18.566,109.618
青海,吐鲁番市,6.761,14.151,2.496,4.51,0.276,55.03,1.701,-1.41,279.384,40.498,89197.024,42.386,89.851
青海,果洛藏族自治州,0.411,0.606,0.062,0.786,0.148,84.975,7.009,-0.388,266.862,40.668,59578.391,34.127,99.404
青海,海东市,13.307,18.882,3.673,8.454,0.472,64.257,7.146,-1.367,276.281,25.132,72119.252,36.347,102.34
青海,海北藏族自治州,0.797,1.001,0.393,0.567,0.128,73.816,10.153,-0.901,268.283,36.16,64638.956,37.775,100.288
青海,海南藏族自治州,0.882,0.952,0.115,0.419,0.119,75.43,7.745,-0.639,271.632,29.049,65958.729,35.89,100.272
青海,海西蒙古族藏族自治州,0.623,0.688,0.182,0.328,0.123,69.002,5.433,0.833,269.874,31.279,63949.203,36.677,94.519
青海,西宁市,7.277,12.876,3.035,5.675,0.37,69.409,9.697,-1.448,273.246,28.121,68908.769,36.842,101.423
青海,黄南藏族自治州,2.351,2.558,0.149,0.616,0.128,76.794,6.948,-1.711,271.924,29.677,65329.749,35.022,101.631
香港,香港特别行政区,28.695,37.175,4.035,15.755,0.415,91.055,-3.57,2.93,293.935,95.475,100706.89,22.45,114.22
黑龙江,七台河市,33.767,46.935,10.575,11.606,0.455,75.209,7.306,0.167,259.332,73.014,97458.422,45.87,130.943
黑龙江,伊春市,19.883,23.622,4.929,5.149,0.296,63.305,4.244,-0.633,256.293,75.84,95871.935,47.772,129.184
黑龙江,佳木斯市,15.735,20.697,4.846,6.124,0.305,66.194,6.097,-0.325,259.463,76.315,99379.473,47.207,132.11
黑龙江,双鸭山市,15.789,20.028,5.543,7.067,0.297,63.597,7.624,-0.236,259.545,75.646,98922.634,46.722,132.643
黑龙江,哈尔滨市,39.711,54.143,12.933,15.935,0.564,65.032,2.654,2.414,259.204,77.013,97939.103,45.634,127.964
黑龙江,大兴安岭地区,8.14,9.623,3.837,2.53,0.24,55.209,0.57,-1.898,252.129,76.224,93954.119,52.286,124.212
黑龙江,大庆市,43.7,54.931,13.038,19.463,0.643,64.26,0.404,0.289,260.241,58.908,99259.81,46.327,124.687
黑龙江,牡丹江市,31.582,44.793,10.004,11.308,0.455,65.09,6.751,1.552,260.481,65.869,94614.579,44.592,129.883
黑龙江,绥化市,62.904,85.678,12.196,18.273,0.61,66.87,0.434,0.111,256.385,79.582,98443.552,46.89,126.634
黑龙江,鸡西市,28.641,36.836,8.249,9.183,0.384,61.051,7.971,-1.147,260.447,70.904,98735.405,45.626,132.289
黑龙江,鹤岗市,11.057,13.939,4.663,5.247,0.277,66.327,5.812,-2.142,258.832,69.538,98375.821,47.661,130.778
黑龙江,黑河市,18.976,22.815,4.246,4.124,0.329,52.975,1.53,-1.253,254.452,78.889,96310.582,49.268,127.004
黑龙江,齐齐哈尔市,47.313,54.149,11.887,12.313,0.613,51.714,0.029,-1.153,255.532,72.822,98404.132,47.715,124.57
