province,city,PM2.5,PM10,SO2,NO2,CO,O3,U,V,TEMP,RH,PSFC,lat,lon
上海,上海市,41.246,57.231,11.455,59.748,0.756,30.274,-1.156,1.611,289.348,89.635,101578.302,31.173,121.42
云南,临沧市,43.074,61.516,5.107,9.355,0.594,95.491,3.59,-0.967,289.656,41.692,83819.342,23.935,99.686
云南,丽江市,13.754,21.869,4.638,5.173,0.638,86.982,1.343,-1.049,281.859,51.325,74501.562,26.96,100.515
云南,保山市,37.823,59.34,5.048,12.268,0.62,82.256,3.149,-1.481,287.181,49.402,81796.154,24.953,98.962
云南,大理白族自治州,24.844,42.371,4.181,8.213,0.627,87.232,3.363,-1.252,284.875,46.204,77984.806,25.726,100.053
云南,德宏傣族景颇族自治州,51.686,73.26,6.515,16.39,0.566,83.0,2.097,-2.013,289.843,49.952,86020.277,24.535,98.052
云南,怒江傈僳族自治州,19.561,27.326,2.132,2.564,0.379,90.331,1.786,-1.159,278.78,66.138,72692.295,26.916,98.885
云南,文山壮族苗族自治州,42.55,58.461,6.287,6.086,0.614,92.664,4.704,3.849,291.126,51.468,86350.053,23.696,104.735
云南,昆明市,34.596,52.168,8.079,17.951,0.693,84.572,4.707,1.242,286.088,44.437,79066.693,25.384,102.863
云南,昭通市,31.503,56.668,8.242,10.481,0.595,86.644,-1.06,0.809,288.689,44.948,83863.455,27.667,103.985
云南,普洱市,46.715,62.955,4.661,11.13,0.574,92.946,3.116,-0.285,291.574,36.676,85860.033,23.159,100.718
云南,曲靖市,32.068,45.666,10.51,16.047,0.613,77.674,1.775,1.598,286.315,48.659,79836.623,25.737,103.929
云南,楚雄彝族自治州,28.856,40.556,5.121,11.047,0.592,82.091,3.593,0.105,287.17,43.472,80821.691,25.328,101.567
云南,玉溪市,44.932,66.013,5.236,10.015,0.831,93.475,4.327,1.072,289.548,38.68,83339.703,24.136,102.217
云南,红河哈尼族彝族自治州,48.724,67.333,6.107,6.98,0.685,105.407,3.666,1.748,290.782,40.176,85030.624,23.451,103.034
云南,西双版纳傣族自治州,89.958,98.085,5.536,29.337,1.053,81.442,2.35,0.638,294.177,32.585,88840.065,21.939,100.912
云南,迪庆藏族自治州,8.214,11.477,2.227,2.357,0.313,91.012,2.024,0.424,274.925,63.367,67126.141,27.957,99.459
内蒙古,乌兰察布市,4.174,15.551,2.283,2.116,0.248,73.108,-3.687,-3.818,266.734,47.072,86669.018,41.691,112.44
内蒙古,乌海市,27.158,192.184,14.899,15.626,0.456,73.302,-8.442,-1.418,276.824,39.26,87956.488,39.396,106.856
内蒙古,兴安盟,3.788,4.892,3.007,1.984,0.213,73.332,3.351,-5.499,261.343,59.955,96087.697,46.244,121.341
内蒙古,包头市,5.342,22.393,2.735,3.489,0.275,71.426,-5.219,-2.621,268.497,43.797,86569.098,41.549,110.276
内蒙古,呼伦贝尔市,2.197,2.807,3.022,2.647,0.195,70.637,4.707,-1.24,257.03,70.673,94619.788,49.636,121.171
内蒙古,呼和浩特市,10.177,52.157,5.729,8.524,0.453,67.045,-5.376,-3.305,271.449,39.123,86829.358,40.578,111.513
内蒙古,巴彦淖尔市,6.078,19.395,3.044,3.855,0.239,64.458,-7.061,-2.828,270.775,37.671,87921.479,41.446,107.582
内蒙古,赤峰市,3.642,6.932,2.722,2.196,0.223,76.141,1.07,-8.192,263.979,53.582,93028.144,43.226,118.892
内蒙古,通辽市,6.648,8.402,3.435,3.284,0.237,76.606,0.654,-8.733,266.409,51.2,99289.867,43.814,121.591
内蒙古,鄂尔多斯市,19.617,114.281,9.277,11.099,0.404,59.886,-6.861,-3.475,275.074,42.353,87371.064,39.407,108.63
内蒙古,锡林郭勒盟,1.023,1.845,1.223,0.741,0.179,76.519,-0.236,-3.218,261.693,55.869,90121.95,44.179,115.482
内蒙古,阿拉善盟,46.307,97.98,4.238,2.688,0.194,55.542,-11.153,-0.035,275.293,41.148,87715.97,40.473,102.467
北京,北京市,22.471,46.018,3.856,11.668,0.411,70.798,-4.049,-7.027,277.117,28.576,98832.072,40.158,116.395
台湾,台湾省,13.703,17.207,5.16,17.207,0.199,70.781,-1.438,0.184,291.367,71.854,93118.992,23.757,120.975
吉林,吉林市,14.65,21.968,6.275,8.144,0.497,77.07,1.523,-8.431,264.947,67.917,97994.824,43.573,126.859
吉林,四平市,17.385,22.169,4.608,9.234,0.403,77.118,-1.196,-9.45,266.786,52.789,100656.315,43.472,124.386
吉林,延边朝鲜族自治州,16.389,21.876,6.462,6.487,0.364,74.849,4.216,-7.023,265.44,72.391,94461.306,43.141,129.147
吉林,松原市,8.654,13.852,3.827,5.616,0.349,78.361,0.049,-8.711,265.535,45.289,101203.895,44.785,124.496
吉林,白城市,7.596,10.068,2.869,3.311,0.26,76.328,0.764,-7.206,265.849,44.878,101482.589,45.35,123.031
吉林,白山市,22.195,28.657,8.943,7.927,0.507,72.614,2.066,-7.07,266.482,81.245,92546.326,42.063,127.256
吉林,辽源市,21.17,29.148,6.494,12.097,0.555,76.702,-0.628,-9.77,265.812,68.023,98465.179,42.836,125.32
吉林,通化市,21.406,29.35,8.796,9.865,0.588,78.205,0.199,-9.304,267.216,75.699,96299.318,41.939,125.927
吉林,长春市,12.088,19.511,5.193,9.238,0.478,77.9,0.085,-9.255,265.066,54.122,100563.061,44.268,125.611
四川,乐山市,55.491,75.379,9.508,20.711,0.681,91.062,-1.034,0.297,290.97,39.428,89245.284,29.218,103.569
四川,内江市,69.972,106.457,11.656,45.069,0.982,76.232,-4.027,0.419,294.958,37.025,96215.445,29.62,104.95
四川,凉山彝族自治州,12.911,19.035,5.044,5.283,0.533,93.028,0.362,0.426,281.351,47.895,74021.489,27.883,102.065
四川,南充市,73.255,111.769,10.484,33.286,0.96,78.735,-2.4,-0.384,292.832,48.397,96315.956,31.19,106.199
四川,宜宾市,56.962,87.593,12.6,29.111,0.79,80.673,-2.366,0.085,295.148,33.907,94559.549,28.573,104.621
四川,巴中市,62.853,89.826,11.926,20.548,0.861,73.642,-0.645,-0.529,290.626,47.81,92136.545,32.033,107.031
四川,广元市,75.679,109.551,16.02,24.869,0.848,77.625,0.052,2.12,289.596,53.309,91249.342,32.261,105.788
四川,广安市,63.765,98.993,11.604,35.596,1.004,71.551,-3.361,-0.419,294.126,41.987,96313.316,30.43,106.628
四川,德阳市,101.483,141.928,9.94,41.034,0.915,89.777,-0.322,1.1,290.85,46.929,92777.969,31.13,104.436
四川,成都市,80.835,115.413,9.19,38.329,0.853,93.494,-0.002,-0.7,290.942,46.338,92917.169,30.64,103.929
四川,攀枝花市,22.435,35.329,20.815,19.09,1.251,77.846,-0.544,-0.647,286.982,44.165,81323.309,26.791,101.734
四川,泸州市,44.509,69.352,8.579,21.198,0.665,79.676,-2.398,0.553,293.97,37.367,93010.722,28.424,105.675
四川,甘孜藏族自治州,2.339,2.725,0.36,1.452,0.146,100.736,2.354,2.697,269.188,53.755,61011.219,30.936,100.009
四川,眉山市,73.384,105.027,9.987,31.114,0.85,88.935,-1.361,-0.502,292.271,43.21,93343.555,29.912,103.766
四川,绵阳市,80.587,111.476,10.48,26.746,0.732,90.865,-0.393,1.751,287.54,51.718,87665.449,31.86,104.704
四川,自贡市,77.193,111.942,13.165,45.944,0.993,74.735,-3.909,0.097,295.186,35.751,96173.107,29.307,104.659
四川,资阳市,62.332,105.007,8.356,35.174,0.953,81.613,-3.495,0.378,294.221,41.06,96486.893,30.102,105.149
四川,达州市,57.178,80.746,11.83,25.49,0.953,76.8,-1.895,-0.821,291.772,46.806,93705.311,31.335,107.636
四川,遂宁市,76.192,125.921,9.99,39.939,1.021,79.833,-2.695,0.108,293.37,46.218,96745.621,30.642,105.457
四川,阿坝藏族羌族自治州,8.223,10.943,1.79,2.405,0.187,103.272,2.331,3.104,272.886,47.877,65338.271,32.406,102.61
四川,雅安市,32.734,40.153,4.635,6.907,0.371,103.059,0.852,-1.019,283.645,46.221,79854.788,29.932,102.689
天津,天津市,43.891,102.733,10.195,23.916,0.765,68.864,-7.931,-7.681,277.803,38.867,102626.375,39.315,117.308
宁夏,中卫市,58.553,366.106,17.538,12.028,0.401,64.298,-5.737,-0.841,280.973,44.308,83447.769,37.018,105.509
宁夏,吴忠市,43.414,247.41,15.709,9.562,0.336,57.338,-7.647,-1.237,280.655,43.926,85097.288,37.454,106.577
宁夏,固原市,51.853,226.177,14.947,23.779,0.545,83.169,-2.503,3.79,282.126,47.011,80840.447,35.905,106.183
宁夏,石嘴山市,40.218,278.428,18.812,15.737,0.525,75.051,-5.438,-1.986,277.098,40.271,87024.501,39.013,106.499
宁夏,银川市,45.022,295.765,14.173,11.006,0.395,64.07,-7.312,-4.352,279.52,40.309,87204.741,38.287,106.342
安徽,亳州市,55.019,85.961,11.684,26.176,0.786,55.525,-1.538,-2.898,288.274,77.022,101319.944,33.44,116.162
安徽,六安市,30.159,45.699,9.108,15.721,0.633,76.317,-0.982,-0.795,290.064,76.987,98694.359,31.617,116.209
安徽,合肥市,37.549,53.935,7.979,24.379,0.743,68.625,-1.717,-0.699,290.269,77.78,101064.307,31.766,117.359
安徽,安庆市,38.548,47.372,9.478,13.979,0.64,79.057,-0.047,-0.467,290.657,80.222,99074.043,30.557,116.473
安徽,宣城市,28.529,40.636,6.598,18.653,0.621,64.751,-1.729,1.131,291.55,73.13,99056.284,30.676,118.846
安徽,宿州市,69.943,96.916,13.236,32.479,0.783,49.779,-2.82,-2.783,287.125,76.969,101323.183,33.844,117.23
安徽,池州市,26.435,34.497,7.874,13.251,0.541,72.711,-0.786,0.773,292.211,71.525,99236.834,30.296,117.379
安徽,淮北市,61.732,90.252,14.46,34.067,0.785,52.322,-2.863,-2.514,287.567,76.882,101350.922,33.722,116.747
安徽,淮南市,37.618,60.087,9.67,24.81,0.726,65.582,-2.531,-1.899,289.191,78.178,101277.375,32.463,116.746
安徽,滁州市,47.919,65.929,9.688,27.54,0.717,56.47,-2.014,-1.182,288.47,80.676,101038.899,32.55,118.076
安徽,芜湖市,31.571,44.791,9.196,26.537,0.798,68.358,-1.439,-0.77,291.106,77.577,101217.498,31.167,118.162
安徽,蚌埠市,52.199,72.905,12.197,28.983,0.719,55.782,-2.468,-1.969,288.172,78.531,101329.489,33.121,117.263
安徽,铜陵市,34.571,47.15,11.621,27.428,0.773,73.03,-0.596,-0.942,291.35,77.729,101041.696,30.883,117.531
安徽,阜阳市,48.695,79.558,11.182,22.535,0.773,55.702,-0.966,-2.737,288.903,78.107,101251.458,32.937,115.723
安徽,马鞍山市,37.336,54.385,9.834,32.037,0.845,61.956,-1.347,-0.327,289.936,81.344,101260.573,31.622,118.386
安徽,黄山市,25.221,37.611,7.504,13.012,0.58,57.144,-0.973,1.408,291.293,72.53,97070.795,29.869,118.09
山东,东营市,34.861,65.648,8.78,15.167,0.496,69.841,-6.6,-10.65,278.155,69.932,102386.129,37.57,118.572
山东,临沂市,54.384,117.322,11.874,28.775,0.806,50.09,-3.25,-5.907,282.63,78.552,100026.565,35.289,118.27
山东,威海市,28.299,50.55,9.176,16.33,0.617,64.0,0.735,-8.633,278.132,80.671,101289.979,37.148,122.028
山东,德州市,37.289,79.906,9.337,14.525,0.597,69.177,-7.315,-7.107,280.535,62.894,102198.404,37.233,116.679
山东,日照市,48.627,102.096,10.5,27.319,0.737,46.466,-0.739,-7.297,281.135,82.115,100178.623,35.566,119.108
山东,枣庄市,68.72,131.878,15.822,30.118,0.839,49.96,-4.52,-3.802,285.128,74.719,100684.097,34.925,117.383
山东,泰安市,46.855,110.283,13.706,22.478,0.885,63.399,-5.509,-6.474,282.266,72.783,100029.218,35.993,117.04
山东,济南市,41.718,92.772,13.177,19.009,0.755,72.304,-6.666,-6.953,280.19,72.149,100192.904,36.639,117.254
山东,济宁市,54.774,120.885,15.579,26.85,0.919,55.712,-4.47,-5.188,284.447,72.41,101236.541,35.375,116.697
山东,淄博市,45.078,90.778,13.659,21.736,0.803,71.739,-4.988,-7.099,279.135,76.904,99589.368,36.623,118.062
山东,滨州市,34.691,66.605,8.824,14.897,0.533,72.125,-7.144,-8.849,278.853,65.994,102343.038,37.516,117.852
山东,潍坊市,46.563,92.141,9.193,19.723,0.659,64.609,-2.144,-8.426,279.511,77.607,101000.525,36.53,119.092
山东,烟台市,29.662,65.735,7.736,15.422,0.543,65.754,-1.943,-9.138,277.386,79.665,100931.88,37.25,120.789
山东,聊城市,46.196,103.092,10.847,17.768,0.739,62.959,-5.695,-6.637,282.263,65.703,101802.245,36.458,115.863
山东,菏泽市,53.826,125.138,12.115,25.831,0.988,53.766,-3.069,-6.782,284.327,72.208,101408.612,35.134,115.69
山东,青岛市,40.364,84.629,7.494,22.336,0.638,52.501,-1.45,-7.312,279.852,77.686,101419.394,36.46,120.172
山西,临汾市,76.662,176.745,26.893,31.588,1.385,73.327,-5.256,-1.46,284.02,38.851,90168.617,36.227,111.398
山西,吕梁市,56.467,191.142,20.193,30.342,1.218,51.222,-5.793,-0.586,281.101,38.989,87844.548,37.663,111.27
山西,大同市,11.759,51.949,3.971,6.0,0.402,66.607,-3.27,-5.354,271.883,39.322,87807.612,39.911,113.713
山西,太原市,56.438,203.733,15.783,31.177,0.959,58.602,-5.661,-2.542,277.678,43.854,87934.02,37.967,112.321
山西,忻州市,29.906,108.043,10.3,14.997,0.629,58.529,-5.34,-2.014,275.417,42.915,86454.637,38.877,112.391
山西,晋中市,64.627,166.726,15.745,28.052,1.026,66.846,-6.565,-4.075,278.087,46.303,88812.631,37.328,112.997
山西,晋城市,86.762,156.243,22.675,27.929,1.49,74.996,-4.93,-5.008,282.564,48.475,90568.464,35.625,112.752
山西,朔州市,18.779,96.172,8.803,10.332,0.571,67.686,-5.052,-3.622,272.302,43.463,87084.122,39.619,112.655
山西,运城市,80.855,181.54,35.759,37.808,1.387,78.817,-5.54,1.093,287.625,38.751,94247.71,35.205,111.071
山西,长治市,68.356,143.415,15.271,24.483,1.053,73.639,-5.945,-2.749,279.542,49.852,89039.687,36.48,112.915
山西,阳泉市,84.573,189.892,12.193,33.421,1.237,67.233,-7.405,-2.503,276.677,43.203,90932.737,38.031,113.512
广东,东莞市,44.407,62.2,9.198,66.086,0.922,26.294,-0.758,2.091,295.598,79.829,101130.166,22.931,113.81
广东,中山市,32.837,44.773,9.099,49.698,0.707,35.968,-0.733,1.928,295.64,80.488,101131.794,22.5,113.383
广东,云浮市,34.225,41.583,3.061,15.569,0.688,46.64,0.643,3.083,295.507,69.508,99079.447,22.776,111.818
广东,佛山市,44.71,62.056,10.32,63.977,0.964,24.327,-0.294,2.074,296.31,74.482,101143.371,23.035,112.979
广东,广州市,48.073,65.437,10.855,64.567,0.885,26.726,-0.786,2.357,295.52,76.85,100262.026,23.339,113.525
广东,惠州市,35.397,45.781,5.65,28.97,0.638,46.925,-0.674,1.977,294.947,78.548,99312.532,23.244,114.485
广东,揭阳市,86.358,105.362,16.418,50.342,1.383,45.233,-2.53,0.03,293.998,86.109,99965.529,23.323,116.123
广东,梅州市,51.279,62.432,7.411,28.593,1.066,48.13,-2.055,2.819,293.617,80.994,97920.307,24.169,116.07
广东,汕头市,69.796,76.846,14.265,49.306,1.01,53.748,-4.133,-0.926,294.103,88.453,101094.906,23.339,116.614
广东,汕尾市,56.033,73.439,6.975,25.345,0.955,56.862,-2.009,0.369,294.354,84.387,99678.397,23.024,115.527
广东,江门市,29.333,35.605,3.991,24.785,0.554,50.456,-0.242,2.12,295.177,81.589,100565.004,22.289,112.676
广东,河源市,36.297,44.992,4.579,18.621,0.723,53.489,0.077,2.314,294.212,76.811,98080.464,24.021,114.969
广东,深圳市,35.806,53.758,7.069,52.024,0.794,35.9,-1.607,2.161,295.029,84.424,100662.127,22.667,114.143
广东,清远市,35.312,42.577,5.833,27.471,0.638,51.403,0.815,3.363,293.653,77.484,97546.927,24.295,112.871
广东,湛江市,22.222,29.29,4.92,13.496,0.567,65.225,-1.144,2.65,295.753,77.871,100954.695,21.091,110.163
广东,潮州市,70.718,78.308,9.512,42.804,1.108,46.448,-4.104,0.639,293.346,86.451,99428.047,23.755,116.754
广东,珠海市,15.118,20.587,4.018,21.823,0.332,62.832,-0.95,1.412,294.715,87.562,101227.943,22.095,113.317
广东,肇庆市,35.959,43.53,4.13,21.841,0.66,45.528,0.586,2.7,295.12,72.592,99182.205,23.505,112.199
广东,茂名市,30.148,38.145,4.935,14.398,0.708,59.46,-0.221,3.548,294.965,75.974,99174.394,22.013,110.952
广东,阳江市,26.999,30.153,2.687,11.343,0.525,56.188,0.086,2.733,294.802,79.656,99715.571,22.042,111.786
广东,韶关市,28.317,34.721,8.848,20.807,0.755,61.863,1.272,3.382,293.342,76.596,96767.721,24.785,113.819
广西,北海市,26.442,36.753,5.831,14.243,0.645,65.754,0.521,1.894,295.679,76.423,100982.021,21.674,109.37
广西,南宁市,34.951,46.44,5.982,16.92,0.702,62.574,0.724,4.719,294.733,79.211,99057.1,23.051,108.469
广西,崇左市,34.997,36.413,4.173,7.02,0.486,73.22,1.806,4.914,294.475,80.29,97745.14,22.483,107.291
广西,来宾市,37.262,48.865,7.083,11.626,0.608,62.979,1.52,4.133,294.208,76.721,97899.447,23.859,109.417
广西,柳州市,33.747,46.516,6.649,12.066,0.601,59.449,0.661,3.48,293.345,78.25,97268.986,24.956,109.372
广西,桂林市,33.316,42.573,7.833,13.44,0.635,57.135,1.984,2.926,292.385,77.729,95670.576,25.353,110.513
广西,梧州市,39.234,51.663,6.382,17.204,0.795,49.522,1.419,2.909,294.924,71.421,98773.658,23.484,110.996
广西,河池市,31.537,46.885,5.631,7.709,0.542,68.407,-0.136,3.926,292.798,77.548,94898.585,24.628,107.843
广西,玉林市,34.075,49.363,7.753,17.015,0.773,59.19,0.818,3.764,295.241,75.204,99195.521,22.452,110.164
广西,百色市,33.625,45.631,7.729,8.146,0.826,79.459,0.371,3.76,293.227,66.414,92780.593,23.981,106.292
广西,贵港市,42.891,60.885,9.066,18.562,0.833,54.987,1.63,3.307,295.408,73.23,99588.406,23.322,110.021
广西,贺州市,36.662,45.779,5.332,10.986,0.706,56.158,1.349,3.261,293.356,75.803,96954.498,24.364,111.394
广西,钦州市,31.197,41.615,6.008,16.168,0.73,60.151,0.97,3.844,294.976,80.067,100243.273,22.173,109.01
广西,防城港市,20.954,24.198,3.502,7.796,0.436,69.349,1.366,5.12,293.709,85.588,98634.538,21.88,108.002
新疆,乌鲁木齐市,8.405,11.48,2.738,10.274,0.31,53.604,1.772,-0.847,274.077,62.694,84093.006,43.746,87.818
新疆,五家渠市,10.46,12.7,5.213,8.657,0.417,46.927,3.67,-1.27,277.57,64.89,96690.853,44.363,87.517
新疆,伊犁哈萨克自治州,7.358,9.685,3.862,2.724,0.265,64.404,-0.271,1.035,271.707,84.74,80065.676,43.438,82.146
新疆,克孜勒苏柯尔克孜自治州,9.639,42.295,0.768,0.893,0.224,73.415,4.149,0.337,268.384,57.411,69845.559,39.661,75.949
新疆,克拉玛依市,9.959,17.114,3.307,7.164,0.306,54.006,0.448,-1.418,277.269,76.639,97580.963,45.457,85.207
新疆,北屯市,2.606,3.532,4.876,4.616,0.21,84.266,-2.536,-0.284,275.428,59.718,95688.184,47.27,87.868
新疆,博尔塔拉蒙古自治州,9.064,10.819,3.986,2.628,0.301,56.367,0.507,0.644,271.893,89.586,86140.108,44.714,82.114
新疆,双河市,11.514,13.642,5.728,4.14,0.42,50.366,0.06,-1.316,276.484,83.654,98116.056,44.87,82.474
新疆,可克达拉市,13.362,18.06,9.472,5.872,0.448,58.288,0.52,-0.02,278.158,82.826,94765.018,43.918,80.786
新疆,和田地区,25.09,40.217,1.9,0.917,0.22,68.715,4.266,0.748,274.579,43.865,73446.794,37.059,80.934
新疆,哈密市,21.247,31.186,1.037,0.962,0.195,54.2,-7.137,1.374,280.026,35.559,87992.618,43.042,93.517
新疆,喀什地区,18.941,56.885,2.266,1.704,0.254,69.692,3.683,0.877,274.603,46.887,75554.383,38.125,77.178
新疆,图木舒克市,15.267,40.322,3.555,2.148,0.242,58.925,-3.687,-1.595,284.173,43.193,88718.105,39.892,79.182
新疆,塔城地区,7.38,9.658,2.618,3.04,0.236,60.569,-0.212,-0.582,273.693,82.256,89592.885,45.642,84.789
新疆,巴音郭楞蒙古自治州,13.987,16.783,1.076,0.533,0.158,64.701,-0.531,-0.344,278.144,38.529,78638.904,39.463,87.481
新疆,新星市,25.825,86.16,5.895,11.6,0.63,62.04,-2.87,0.105,285.915,23.985,92232.305,42.75,93.68
新疆,昆玉市,71.823,137.993,5.297,4.0,0.573,56.69,1.04,-1.907,283.49,38.593,86397.603,37.457,79.093
新疆,昌吉回族自治州,9.398,13.018,3.771,5.892,0.274,49.615,0.914,-0.269,275.635,60.556,89857.234,44.342,88.608
新疆,石河子市,17.58,20.97,6.95,15.16,0.405,47.44,0.59,-0.72,276.92,73.06,94789.195,44.245,86.035
新疆,胡杨河市,14.356,20.926,2.464,4.734,0.316,54.2,1.402,-0.814,276.148,86.582,98089.95,44.852,84.772
新疆,铁门关市,22.547,93.253,5.813,7.387,0.517,85.423,-4.82,-1.613,287.023,24.567,91108.49,41.773,85.66
新疆,阿克苏地区,27.983,77.231,2.839,4.457,0.308,58.572,-3.018,-2.326,279.776,50.075,84756.545,40.965,81.578
新疆,阿勒泰地区,1.798,2.136,1.134,1.198,0.17,63.411,-3.411,1.341,274.177,59.015,88520.47,46.902,88.421
新疆,阿拉尔市,44.678,154.899,3.96,8.862,0.497,54.679,-4.252,-4.998,283.373,44.167,89576.862,40.629,80.998
江苏,南京市,42.524,61.488,11.359,36.774,0.848,52.344,-1.714,-0.025,289.295,82.854,101345.334,31.899,118.876
江苏,南通市,41.284,63.023,13.72,49.556,0.845,33.538,-0.321,1.03,288.227,90.057,101577.736,32.201,120.979
江苏,宿迁市,67.842,93.737,12.193,35.897,0.834,38.579,-2.945,-2.774,286.09,80.792,101586.53,33.765,118.495
江苏,常州市,49.521,66.844,10.204,48.577,0.967,40.006,-2.093,0.981,289.436,86.098,101411.338,31.613,119.666
江苏,徐州市,78.983,121.806,13.478,35.076,0.847,44.271,-3.315,-3.188,285.909,76.888,101379.236,34.363,117.513
江苏,扬州市,58.963,83.509,14.622,45.536,0.981,39.278,-1.169,-0.578,287.637,84.656,101563.331,32.709,119.486
江苏,无锡市,48.629,70.159,12.096,59.024,1.078,28.402,-1.91,1.325,289.343,86.858,101334.264,31.546,120.066
江苏,泰州市,64.018,86.55,13.541,51.422,1.049,35.868,-0.851,0.145,287.684,87.573,101532.643,32.605,120.048
江苏,淮安市,61.836,89.232,13.256,38.204,0.892,37.23,-2.229,-2.213,286.473,82.311,101553.256,33.362,118.985
江苏,盐城市,68.639,91.53,12.971,46.545,0.948,33.318,-1.205,-1.987,285.989,87.772,101639.491,33.529,120.156
江苏,苏州市,42.99,67.815,11.638,62.5,0.948,22.907,-1.707,1.458,289.385,87.814,101516.305,31.374,120.661
江苏,连云港市,67.733,112.957,14.538,40.651,0.875,33.041,-2.337,-4.238,284.289,81.467,101556.501,34.519,119.133
江苏,镇江市,53.336,71.709,11.349,45.512,0.918,43.448,-1.095,0.754,288.702,86.559,101407.474,32.016,119.49
江西,上饶市,35.292,44.711,11.898,17.16,0.629,47.378,0.145,2.527,293.201,69.792,99097.17,28.778,117.47
江西,九江市,33.213,43.486,8.38,10.809,0.591,75.619,0.149,1.093,292.244,75.343,98987.809,29.313,115.444
江西,南昌市,35.119,45.162,9.7,17.977,0.708,65.323,0.726,2.01,294.215,70.578,100854.389,28.671,116.016
江西,吉安市,24.773,32.49,8.235,9.232,0.584,72.163,1.523,3.048,294.841,65.513,98627.982,26.954,114.831
江西,宜春市,32.756,43.755,9.515,11.696,0.673,72.147,1.199,0.78,293.404,71.227,98948.008,28.29,114.974
江西,抚州市,26.644,28.524,6.736,7.608,0.413,66.382,0.723,3.676,294.078,71.06,98678.578,27.514,116.42
江西,新余市,33.279,46.129,11.347,16.349,0.803,64.648,1.391,1.123,294.61,66.946,99860.719,27.847,114.836
江西,景德镇市,32.526,40.697,9.012,12.343,0.581,53.049,-0.416,1.686,293.392,69.204,99900.783,29.287,117.24
江西,萍乡市,30.904,44.482,12.155,14.699,0.852,60.908,2.164,2.31,293.665,68.434,97628.167,27.505,113.908
江西,赣州市,25.034,29.95,6.672,13.109,0.786,71.005,0.743,4.03,293.673,73.893,97075.959,25.692,115.279
江西,鹰潭市,33.844,35.657,11.283,15.725,0.503,51.545,0.881,3.833,294.296,68.919,99608.737,28.222,117.094
河北,保定市,43.87,91.209,6.946,18.265,0.594,63.871,-7.178,-5.633,279.685,29.799,98674.02,39.018,115.159
河北,唐山市,29.985,72.348,10.327,16.492,0.667,68.669,-6.555,-9.976,275.466,43.716,102121.22,39.731,118.354
河北,廊坊市,47.961,104.96,8.314,22.457,0.707,67.979,-7.641,-6.632,279.292,32.995,102656.199,39.267,116.632
河北,张家口市,6.418,22.718,2.644,4.82,0.295,70.021,-0.817,-6.454,269.438,40.202,88347.525,40.877,115.042
河北,承德市,7.545,15.102,3.108,3.646,0.245,76.184,-2.628,-9.019,268.222,43.753,91797.662,41.339,117.578
河北,沧州市,48.697,95.937,9.616,22.125,0.651,65.436,-8.72,-7.729,279.138,52.446,102531.499,38.258,116.744
河北,石家庄市,81.309,164.068,9.513,25.913,1.07,64.93,-6.893,-5.343,281.144,34.474,99163.76,38.135,114.407
河北,秦皇岛市,15.588,29.4,4.835,6.582,0.363,71.222,-5.158,-12.393,272.402,52.948,99712.189,40.12,119.193
河北,衡水市,53.412,105.818,10.306,20.518,0.738,63.272,-7.894,-6.792,281.326,49.471,102277.103,37.755,115.813
河北,邢台市,67.136,133.914,11.002,21.346,0.907,63.653,-4.688,-6.994,282.435,47.495,100666.163,37.195,114.815
河北,邯郸市,61.107,131.173,11.756,21.704,0.947,61.057,-4.115,-7.773,282.62,54.017,100057.07,36.538,114.596
河南,三门峡市,63.218,127.064,18.999,24.882,0.902,81.585,-5.554,1.055,286.001,46.099,91842.441,34.362,111.101
河南,信阳市,46.894,74.054,11.497,18.185,0.706,59.295,-0.425,-1.599,289.172,79.34,100235.636,32.091,114.907
河南,南阳市,69.029,137.863,10.401,23.294,1.019,61.733,-3.92,-5.192,286.815,64.468,98264.636,33.034,112.323
河南,周口市,61.166,131.944,11.512,28.838,0.949,45.868,-1.765,-5.464,286.214,73.836,101159.032,33.738,114.884
河南,商丘市,63.487,117.308,12.887,29.711,0.889,50.356,-2.129,-5.455,286.246,73.761,101279.707,34.277,115.718
河南,安阳市,58.389,139.165,11.83,24.911,1.041,58.813,-3.125,-9.008,282.94,57.455,99567.686,35.888,114.318
河南,平顶山市,71.999,164.386,10.122,29.51,1.076,51.695,-4.306,-6.507,285.654,62.127,99038.743,33.8,113.025
河南,开封市,57.607,152.692,10.468,28.258,0.94,47.197,-4.016,-9.073,284.074,70.731,101063.521,34.594,114.514
河南,新乡市,58.735,147.945,11.457,28.585,0.996,53.779,-5.227,-10.984,283.928,60.646,100221.102,35.256,114.111
河南,洛阳市,65.775,138.927,15.474,25.153,1.04,69.214,-4.879,-1.91,285.246,52.939,94350.216,34.274,112.019
河南,济源市,85.479,164.453,24.706,34.776,1.642,69.855,-5.778,-0.958,286.587,45.209,96223.044,35.105,112.445
河南,漯河市,71.468,163.118,9.295,35.302,1.053,41.21,-2.635,-6.969,285.249,71.641,101044.269,33.652,113.945
河南,濮阳市,48.841,127.414,10.496,20.76,0.944,56.412,-3.744,-7.908,283.07,67.04,101563.431,35.809,115.283
河南,焦作市,75.096,169.345,15.808,35.409,1.248,57.071,-8.881,-5.43,287.006,46.783,99887.74,35.121,113.163
河南,许昌市,66.959,171.959,9.359,34.553,1.059,45.913,-4.821,-8.886,284.953,68.015,100414.781,34.075,113.707
河南,郑州市,67.042,177.271,11.229,34.152,1.082,52.712,-7.256,-7.795,284.806,61.163,99158.218,34.634,113.438
河南,驻马店市,65.693,130.197,11.377,25.026,0.976,48.631,-0.801,-4.397,286.933,76.256,100631.939,32.925,114.174
河南,鹤壁市,56.342,137.396,11.798,26.719,1.047,54.584,-2.769,-9.711,283.476,58.984,100736.527,35.716,114.319
浙江,丽水市,25.006,31.146,6.745,16.829,0.469,56.211,0.786,4.308,289.65,78.827,94524.086,28.194,119.51
浙江,台州市,27.021,42.441,7.865,35.214,0.552,40.926,0.949,3.891,290.229,90.505,98824.471,28.742,121.109
浙江,嘉兴市,52.285,77.048,9.005,68.387,0.903,22.863,-2.107,1.502,290.389,81.047,101507.056,30.635,120.754
浙江,宁波市,31.842,47.491,7.904,45.297,0.57,46.853,-0.348,2.967,290.671,82.313,100306.24,29.706,121.49
浙江,杭州市,42.158,63.189,8.63,39.942,0.765,38.76,-1.171,2.253,290.609,74.854,98543.904,29.891,119.464
浙江,温州市,30.264,43.068,8.157,37.719,0.646,41.378,1.03,2.768,289.515,88.595,97646.668,27.897,120.411
浙江,湖州市,47.441,71.762,9.147,51.407,0.916,34.763,-2.273,2.183,290.773,78.689,100180.98,30.757,119.871
浙江,绍兴市,40.64,59.661,7.083,44.878,0.73,41.153,-0.655,3.431,291.202,73.035,99417.704,29.709,120.64
浙江,舟山市,15.04,24.495,5.953,26.398,0.298,65.502,-0.528,3.628,289.428,91.145,101352.23,30.038,122.23
浙江,衢州市,33.347,47.086,9.797,26.826,0.636,40.529,0.36,2.691,291.787,72.078,97757.928,28.912,118.675
浙江,金华市,34.038,47.634,7.148,34.74,0.625,44.698,-0.757,3.813,291.011,73.517,98063.421,29.109,119.967
海南,万宁市,11.757,14.976,1.328,3.433,0.213,80.136,1.198,3.682,295.16,84.296,99963.362,18.842,110.294
海南,三亚市,15.264,17.737,2.44,9.91,0.481,61.113,-2.429,1.663,294.729,81.727,98747.491,18.413,109.407
海南,东方市,13.048,15.667,1.441,2.849,0.198,77.128,-2.053,3.952,297.045,63.568,99302.619,18.971,108.838
海南,临高县,17.089,23.01,2.209,6.729,0.351,69.33,0.096,-0.134,295.789,69.653,100499.243,19.821,109.733
海南,乐东黎族自治县,14.392,16.611,1.292,4.055,0.28,70.208,-2.323,2.82,294.79,76.057,97838.42,18.659,109.072
海南,五指山市,16.354,18.13,1.73,5.168,0.28,68.93,-1.388,3.56,293.526,74.33,94634.412,18.81,109.518
海南,儋州市,17.284,21.425,2.125,4.572,0.271,77.801,0.215,-0.96,295.954,68.146,100153.132,19.568,109.399
海南,定安县,14.495,19.648,2.112,8.092,0.362,67.973,-1.172,3.942,296.383,74.007,100205.0,19.47,110.28
海南,屯昌县,13.67,17.164,1.324,5.104,0.288,71.976,-0.816,4.166,296.548,68.44,99409.58,19.342,110.076
海南,文昌市,10.039,15.514,1.585,4.771,0.252,76.245,-1.594,2.811,295.24,86.669,101014.005,19.707,110.773
海南,昌江黎族自治县,16.023,19.019,2.42,3.819,0.221,80.207,-0.503,1.074,295.816,67.968,98303.5,19.233,109.016
海南,海口市,15.488,22.363,2.988,11.333,0.408,62.052,-1.679,2.435,296.167,77.168,100786.108,19.842,110.393
海南,澄迈县,17.62,23.75,3.166,10.194,0.414,68.323,-0.557,1.091,296.599,67.791,100316.761,19.676,109.989
海南,琼中黎族苗族自治县,15.566,18.06,1.237,4.164,0.249,73.572,0.556,3.95,295.598,67.201,97234.739,19.087,109.847
海南,琼海市,12.112,16.485,1.733,5.238,0.262,74.847,-0.422,3.597,296.013,80.59,100779.718,19.22,110.43
海南,白沙黎族自治县,16.414,18.785,1.688,3.669,0.236,77.871,0.506,2.48,295.926,62.434,96943.706,19.2,109.388
海南,陵水黎族自治县,15.393,17.31,1.223,5.877,0.337,68.544,0.936,1.411,294.773,82.034,99305.524,18.581,109.913
湖北,仙桃市,41.126,59.376,7.824,19.03,0.828,63.159,-0.803,-1.643,291.938,75.175,101057.096,30.284,113.417
湖北,十堰市,56.442,86.259,12.212,11.916,0.703,92.112,-2.491,-0.04,287.942,54.948,93311.785,32.462,110.476
湖北,咸宁市,31.806,45.059,7.44,11.895,0.757,77.012,0.85,1.183,292.498,72.602,99174.836,29.621,114.178
湖北,天门市,52.881,77.231,9.362,24.33,1.016,51.106,-1.573,-2.175,291.305,77.292,101039.329,30.633,113.053
湖北,孝感市,49.244,72.952,9.399,26.57,0.884,48.446,-2.058,-2.348,290.02,79.37,100488.775,31.116,113.869
湖北,宜昌市,44.874,64.147,9.837,13.691,0.772,71.676,-0.87,-3.537,289.648,57.996,94022.87,30.746,111.129
湖北,恩施土家族苗族自治州,40.075,54.518,12.081,10.146,0.746,69.531,-1.186,-0.562,288.802,56.359,89467.426,30.195,109.552
湖北,武汉市,41.743,62.252,8.778,31.833,0.966,52.791,-1.656,-1.292,291.357,76.869,100970.243,30.606,114.349
湖北,潜江市,52.246,74.766,11.126,22.07,0.993,56.393,-1.081,-1.61,292.086,75.024,101020.038,30.33,112.77
湖北,神农架林区,40.667,53.957,8.834,5.178,0.454,96.905,-0.344,-2.558,283.027,60.962,82985.048,31.592,110.49
湖北,荆州市,45.267,64.824,10.957,18.404,0.942,62.183,-0.446,-1.817,292.796,68.058,100763.317,30.01,112.512
湖北,荆门市,55.785,87.748,11.31,23.832,1.019,47.102,-1.349,-3.16,290.211,76.733,100070.067,31.059,112.616
湖北,襄阳市,60.703,108.108,11.21,18.855,0.862,65.057,-1.397,-3.937,287.722,69.282,97460.681,31.919,111.96
湖北,鄂州市,37.549,55.756,10.667,28.753,1.094,63.2,-1.007,-0.283,292.426,74.624,100989.696,30.337,114.794
湖北,随州市,55.225,89.724,11.116,19.715,0.939,49.92,-2.382,-2.76,288.039,81.558,99437.461,31.809,113.43
湖北,黄冈市,40.312,56.248,10.468,17.178,0.859,68.219,-2.158,-0.211,290.962,79.009,99301.969,30.702,115.358
湖北,黄石市,36.102,51.191,9.344,18.874,0.919,74.327,-0.099,0.8,292.41,74.542,100009.194,29.925,115.034
湖南,娄底市,29.817,47.641,11.859,16.381,0.875,59.475,1.579,0.593,293.477,66.115,96988.231,27.715,111.632
湖南,岳阳市,33.813,47.725,10.128,12.854,0.716,74.879,-0.202,1.274,293.282,70.422,99858.379,29.081,113.275
湖南,常德市,35.814,52.404,12.428,11.784,0.83,71.958,0.533,-1.965,293.584,61.099,99046.075,29.271,111.524
湖南,张家界市,34.283,51.0,11.599,9.605,0.787,71.711,0.142,-1.761,291.864,60.274,95146.746,29.379,110.526
湖南,怀化市,32.895,54.327,10.715,10.758,0.659,68.605,0.753,2.427,292.656,70.658,96085.163,27.535,110.071
湖南,株洲市,25.539,37.783,10.977,13.884,0.71,64.552,2.122,3.264,293.898,68.056,97750.957,27.109,113.513
湖南,永州市,29.332,37.083,7.642,10.397,0.621,66.099,2.387,3.215,293.264,71.15,96383.58,25.748,111.723
湖南,湘潭市,25.703,45.425,10.955,22.909,0.885,55.763,1.015,2.225,294.935,65.16,99939.573,27.744,112.619
湖南,湘西土家族苗族自治州,40.905,65.893,12.987,13.259,0.858,50.652,-0.735,0.337,292.226,63.655,95057.537,28.708,109.718
湖南,益阳市,28.461,46.029,10.568,12.061,0.816,68.987,0.961,0.443,293.586,67.652,98551.786,28.525,111.919
湖南,衡阳市,26.179,40.033,10.424,17.206,0.799,60.477,1.334,2.836,295.136,65.229,99490.971,26.781,112.565
湖南,邵阳市,33.341,45.799,11.07,11.223,0.624,69.36,2.083,1.364,292.251,69.998,94806.38,26.893,110.881
湖南,郴州市,21.643,30.912,9.28,12.478,0.809,69.126,1.528,3.636,292.751,73.203,95603.236,25.769,113.109
湖南,长沙市,30.582,46.682,11.493,19.029,0.798,64.558,-0.117,1.081,293.922,68.261,99374.264,28.235,113.159
甘肃,临夏回族自治州,35.884,113.608,13.929,23.307,0.802,69.789,-1.01,0.011,280.964,40.068,77144.911,35.617,103.291
甘肃,兰州市,42.635,214.832,11.858,19.124,0.66,68.125,-4.965,-0.599,280.806,42.948,78816.124,36.359,103.633
甘肃,嘉峪关市,167.623,226.773,12.273,19.812,0.508,83.473,-9.173,0.982,276.643,50.345,81299.942,39.798,98.145
甘肃,天水市,42.332,98.822,14.237,22.43,0.628,83.548,-2.882,5.519,285.085,46.32,82478.085,34.645,105.739
甘肃,定西市,35.677,96.074,10.872,14.402,0.612,89.817,-2.526,5.48,281.91,40.522,76994.493,35.124,104.432
甘肃,平凉市,52.396,170.82,14.034,27.797,0.682,87.261,-2.327,3.195,284.855,45.205,84377.919,35.304,106.644
甘肃,庆阳市,43.552,129.105,15.901,18.172,0.553,79.932,-3.678,1.558,283.88,43.815,85722.513,36.149,107.596
甘肃,张掖市,70.185,260.986,4.764,4.072,0.231,70.459,-3.218,2.226,276.652,39.581,74226.103,38.94,99.855
甘肃,武威市,56.947,243.636,8.472,5.592,0.301,60.574,-7.112,1.343,277.111,46.986,81283.72,38.163,103.073
甘肃,甘南藏族自治州,5.654,10.157,1.593,2.339,0.208,101.714,2.217,5.21,275.903,34.22,67429.682,34.331,102.768
甘肃,白银市,53.277,303.328,14.43,13.565,0.531,68.715,-4.906,0.891,281.364,43.948,81265.728,36.59,104.646
甘肃,酒泉市,44.177,45.914,1.729,1.195,0.158,61.962,-7.473,0.955,276.807,35.464,78689.824,40.236,96.062
甘肃,金昌市,100.973,472.451,9.915,6.576,0.287,63.904,-7.18,3.114,275.927,54.513,80425.105,38.44,102.048
甘肃,陇南市,42.727,68.34,13.809,16.427,0.545,90.978,-0.426,4.374,284.515,51.643,82039.053,33.599,105.224
福建,三明市,22.493,24.087,5.788,16.753,0.583,46.096,0.354,3.774,291.819,78.816,95114.881,26.29,117.395
福建,南平市,27.188,29.5,7.318,13.708,0.489,49.201,-0.585,2.706,291.171,80.174,95887.252,27.324,118.143
福建,厦门市,64.895,82.038,11.838,94.568,1.115,28.062,-1.935,-0.438,293.19,75.622,100385.735,24.642,118.11
福建,宁德市,27.388,32.207,4.883,18.637,0.555,55.667,0.369,2.423,289.223,85.527,95306.384,26.968,119.474
福建,泉州市,54.443,66.072,8.153,58.751,0.924,29.57,-1.173,1.93,290.769,86.528,96620.732,25.201,118.249
福建,漳州市,52.964,64.99,7.788,50.895,0.879,39.245,-2.611,0.092,291.806,85.801,98202.281,24.372,117.444
福建,福州市,38.559,47.934,5.919,36.808,0.698,41.084,0.484,0.573,290.312,85.683,97404.828,26.083,119.206
福建,莆田市,52.197,59.294,6.632,37.986,0.722,38.232,0.528,-0.488,291.326,83.735,98164.457,25.445,118.864
福建,龙岩市,22.645,26.875,4.974,16.157,0.55,58.311,-0.787,4.005,291.78,82.503,95121.863,25.256,116.739
西藏,山南市,15.674,18.646,1.22,1.44,0.204,95.048,3.184,0.493,274.879,62.014,66065.995,28.295,92.274
西藏,拉萨市,3.432,6.508,0.183,1.889,0.168,85.352,2.972,0.284,267.456,62.054,56444.454,30.043,91.093
西藏,日喀则市,4.033,5.279,0.425,0.62,0.152,86.059,9.289,1.283,266.009,51.92,55214.723,29.483,86.493
西藏,昌都市,1.861,2.902,0.074,0.911,0.133,91.47,3.996,3.104,267.796,53.799,58940.712,30.753,97.044
西藏,林芝市,6.493,7.556,0.4,1.195,0.134,92.896,0.597,0.448,273.106,62.656,66329.145,29.184,95.25
西藏,玉树藏族自治州,1.641,1.859,0.199,0.384,0.135,86.588,6.305,1.277,267.119,42.309,57009.62,34.196,94.317
西藏,那曲市,2.035,2.225,0.205,0.214,0.129,85.661,6.725,-0.501,264.983,45.656,55235.312,32.709,89.262
西藏,阿里地区,3.119,3.52,0.542,0.371,0.147,89.236,9.957,3.447,262.006,54.336,54561.652,33.013,82.553
贵州,六盘水市,38.665,61.526,12.66,23.827,0.805,58.762,-0.783,0.473,287.296,62.036,83011.296,26.106,104.896
贵州,安顺市,30.317,48.128,5.678,11.928,0.482,72.619,-2.81,1.153,289.214,71.342,88044.648,25.986,105.978
贵州,毕节市,41.693,69.913,9.353,21.081,0.7,65.099,-0.375,1.923,287.535,57.995,83352.61,27.063,105.211
贵州,贵阳市,41.993,69.906,10.051,33.351,0.677,58.644,-0.083,3.129,289.281,66.297,88090.159,26.845,106.71
贵州,遵义市,41.944,62.074,10.083,16.257,0.609,80.333,-0.828,0.907,291.047,50.063,90220.086,28.167,107.102
贵州,铜仁市,34.11,66.113,14.614,10.388,0.696,68.681,0.091,0.941,291.762,59.603,92576.36,27.937,108.534
贵州,黔东南苗族侗族自治州,30.278,46.372,8.513,7.293,0.487,76.876,1.011,2.816,291.181,72.604,92511.246,26.495,108.574
贵州,黔南布依族苗族自治州,31.154,45.286,5.856,8.78,0.425,75.799,-0.695,2.573,290.122,74.42,90250.88,26.0,107.265
贵州,黔西南布依族苗族自治州,24.359,43.837,7.845,9.562,0.62,68.874,-1.575,0.008,290.848,58.9,88394.639,25.256,105.467
辽宁,丹东市,18.845,25.956,8.216,8.563,0.551,71.912,-0.645,-10.974,272.295,66.097,99105.541,40.554,124.376
辽宁,大连市,27.901,50.391,9.466,15.336,0.529,70.849,-1.113,-13.798,273.592,63.798,101547.657,39.591,122.22
辽宁,抚顺市,19.918,28.268,7.43,10.623,0.545,78.022,-1.719,-9.88,267.682,70.322,97667.705,41.841,124.65
辽宁,朝阳市,8.289,15.511,6.377,4.564,0.35,75.715,-0.854,-12.065,268.348,58.156,97589.111,41.545,120.053
辽宁,本溪市,21.099,29.037,8.389,10.141,0.597,75.663,-0.423,-10.736,268.721,72.908,96822.11,41.232,124.544
辽宁,沈阳市,17.198,24.587,7.761,11.941,0.439,77.162,-1.6,-11.567,269.397,60.015,102305.694,42.081,123.159
辽宁,盘锦市,17.701,26.299,9.114,10.619,0.506,77.537,-2.363,-13.138,271.084,60.473,102915.24,41.13,122.01
辽宁,营口市,26.809,42.55,11.657,17.153,0.654,73.012,-1.594,-14.083,270.659,69.233,100282.707,40.395,122.478
辽宁,葫芦岛市,12.167,19.792,8.374,6.091,0.437,76.66,-2.178,-13.023,271.39,56.547,100294.822,40.66,120.215
辽宁,辽阳市,23.131,34.998,11.496,17.269,0.706,75.299,-1.083,-12.138,269.838,70.199,100625.708,41.153,123.261
辽宁,铁岭市,20.733,27.901,6.609,12.488,0.448,75.389,-1.818,-10.031,267.748,61.056,100651.022,42.653,124.158
辽宁,锦州市,13.103,19.613,8.782,8.15,0.413,78.308,-1.475,-12.135,270.555,57.191,102156.397,41.502,121.659
辽宁,阜新市,10.132,13.373,4.984,5.578,0.292,77.453,-0.665,-11.232,268.493,55.952,100704.608,42.289,121.968
辽宁,鞍山市,23.24,34.923,11.324,15.666,0.683,72.798,-0.712,-12.968,270.923,66.256,100576.003,40.731,123.007
重庆,重庆城区,45.24,64.544,12.47,26.574,0.797,74.184,-2.763,-0.15,293.355,41.668,94672.322,29.824,107.125
重庆,重庆郊县,40.802,55.166,14.099,9.131,0.598,80.328,-1.603,-0.158,290.206,50.685,90965.723,30.334,108.755
陕西,咸阳市,73.814,161.184,15.215,41.673,1.059,85.816,-4.844,-0.681,288.789,38.657,91314.338,34.779,108.367
陕西,商洛市,45.374,83.035,11.411,14.197,0.643,94.093,-2.37,0.886,287.192,45.299,89314.825,33.64,109.889
陕西,安康市,45.143,69.238,14.575,10.27,0.592,91.959,-1.482,0.382,288.157,48.952,89796.09,32.735,108.932
陕西,宝鸡市,54.675,109.329,12.22,28.043,0.75,90.33,-1.958,1.681,286.726,43.642,86227.342,34.386,107.193
陕西,延安市,46.039,162.13,21.013,28.903,0.964,64.559,-2.888,-0.108,283.719,42.65,87590.957,36.432,109.316
陕西,榆林市,36.559,186.855,19.36,23.073,0.959,51.422,-5.159,-4.681,280.255,40.041,88088.942,38.041,109.581
陕西,汉中市,56.88,83.966,15.446,17.682,0.798,78.896,-0.609,1.244,288.603,47.425,88799.994,33.088,107.098
陕西,渭南市,65.913,166.513,24.25,41.26,1.083,77.409,-5.039,-0.654,289.265,34.908,93741.417,34.919,109.855
陕西,西安市,63.305,141.452,13.522,37.642,0.962,87.592,-2.082,0.796,288.937,39.078,90388.48,34.12,108.77
陕西,铜川市,58.868,133.643,17.682,33.933,0.966,81.489,-3.777,-1.003,286.14,40.694,89134.83,35.198,109.058
青海,保亭黎族苗族自治县,16.908,18.78,2.612,10.04,0.442,61.68,-0.844,1.444,293.88,81.474,97153.172,18.566,109.618
青海,吐鲁番市,10.582,19.778,2.156,5.019,0.226,54.017,-2.008,-1.863,282.303,34.063,89864.426,42.386,89.851
青海,果洛藏族自治州,1.131,1.106,0.127,0.876,0.132,93.085,4.536,4.827,268.039,47.446,59754.552,34.127,99.404
青海,海东市,28.338,56.992,12.638,10.7,0.684,70.186,-4.633,1.666,277.061,44.838,72472.922,36.347,102.34
青海,海北藏族自治州,10.055,21.756,3.61,3.143,0.206,81.688,-1.674,4.762,272.177,40.201,65004.779,37.775,100.288
青海,海南藏族自治州,4.523,6.239,1.599,1.506,0.165,85.916,0.468,3.671,275.217,31.193,66117.103,35.89,100.272
青海,海西蒙古族藏族自治州,7.763,8.008,0.636,0.454,0.133,79.971,3.199,-0.167,272.823,27.585,64082.266,36.677,94.519
青海,西宁市,28.49,79.347,11.518,14.553,0.947,74.067,-3.469,2.615,274.316,45.309,69279.739,36.842,101.423
青海,黄南藏族自治州,3.683,5.316,1.512,1.394,0.175,92.998,2.146,4.927,274.807,29.998,65549.697,35.022,101.631
香港,香港特别行政区,22.89,30.835,3.72,44.04,0.405,42.855,-2.35,1.29,294.555,89.845,100857.06,22.45,114.22
黑龙江,七台河市,14.132,18.398,4.887,7.729,0.331,78.573,5.685,-7.155,260.689,67.408,99037.708,45.87,130.943
黑龙江,伊春市,1.396,1.617,1.367,1.847,0.203,77.984,5.094,-7.172,257.862,63.712,97734.204,47.772,129.184
黑龙江,佳木斯市,7.49,9.168,2.45,3.655,0.247,73.571,5.916,-6.896,260.817,63.667,101038.538,47.207,132.11
黑龙江,双鸭山市,8.933,10.287,2.777,3.913,0.251,72.175,6.523,-6.846,260.798,69.936,100501.186,46.722,132.643
黑龙江,哈尔滨市,9.186,12.319,3.74,5.666,0.362,74.21,2.921,-6.773,261.561,64.974,99760.222,45.634,127.964
黑龙江,大兴安岭地区,0.496,0.77,0.859,1.21,0.18,70.962,5.513,-1.419,256.825,61.485,95920.615,52.286,124.212
黑龙江,大庆市,11.379,15.915,5.434,7.459,0.345,75.516,1.971,-6.283,263.036,57.014,101559.72,46.327,124.687
黑龙江,牡丹江市,12.944,15.873,3.521,5.305,0.282,74.537,4.396,-7.424,261.857,70.91,96023.105,44.592,129.883
黑龙江,绥化市,7.525,10.82,2.398,4.619,0.337,73.858,2.863,-6.742,260.422,62.476,100530.387,46.89,126.634
黑龙江,鸡西市,10.957,12.739,3.775,5.459,0.27,71.775,6.198,-8.103,262.137,69.548,100173.017,45.626,132.289
黑龙江,鹤岗市,2.633,3.563,1.486,2.139,0.219,78.552,6.506,-8.177,259.281,61.134,100170.955,47.661,130.778
黑龙江,黑河市,3.154,4.141,1.624,1.94,0.226,74.74,4.127,-4.573,257.693,63.559,98382.516,49.268,127.004
黑龙江,齐齐哈尔市,11.437,13.911,5.046,4.642,0.295,71.125,2.907,-4.516,260.662,63.943,100694.651,47.715,124.57
