province,city,PM2.5,PM10,SO2,NO2,CO,O3,U,V,TEMP,RH,PSFC,lat,lon
上海,上海市,15.651,27.062,6.195,26.186,0.412,74.986,-4.452,-4.045,292.12,64.982,102007.672,31.173,121.42
云南,临沧市,14.79,19.799,3.621,2.912,0.389,38.443,3.051,1.685,290.038,90.113,84114.966,23.935,99.686
云南,丽江市,12.25,15.997,3.413,3.728,0.488,56.457,4.662,1.843,284.603,72.553,74795.036,26.96,100.515
云南,保山市,12.158,20.504,3.761,3.886,0.325,39.794,2.65,1.659,288.222,93.852,82076.561,24.953,98.962
云南,大理白族自治州,11.89,18.955,4.079,3.682,0.412,47.604,4.538,2.088,286.495,86.662,78304.331,25.726,100.053
云南,德宏傣族景颇族自治州,17.013,22.627,3.567,3.228,0.221,37.198,1.211,1.274,290.485,94.72,86246.627,24.535,98.052
云南,怒江傈僳族自治州,12.195,14.384,1.992,1.015,0.19,61.819,3.135,0.96,281.92,89.624,72997.034,26.916,98.885
云南,文山壮族苗族自治州,31.031,43.489,11.163,4.897,0.519,53.488,-0.409,0.536,289.442,93.993,86753.018,23.696,104.735
云南,昆明市,16.263,23.144,6.182,9.868,0.523,38.215,5.416,2.822,287.88,83.193,79415.298,25.384,102.863
云南,昭通市,20.452,35.029,13.636,10.858,0.665,54.0,-1.905,-1.608,283.978,88.743,84381.186,27.667,103.985
云南,普洱市,15.501,22.172,4.104,3.272,0.303,33.679,2.029,1.252,291.647,85.722,86167.804,23.159,100.718
云南,曲靖市,18.624,28.636,9.367,9.889,0.627,39.622,0.974,2.174,286.078,90.866,80212.483,25.737,103.929
云南,楚雄彝族自治州,16.192,20.614,4.532,3.745,0.447,45.693,4.693,2.978,289.09,79.846,81144.356,25.328,101.567
云南,玉溪市,15.505,20.551,4.574,5.056,0.343,45.517,3.817,2.218,290.661,82.283,83667.927,24.136,102.217
云南,红河哈尼族彝族自治州,18.838,26.28,6.975,3.862,0.343,51.398,1.912,1.946,291.405,85.663,85347.785,23.451,103.034
云南,西双版纳傣族自治州,20.92,34.725,7.823,3.894,0.377,29.545,1.463,1.578,293.906,83.564,89129.206,21.939,100.912
云南,迪庆藏族自治州,7.875,8.973,1.576,1.428,0.236,74.265,6.029,1.597,277.973,75.49,67445.846,27.957,99.459
内蒙古,乌兰察布市,19.752,26.67,8.113,6.391,0.329,65.816,-1.279,-1.495,279.106,56.565,86522.939,41.691,112.44
内蒙古,乌海市,30.285,48.886,18.156,35.234,0.725,55.188,-3.622,-1.068,283.976,48.014,88154.93,39.396,106.856
内蒙古,兴安盟,2.748,4.726,2.126,2.902,0.215,56.648,2.911,-5.695,276.71,44.055,95443.054,46.244,121.341
内蒙古,包头市,21.482,28.395,7.588,8.911,0.346,61.841,-1.828,-1.964,280.053,47.31,86505.658,41.549,110.276
内蒙古,呼伦贝尔市,1.29,1.788,1.648,1.922,0.198,60.754,1.714,-6.065,272.468,53.901,94298.797,49.636,121.171
内蒙古,呼和浩特市,35.199,49.631,12.173,23.91,0.572,59.09,-0.97,-1.119,280.567,65.725,86818.712,40.578,111.513
内蒙古,巴彦淖尔市,21.435,28.215,6.96,9.229,0.331,55.909,-3.194,-1.976,282.006,35.674,87912.453,41.446,107.582
内蒙古,赤峰市,7.119,15.006,3.648,6.008,0.27,55.919,1.612,-3.627,278.912,44.283,92604.169,43.226,118.892
内蒙古,通辽市,5.418,8.225,3.389,4.52,0.25,50.665,2.453,-4.242,280.632,42.685,98560.449,43.814,121.591
内蒙古,鄂尔多斯市,29.094,41.352,13.828,15.265,0.498,63.537,-1.969,-0.876,282.342,64.425,87499.927,39.407,108.63
内蒙古,锡林郭勒盟,3.09,4.063,2.103,1.466,0.186,62.772,-0.448,-2.213,277.296,49.733,89749.157,44.179,115.482
内蒙古,阿拉善盟,26.139,31.063,14.02,5.095,0.295,66.091,-4.927,0.755,283.732,38.653,88000.698,40.473,102.467
北京,北京市,116.645,133.609,10.147,46.383,1.072,36.126,-0.351,-2.789,284.791,62.182,98429.922,40.158,116.395
台湾,台湾省,14.107,18.072,5.661,16.161,0.21,78.299,-1.231,-2.444,294.187,80.88,93089.96,23.757,120.975
吉林,吉林市,11.416,22.034,5.801,12.258,0.402,42.491,3.832,-0.79,278.308,64.474,97603.847,43.573,126.859
吉林,四平市,11.021,21.07,3.191,11.233,0.353,43.737,2.956,-1.986,280.434,51.977,99995.028,43.472,124.386
吉林,延边朝鲜族自治州,10.877,14.605,5.523,8.932,0.289,48.963,5.868,-1.221,277.223,67.103,94490.135,43.141,129.147
吉林,松原市,6.819,14.177,3.205,6.294,0.279,48.413,3.602,-3.461,279.293,43.126,100352.151,44.785,124.496
吉林,白城市,5.708,8.996,2.946,5.138,0.253,51.792,2.532,-5.008,279.695,38.693,100555.893,45.35,123.031
吉林,白山市,16.692,22.952,8.405,13.293,0.548,46.216,3.433,-1.236,277.086,70.463,92699.912,42.063,127.256
吉林,辽源市,16.315,27.121,4.256,15.634,0.467,39.509,3.252,-1.234,280.198,56.419,98059.659,42.836,125.32
吉林,通化市,18.501,27.457,7.828,15.961,0.686,40.198,2.315,-2.156,279.505,61.451,96235.904,41.939,125.927
吉林,长春市,10.773,23.7,3.468,11.387,0.382,42.493,4.158,-1.918,279.398,50.234,99833.184,44.268,125.611
四川,乐山市,28.647,41.683,9.414,13.581,0.57,49.64,-1.02,-1.165,284.96,87.689,89945.633,29.218,103.569
四川,内江市,31.426,49.216,7.074,21.44,0.63,45.029,-0.87,-1.358,288.834,81.937,97086.822,29.62,104.95
四川,凉山彝族自治州,15.354,23.177,9.141,4.762,0.549,59.707,1.955,1.79,282.536,74.689,74324.302,27.883,102.065
四川,南充市,35.368,51.356,8.695,21.217,0.625,53.066,-0.606,-0.535,289.864,64.219,97088.809,31.19,106.199
四川,宜宾市,28.33,40.852,10.272,18.967,0.67,48.973,-0.58,-2.145,288.633,80.573,95408.005,28.573,104.621
四川,巴中市,30.887,43.91,10.124,12.288,0.489,57.221,-1.583,-0.937,287.065,62.12,92810.954,32.033,107.031
四川,广元市,27.826,39.945,11.574,10.349,0.466,56.294,-0.694,-0.547,286.394,67.299,91930.981,32.261,105.788
四川,广安市,36.776,56.33,6.245,26.987,0.679,44.211,0.457,0.401,288.926,77.622,97121.817,30.43,106.628
四川,德阳市,34.114,56.029,8.13,26.067,0.588,46.892,-0.676,-0.141,287.482,71.323,93517.83,31.13,104.436
四川,成都市,26.635,46.463,7.828,24.887,0.533,53.543,-0.103,-0.414,287.144,76.254,93673.209,30.64,103.929
四川,攀枝花市,20.584,31.025,21.899,15.72,1.334,36.53,1.412,2.558,289.616,68.892,81579.983,26.791,101.734
四川,泸州市,24.652,35.555,7.084,19.923,0.573,41.778,-1.181,-1.424,287.738,84.459,93778.545,28.424,105.675
四川,甘孜藏族自治州,4.855,5.511,0.765,1.241,0.128,81.186,3.205,1.907,272.005,71.421,61337.794,30.936,100.009
四川,眉山市,25.214,42.009,8.204,18.986,0.556,48.319,-0.362,-0.801,287.124,83.023,94136.533,29.912,103.766
四川,绵阳市,32.238,44.343,9.655,11.068,0.45,60.062,-0.608,-0.061,284.415,75.317,88303.802,31.86,104.704
四川,自贡市,33.431,47.012,7.896,23.015,0.665,44.784,-0.908,-1.762,289.125,80.375,97055.118,29.307,104.659
四川,资阳市,29.873,52.052,7.958,17.741,0.58,47.547,-0.507,-0.661,288.967,80.304,97335.623,30.102,105.149
四川,达州市,37.71,55.143,10.55,22.509,0.577,63.312,-0.969,-0.421,288.183,63.089,94405.455,31.335,107.636
四川,遂宁市,30.685,51.378,7.932,21.513,0.614,47.339,-0.091,0.061,289.452,74.504,97563.178,30.642,105.457
四川,阿坝藏族羌族自治州,16.03,19.176,4.044,2.281,0.204,71.844,1.049,0.572,273.136,78.192,65670.108,32.406,102.61
四川,雅安市,22.808,33.174,9.523,6.698,0.373,63.518,-0.868,-0.55,279.954,91.209,80338.244,29.932,102.689
天津,天津市,99.268,136.936,19.888,66.876,1.364,40.103,-0.819,-0.429,287.595,54.882,102092.566,39.315,117.308
宁夏,中卫市,46.372,58.645,15.475,18.971,0.637,61.495,-1.877,-0.32,282.48,63.687,83945.362,37.018,105.509
宁夏,吴忠市,43.934,55.071,14.729,11.663,0.446,61.961,-1.051,-0.23,282.85,65.159,85518.502,37.454,106.577
宁夏,固原市,30.73,49.553,12.385,16.839,0.586,51.4,-0.032,1.761,280.626,73.554,81345.034,35.905,106.183
宁夏,石嘴山市,37.728,56.075,19.08,31.118,0.778,65.894,-2.124,-1.146,283.128,53.9,87235.898,39.013,106.499
宁夏,银川市,42.132,54.139,12.678,18.393,0.558,66.248,-2.224,-2.054,283.66,58.945,87503.657,38.287,106.342
安徽,亳州市,38.726,59.339,8.281,25.111,0.494,59.77,-2.686,0.002,290.13,66.877,101866.452,33.44,116.162
安徽,六安市,46.905,60.229,8.699,23.966,0.585,45.885,-4.16,-0.578,287.754,86.433,99280.515,31.617,116.209
安徽,合肥市,32.908,47.967,7.168,30.15,0.572,49.548,-4.156,-0.317,290.175,71.039,101670.865,31.766,117.359
安徽,安庆市,49.686,40.431,8.784,19.175,0.499,44.146,-4.513,-3.551,288.062,91.608,99641.31,30.557,116.473
安徽,宣城市,20.598,31.607,7.021,19.494,0.466,54.996,-4.075,-0.602,288.894,80.16,99608.194,30.676,118.846
安徽,宿州市,42.81,67.704,9.41,33.18,0.53,65.03,-4.421,-0.286,289.742,62.822,101846.949,33.844,117.23
安徽,池州市,26.595,29.391,7.674,14.867,0.442,44.246,-4.609,-1.662,288.587,87.761,99781.379,30.296,117.379
安徽,淮北市,38.071,62.535,9.654,34.768,0.506,61.243,-4.432,-0.337,289.976,62.213,101880.892,33.722,116.747
安徽,淮南市,35.89,54.763,9.265,26.906,0.5,57.922,-3.455,-0.667,290.403,68.054,101869.219,32.463,116.746
安徽,滁州市,27.702,41.395,6.889,18.017,0.379,70.757,-3.969,-1.212,291.083,62.246,101595.485,32.55,118.076
安徽,芜湖市,27.619,42.634,9.236,26.423,0.619,51.378,-4.48,-1.507,290.005,77.069,101814.444,31.167,118.162
安徽,蚌埠市,30.856,47.284,7.897,19.84,0.41,70.774,-3.88,-1.08,290.499,63.898,101882.118,33.121,117.263
安徽,铜陵市,33.305,43.043,9.408,23.968,0.542,47.944,-5.371,-2.074,289.54,81.866,101642.372,30.883,117.531
安徽,阜阳市,44.292,65.715,9.466,26.924,0.561,47.808,-2.973,-0.348,289.664,74.79,101826.767,32.937,115.723
安徽,马鞍山市,26.735,42.596,7.5,29.353,0.639,54.625,-4.061,-0.359,290.681,68.866,101839.553,31.622,118.386
安徽,黄山市,15.45,21.997,7.27,10.082,0.415,50.023,-5.455,-0.546,287.317,90.449,97556.611,29.869,118.09
山东,东营市,83.678,136.791,23.462,65.776,1.171,72.3,1.059,1.311,288.48,51.66,102212.539,37.57,118.572
山东,临沂市,61.558,109.179,12.92,41.778,0.654,69.257,-1.969,0.42,288.056,62.606,100445.838,35.289,118.27
山东,威海市,40.283,72.904,10.954,30.43,0.737,103.355,2.781,-1.641,289.367,61.038,101563.678,37.148,122.028
山东,德州市,56.912,101.106,16.005,47.107,0.629,67.915,0.793,4.291,289.352,50.934,102034.83,37.233,116.679
山东,日照市,50.876,92.28,8.983,39.34,0.517,71.177,-1.124,0.57,288.514,65.92,100561.011,35.566,119.108
山东,枣庄市,57.446,114.415,20.602,53.707,0.694,58.402,-3.577,1.056,288.903,58.314,101156.692,34.925,117.383
山东,泰安市,53.858,103.918,17.906,51.249,0.79,57.832,-1.921,1.705,287.979,54.742,100326.136,35.993,117.04
山东,济南市,54.605,103.161,16.853,56.041,0.774,62.683,-0.3,3.253,288.578,49.487,100287.533,36.639,117.254
山东,济宁市,50.28,97.223,19.254,49.744,0.754,53.725,-2.266,2.646,289.148,55.518,101590.683,35.375,116.697
山东,淄博市,64.005,114.152,22.675,56.683,1.077,61.452,0.525,2.511,288.002,49.025,99691.887,36.623,118.062
山东,滨州市,73.987,115.148,20.7,61.909,1.036,71.166,0.696,2.434,288.81,49.204,102140.771,37.516,117.852
山东,潍坊市,57.971,107.105,13.031,49.01,0.771,64.416,0.998,1.802,288.094,56.566,101139.731,36.53,119.092
山东,烟台市,55.638,97.719,10.781,42.179,0.868,76.256,2.663,0.43,288.491,61.388,101093.218,37.25,120.789
山东,聊城市,52.958,95.34,16.436,39.653,0.712,64.221,-0.406,4.519,289.347,53.888,101827.257,36.458,115.863
山东,菏泽市,55.804,91.926,13.879,40.966,0.757,54.429,-2.242,2.516,289.058,60.916,101726.641,35.134,115.69
山东,青岛市,46.729,90.112,8.798,44.961,0.626,72.85,0.945,0.326,288.394,64.37,101696.179,36.46,120.172
山西,临汾市,54.135,94.434,15.323,45.735,1.033,69.258,0.25,2.566,284.65,45.216,90538.651,36.227,111.398
山西,吕梁市,41.048,68.001,18.239,32.891,0.776,46.867,0.879,1.922,282.932,53.783,88139.161,37.663,111.27
山西,大同市,40.989,56.651,13.713,15.062,0.677,59.03,1.012,-0.239,279.315,85.853,87757.775,39.911,113.713
山西,太原市,64.666,111.393,16.881,47.494,0.984,29.705,0.077,-0.793,282.049,62.953,88053.959,37.967,112.321
山西,忻州市,45.292,62.902,15.604,18.453,0.605,50.564,0.354,0.059,279.918,81.601,86580.382,38.877,112.391
山西,晋中市,70.649,106.7,14.885,44.252,1.032,52.483,0.572,1.454,283.515,46.866,88973.522,37.328,112.997
山西,晋城市,61.093,104.582,12.07,39.946,0.953,76.394,-0.567,2.478,284.301,57.893,90946.368,35.625,112.752
山西,朔州市,36.604,49.079,13.395,17.718,0.627,61.605,0.253,-0.224,279.571,84.423,87084.179,39.619,112.655
山西,运城市,63.055,104.538,13.465,49.087,0.901,68.282,-1.71,1.371,287.306,45.12,94704.686,35.205,111.071
山西,长治市,55.237,90.31,11.383,31.981,0.901,73.866,1.239,2.006,283.818,48.93,89263.085,36.48,112.915
山西,阳泉市,110.7,160.383,17.106,52.071,1.215,39.138,-0.007,-0.942,283.221,55.699,90882.487,38.031,113.512
广东,东莞市,28.826,44.927,7.169,37.257,0.642,46.716,-2.174,-0.887,296.634,84.424,101273.154,22.931,113.81
广东,中山市,20.921,36.466,5.586,17.79,0.53,60.971,-2.554,-0.63,297.166,86.944,101258.392,22.5,113.383
广东,云浮市,23.505,37.918,10.693,23.692,0.709,29.758,-2.301,-1.734,294.249,92.895,99285.993,22.776,111.818
广东,佛山市,23.942,44.375,9.313,41.625,0.787,21.805,-1.22,-4.093,295.165,86.935,101343.875,23.035,112.979
广东,广州市,25.081,39.632,7.411,34.594,0.677,32.959,-1.856,-3.24,294.863,86.152,100448.825,23.339,113.525
广东,惠州市,23.328,35.81,7.165,14.225,0.535,62.592,-2.362,-1.872,295.103,84.713,99471.268,23.244,114.485
广东,揭阳市,30.179,42.75,10.902,16.931,0.713,72.506,-3.08,-1.955,295.718,80.638,100068.091,23.323,116.123
广东,梅州市,31.307,39.556,8.832,15.854,0.682,55.306,-1.35,-2.278,293.176,88.35,98089.168,24.169,116.07
广东,汕头市,23.634,34.175,10.313,15.171,0.577,79.193,-4.062,-2.9,296.082,82.232,101179.889,23.339,116.614
广东,汕尾市,26.19,39.959,8.653,10.782,0.544,77.923,-3.562,-1.534,295.951,81.232,99787.201,23.024,115.527
广东,江门市,20.171,34.229,6.394,17.926,0.511,56.293,-2.933,-1.265,296.676,89.437,100692.896,22.289,112.676
广东,河源市,28.006,39.802,9.925,15.602,0.668,48.78,-1.169,-3.773,292.375,90.482,98290.917,24.021,114.969
广东,深圳市,21.75,38.263,6.516,21.543,0.502,68.402,-3.79,-0.034,296.873,85.66,100783.787,22.667,114.143
广东,清远市,15.01,29.988,10.957,16.754,0.809,36.89,-1.358,-4.726,290.283,91.543,97846.307,24.295,112.871
广东,湛江市,12.012,22.835,5.434,8.561,0.469,53.579,-1.255,0.77,298.711,85.893,101027.103,21.091,110.163
广东,潮州市,25.509,34.42,7.917,13.653,0.619,69.37,-3.267,-2.561,295.228,81.024,99519.119,23.755,116.754
广东,珠海市,15.293,24.413,4.68,6.125,0.312,85.957,-3.685,0.253,297.602,88.605,101322.422,22.095,113.317
广东,肇庆市,16.554,31.578,11.325,21.441,0.781,30.319,-2.874,-3.523,292.708,90.333,99428.86,23.505,112.199
广东,茂名市,17.884,29.748,8.165,11.44,0.543,45.258,-2.606,-0.539,296.822,87.869,99288.102,22.013,110.952
广东,阳江市,19.294,30.551,6.549,11.464,0.462,53.706,-2.835,-0.994,296.589,90.904,99832.471,22.042,111.786
广东,韶关市,16.985,25.38,8.15,12.424,0.842,43.704,-1.179,-3.507,289.849,92.712,97087.653,24.785,113.819
广西,北海市,13.055,23.719,8.454,10.494,0.799,42.342,-1.309,-3.032,297.209,86.212,101107.2,21.674,109.37
广西,南宁市,15.511,25.549,8.958,10.838,0.766,38.378,-2.37,-4.922,291.263,87.941,99436.198,23.051,108.469
广西,崇左市,23.604,37.123,11.303,8.31,0.691,40.582,-2.846,-3.89,291.682,90.906,98124.672,22.483,107.291
广西,来宾市,13.73,24.371,9.589,8.482,0.719,44.354,-1.95,-4.856,290.129,88.589,98282.683,23.859,109.417
广西,柳州市,14.695,25.203,11.584,7.393,0.63,54.124,-2.005,-5.349,289.017,84.608,97752.961,24.956,109.372
广西,桂林市,18.836,28.878,8.967,9.727,0.661,61.674,-3.372,-4.04,287.589,88.853,96134.105,25.353,110.513
广西,梧州市,15.26,26.87,11.663,12.829,0.852,35.992,-2.161,-3.827,291.812,92.558,99059.382,23.484,110.996
广西,河池市,16.346,29.391,13.458,4.672,0.567,46.813,-2.666,-3.878,288.674,85.723,95396.388,24.628,107.843
广西,玉林市,18.741,27.889,10.14,12.079,0.859,34.234,-1.8,-3.203,294.201,92.396,99397.468,22.452,110.164
广西,百色市,24.441,40.498,13.942,5.299,0.586,48.902,-2.004,-1.962,289.159,90.826,93280.693,23.981,106.292
广西,贵港市,12.542,21.791,10.117,9.207,0.832,40.957,-2.532,-4.261,291.642,90.487,99916.083,23.322,110.021
广西,贺州市,12.974,25.246,13.933,10.949,0.805,46.562,-2.575,-5.076,289.409,90.056,97293.281,24.364,111.394
广西,钦州市,15.345,24.79,9.479,12.062,0.943,33.104,-1.507,-5.682,293.569,89.564,100476.089,22.173,109.01
广西,防城港市,22.13,33.93,9.586,11.757,0.85,34.531,-1.279,-5.249,292.974,91.934,98896.132,21.88,108.002
新疆,乌鲁木齐市,11.858,21.975,2.418,8.056,0.237,56.954,-0.203,0.936,279.533,45.653,84476.55,43.746,87.818
新疆,五家渠市,11.293,18.82,2.317,5.72,0.243,48.647,-1.753,-1.523,284.817,46.51,96816.067,44.363,87.517
新疆,伊犁哈萨克自治州,6.517,13.863,1.915,3.855,0.251,65.248,-0.349,3.218,276.599,49.94,80350.195,43.438,82.146
新疆,克孜勒苏柯尔克孜自治州,3.189,8.316,0.487,3.088,0.161,82.962,3.062,0.974,272.144,44.837,70335.734,39.661,75.949
新疆,克拉玛依市,6.217,15.712,2.191,6.397,0.314,52.979,-2.656,-2.485,282.591,47.574,97754.831,45.457,85.207
新疆,北屯市,3.698,9.844,11.3,14.512,1.056,25.92,1.7,-1.994,280.436,49.972,95908.486,47.27,87.868
新疆,博尔塔拉蒙古自治州,5.414,11.13,2.412,3.338,0.219,57.229,0.987,1.534,275.495,62.929,86354.213,44.714,82.114
新疆,双河市,7.862,17.38,4.674,6.098,0.288,43.546,0.784,-1.278,281.228,47.948,98218.978,44.87,82.474
新疆,可克达拉市,17.776,48.326,5.672,15.428,0.602,40.796,-2.888,-0.87,282.47,50.112,94812.868,43.918,80.786
新疆,和田地区,17.617,21.613,0.944,1.363,0.155,78.204,2.626,0.94,277.911,30.626,73898.95,37.059,80.934
新疆,哈密市,17.598,20.311,4.455,3.202,0.207,58.828,-2.125,0.52,284.944,28.446,88493.902,43.042,93.517
新疆,喀什地区,13.285,22.598,1.376,5.537,0.181,75.536,2.92,1.481,277.476,34.428,76010.957,38.125,77.178
新疆,图木舒克市,10.123,12.202,2.467,1.962,0.162,61.432,-6.443,-2.833,286.252,25.71,89108.258,39.892,79.182
新疆,塔城地区,5.137,8.941,2.258,2.998,0.218,60.419,-1.747,1.022,278.258,57.292,89812.487,45.642,84.789
新疆,巴音郭楞蒙古自治州,26.747,28.367,1.066,0.758,0.135,74.93,-2.554,0.75,281.057,26.934,79172.364,39.463,87.481
新疆,新星市,14.88,26.72,5.035,10.99,0.405,41.52,-4.195,0.69,290.14,16.41,92788.155,42.75,93.68
新疆,昆玉市,11.707,30.83,2.767,6.0,0.277,68.087,2.097,-1.46,287.91,19.95,86744.103,37.457,79.093
新疆,昌吉回族自治州,12.845,17.277,2.535,3.854,0.2,53.794,-0.949,0.478,282.034,48.241,90136.389,44.342,88.608
新疆,石河子市,13.04,28.95,7.075,15.67,0.345,44.795,-2.68,-0.26,282.8,50.85,94928.97,44.245,86.035
新疆,胡杨河市,8.202,15.104,1.7,3.508,0.284,56.358,-3.074,-1.866,282.938,52.768,98191.398,44.852,84.772
新疆,铁门关市,23.88,78.927,7.1,20.093,0.393,61.89,-5.663,-0.937,290.193,18.34,91636.283,41.773,85.66
新疆,阿克苏地区,21.771,29.805,1.821,3.523,0.177,62.917,-3.937,-1.02,283.019,28.708,85229.214,40.965,81.578
新疆,阿勒泰地区,7.406,8.711,2.847,2.469,0.325,53.45,-1.334,0.508,278.722,57.865,88809.776,46.902,88.421
新疆,阿拉尔市,18.529,39.532,2.763,8.426,0.24,51.355,-5.384,-3.118,285.986,25.717,90011.545,40.629,80.998
江苏,南京市,28.637,44.0,7.293,29.141,0.517,61.662,-3.996,-0.83,291.397,63.588,101898.523,31.899,118.876
江苏,南通市,27.816,35.605,9.237,13.037,0.368,87.474,-4.602,-2.764,291.495,62.952,102067.659,32.201,120.979
江苏,宿迁市,45.27,62.563,8.437,22.834,0.526,80.044,-4.488,-0.531,290.35,62.824,102103.094,33.765,118.495
江苏,常州市,25.446,40.577,8.499,32.426,0.568,67.994,-4.929,-1.636,291.867,63.484,101940.392,31.613,119.666
江苏,徐州市,53.78,88.568,12.222,44.774,0.624,61.157,-3.601,0.265,289.222,61.859,101871.599,34.363,117.513
江苏,扬州市,34.297,48.174,8.434,17.64,0.437,77.792,-4.488,-1.696,290.948,63.928,102096.629,32.709,119.486
江苏,无锡市,23.476,38.796,8.86,34.621,0.55,68.754,-5.063,-1.996,291.886,63.545,101846.119,31.546,120.066
江苏,泰州市,34.242,47.183,9.576,18.259,0.445,80.688,-4.297,-2.086,290.869,65.211,102058.826,32.605,120.048
江苏,淮安市,39.426,54.415,8.417,16.8,0.452,81.533,-4.471,-1.21,290.54,63.735,102079.204,33.362,118.985
江苏,盐城市,35.381,47.36,10.239,8.961,0.374,97.596,-4.284,-1.706,291.043,61.771,102150.759,33.529,120.156
江苏,苏州市,20.711,33.319,7.398,32.25,0.442,70.509,-4.912,-2.834,292.062,63.908,101995.01,31.374,120.661
江苏,连云港市,47.783,65.758,8.655,21.123,0.481,86.07,-3.195,-0.438,289.944,62.356,102022.81,34.519,119.133
江苏,镇江市,32.156,46.823,8.408,30.496,0.522,68.181,-4.756,-1.391,291.738,62.342,101939.461,32.016,119.49
江西,上饶市,16.331,20.458,8.446,11.908,0.485,39.762,-3.209,-1.511,289.517,91.627,99541.668,28.778,117.47
江西,九江市,42.112,32.594,7.374,15.854,0.528,36.134,-1.25,-3.525,288.989,93.195,99544.848,29.313,115.444
江西,南昌市,25.988,29.868,6.899,15.152,0.587,33.593,-0.57,-2.529,291.053,91.64,101374.876,28.671,116.016
江西,吉安市,19.023,29.32,8.757,11.488,0.848,39.46,0.816,-2.58,289.074,93.783,99138.992,26.954,114.831
江西,宜春市,29.836,36.513,7.871,15.22,0.713,32.463,0.613,-2.512,289.357,92.331,99488.312,28.29,114.974
江西,抚州市,20.565,30.753,9.306,10.006,0.565,36.31,0.652,-1.205,289.758,95.928,99100.137,27.514,116.42
江西,新余市,19.812,32.403,9.361,16.477,0.918,30.938,1.937,-2.055,289.501,92.609,100425.465,27.847,114.836
江西,景德镇市,13.971,17.293,7.307,9.536,0.43,39.439,-3.809,-1.512,289.725,89.259,100389.7,29.287,117.24
江西,萍乡市,19.532,32.419,8.746,17.553,0.943,36.606,1.56,-1.944,287.6,95.811,98197.036,27.505,113.908
江西,赣州市,20.532,28.632,8.629,9.723,0.914,47.128,-0.02,-3.412,289.279,96.737,97426.692,25.692,115.279
江西,鹰潭市,18.793,24.922,10.633,14.453,0.537,35.136,-2.469,-0.423,290.133,93.173,100046.041,28.222,117.094
河北,保定市,129.963,182.524,17.629,56.338,1.011,37.569,-0.945,-2.347,285.887,54.934,98353.453,39.018,115.159
河北,唐山市,81.482,124.608,26.708,63.067,1.485,34.686,-2.911,-1.203,287.323,60.847,101618.237,39.731,118.354
河北,廊坊市,131.644,181.391,16.273,71.827,1.326,30.5,-0.767,-1.766,286.947,51.11,102136.828,39.267,116.632
河北,张家口市,51.116,62.605,11.107,14.065,0.551,62.566,0.207,-0.382,279.361,76.929,88243.049,40.877,115.042
河北,承德市,44.46,62.253,10.725,25.706,0.634,41.421,-1.156,-0.577,280.671,55.392,91615.864,41.339,117.578
河北,沧州市,87.389,128.331,19.564,51.424,0.861,64.353,0.812,1.765,288.633,52.306,102132.086,38.258,116.744
河北,石家庄市,147.845,217.61,17.93,59.728,1.302,43.767,0.177,-1.842,287.122,46.206,98868.472,38.135,114.407
河北,秦皇岛市,47.801,75.861,15.316,47.025,0.789,34.613,-2.589,-1.462,285.681,54.259,99362.484,40.12,119.193
河北,衡水市,84.748,132.13,17.993,40.612,0.829,70.052,0.854,2.002,289.186,49.722,101973.43,37.755,115.813
河北,邢台市,81.449,139.503,18.229,45.065,1.008,64.707,0.477,1.251,289.323,44.104,100465.109,37.195,114.815
河北,邯郸市,62.753,106.408,15.445,38.569,0.852,63.867,0.495,3.356,289.538,46.655,99993.853,36.538,114.596
河南,三门峡市,59.099,83.375,13.43,27.055,0.598,70.431,-0.815,1.797,285.45,54.237,92305.111,34.362,111.101
河南,信阳市,53.188,69.076,10.585,24.667,0.61,40.061,-3.67,-1.631,288.159,85.622,100807.994,32.091,114.907
河南,南阳市,34.36,52.833,7.898,18.176,0.556,73.937,-2.02,-1.71,287.262,73.542,98789.561,33.034,112.323
河南,周口市,55.389,89.559,10.871,40.627,0.77,34.431,-1.287,-0.736,288.731,74.743,101647.176,33.738,114.884
河南,商丘市,50.599,81.898,11.005,40.597,0.655,47.317,-3.272,0.713,289.503,64.032,101736.488,34.277,115.718
河南,安阳市,64.695,99.42,13.863,36.408,0.799,63.617,0.223,3.658,289.452,50.111,99604.826,35.888,114.318
河南,平顶山市,43.065,65.665,10.218,31.016,0.617,62.022,-0.539,-0.455,287.334,68.029,99460.128,33.8,113.025
河南,开封市,62.241,100.61,14.346,49.092,0.831,37.984,-0.971,1.194,288.563,67.728,101403.956,34.594,114.514
河南,新乡市,64.993,103.651,15.529,47.038,0.826,53.144,-0.444,2.63,289.332,56.312,100451.428,35.256,114.111
河南,洛阳市,50.73,74.326,13.074,25.584,0.577,76.282,-0.703,1.692,286.163,60.726,94734.069,34.274,112.019
河南,济源市,66.043,113.687,14.219,49.676,0.992,62.777,-1.629,0.528,287.941,51.244,96603.723,35.105,112.445
河南,漯河市,53.108,86.282,11.922,44.025,0.758,32.854,-1.258,-1.122,288.117,72.369,101496.158,33.652,113.945
河南,濮阳市,63.223,98.463,15.42,38.852,0.853,59.946,-1.026,3.714,289.422,57.123,101696.679,35.809,115.283
河南,焦作市,64.029,113.599,13.14,54.807,0.972,54.381,-1.059,0.718,289.804,50.551,100241.672,35.121,113.163
河南,许昌市,52.158,84.725,15.471,50.769,0.829,33.48,-0.409,-0.731,287.805,67.104,100823.45,34.075,113.707
河南,郑州市,58.901,97.325,13.663,59.088,0.802,42.739,-0.236,1.465,288.41,60.409,99490.139,34.634,113.438
河南,驻马店市,60.53,83.72,8.93,33.106,0.683,35.051,-2.166,-1.958,287.72,83.098,101156.677,32.925,114.174
河南,鹤壁市,66.49,100.303,15.29,39.232,0.807,59.4,0.624,3.626,290.026,51.028,100787.818,35.716,114.319
浙江,丽水市,15.412,20.572,5.5,11.958,0.368,53.415,-2.762,-0.863,287.35,94.901,94819.591,28.194,119.51
浙江,台州市,15.524,21.885,6.246,18.38,0.388,56.335,-1.73,-4.987,289.902,87.784,99113.569,28.742,121.109
浙江,嘉兴市,15.611,26.565,5.045,30.579,0.467,60.408,-3.698,-2.97,291.977,67.505,101958.47,30.635,120.754
浙江,宁波市,17.767,23.862,6.046,22.201,0.46,58.417,-1.783,-3.696,290.93,81.486,100667.753,29.706,121.49
浙江,杭州市,21.352,31.96,6.662,23.693,0.559,43.414,-3.081,-1.802,288.018,88.172,99028.531,29.891,119.464
浙江,温州市,16.263,23.854,7.451,20.396,0.405,49.017,-1.923,-3.958,289.742,88.774,97880.401,27.897,120.411
浙江,湖州市,19.42,30.913,5.566,29.122,0.471,58.629,-3.771,-1.36,290.499,72.229,100697.885,30.757,119.871
浙江,绍兴市,23.743,31.038,6.361,29.039,0.626,40.228,-1.912,-1.864,289.234,85.072,99852.354,29.709,120.64
浙江,舟山市,10.317,13.39,3.25,2.968,0.25,83.74,-3.633,-5.635,292.745,75.172,101657.968,30.038,122.23
浙江,衢州市,15.516,21.856,8.039,16.553,0.466,44.251,-4.571,-1.897,288.084,92.729,98175.135,28.912,118.675
浙江,金华市,19.923,26.65,5.944,23.162,0.524,40.767,-3.042,-2.387,287.949,92.242,98475.941,29.109,119.967
海南,万宁市,9.466,15.152,1.488,1.924,0.192,79.263,-2.407,1.502,298.554,89.629,100011.976,18.842,110.294
海南,三亚市,11.133,17.299,2.646,5.644,0.427,47.711,-3.261,0.377,298.04,86.54,98787.929,18.413,109.407
海南,东方市,13.795,17.785,2.389,3.263,0.205,69.025,-0.858,0.828,299.116,79.215,99397.015,18.971,108.838
海南,临高县,13.549,21.783,2.661,4.363,0.319,60.174,-0.787,0.547,298.977,84.701,100577.166,19.821,109.733
海南,乐东黎族自治县,12.694,17.032,1.637,3.583,0.254,59.19,-2.001,0.555,297.808,83.947,97903.692,18.659,109.072
海南,五指山市,13.59,17.894,1.502,3.872,0.226,60.078,-1.988,1.684,295.844,89.024,94737.832,18.81,109.518
海南,儋州市,15.268,21.374,2.485,3.63,0.266,66.304,-0.589,-0.104,299.008,81.546,100232.321,19.568,109.399
海南,定安县,10.515,18.182,2.073,4.68,0.327,55.975,-2.105,2.117,298.847,87.025,100283.267,19.47,110.28
海南,屯昌县,10.938,17.424,1.898,3.728,0.276,57.644,-1.932,2.306,298.456,87.602,99503.144,19.342,110.076
海南,文昌市,8.801,14.965,1.431,1.964,0.214,70.857,-3.5,2.225,298.949,89.002,101061.497,19.707,110.773
海南,昌江黎族自治县,17.478,22.072,3.401,3.687,0.236,72.988,-0.317,-0.353,298.29,81.597,98399.809,19.233,109.016
海南,海口市,10.953,19.818,3.064,6.361,0.367,52.268,-2.111,1.702,299.006,87.062,100857.05,19.842,110.393
海南,澄迈县,12.734,21.527,3.369,6.326,0.384,50.52,-1.34,1.041,299.026,85.24,100404.879,19.676,109.989
海南,琼中黎族苗族自治县,11.94,17.045,1.531,3.035,0.224,62.387,-1.577,2.093,297.286,88.387,97340.239,19.087,109.847
海南,琼海市,9.263,15.508,1.45,2.468,0.217,70.693,-2.498,1.81,299.127,87.33,100834.02,19.22,110.43
海南,白沙黎族自治县,14.444,18.991,1.91,3.179,0.234,66.245,-0.362,0.459,297.742,81.416,97053.709,19.2,109.388
海南,陵水黎族自治县,10.556,15.913,1.161,2.754,0.241,66.767,-2.046,0.094,298.07,89.683,99345.069,18.581,109.913
湖北,仙桃市,31.454,48.059,9.418,17.343,0.693,49.982,-0.035,-3.061,288.507,84.765,101754.831,30.284,113.417
湖北,十堰市,31.473,47.515,12.277,9.089,0.48,79.234,-0.914,-0.227,285.486,61.486,93873.607,32.462,110.476
湖北,咸宁市,30.495,40.79,6.407,17.43,0.699,37.29,0.366,-2.453,287.992,94.2,99820.366,29.621,114.178
湖北,天门市,35.646,53.015,10.782,18.365,0.73,52.981,-0.366,-3.539,288.504,81.764,101726.804,30.633,113.053
湖北,孝感市,42.906,58.289,10.578,19.374,0.723,42.592,-1.24,-3.35,288.457,86.199,101112.774,31.116,113.869
湖北,宜昌市,27.496,42.691,9.829,13.712,0.56,65.937,-0.829,-2.239,285.788,68.859,94640.848,30.746,111.129
湖北,恩施土家族苗族自治州,28.158,44.824,11.895,9.62,0.564,50.489,-0.434,-0.229,284.196,81.452,90041.521,30.195,109.552
湖北,武汉市,40.272,51.332,8.399,26.232,0.755,28.52,-0.368,-2.732,289.159,87.102,101616.726,30.606,114.349
湖北,潜江市,33.619,53.173,9.709,20.8,0.768,56.816,-0.324,-3.734,288.562,79.436,101735.713,30.33,112.77
湖北,神农架林区,24.348,32.76,9.805,2.712,0.321,81.047,-0.104,-2.266,279.605,76.9,83405.958,31.592,110.49
湖北,荆州市,30.869,49.353,9.407,19.328,0.737,58.144,-0.183,-3.747,288.897,75.226,101498.43,30.01,112.512
湖北,荆门市,40.615,56.014,10.381,21.159,0.703,55.816,-0.445,-4.332,287.903,79.009,100728.545,31.059,112.616
湖北,襄阳市,36.527,51.132,9.072,17.152,0.594,69.244,-0.257,-3.047,286.543,75.728,98014.925,31.919,111.96
湖北,鄂州市,35.453,46.311,7.324,27.046,0.74,35.153,-0.66,-2.124,289.339,88.137,101646.787,30.337,114.794
湖北,随州市,45.088,60.468,10.747,21.425,0.674,43.993,-1.813,-3.024,287.289,88.575,100021.483,31.809,113.43
湖北,黄冈市,48.854,47.361,9.899,19.068,0.588,42.678,-2.622,-1.827,288.675,87.082,99891.665,30.702,115.358
湖北,黄石市,49.367,44.928,8.1,25.558,0.695,33.512,-0.769,-2.185,288.932,92.654,100638.514,29.925,115.034
湖南,娄底市,23.131,35.654,6.829,12.153,0.788,63.25,-0.158,-3.693,286.219,87.923,97690.342,27.715,111.632
湖南,岳阳市,28.752,41.543,6.871,13.797,0.657,53.449,0.246,-3.219,288.348,88.02,100551.173,29.081,113.275
湖南,常德市,25.7,41.807,10.725,14.861,0.766,60.001,-0.114,-2.886,287.958,72.328,99815.987,29.271,111.524
湖南,张家界市,22.11,36.634,8.705,10.028,0.688,53.095,-1.063,-0.915,286.058,78.548,95850.53,29.379,110.526
湖南,怀化市,20.804,34.231,7.099,7.773,0.653,64.834,-1.501,-2.994,286.253,86.557,96786.004,27.535,110.071
湖南,株洲市,24.893,34.426,7.25,15.995,0.772,46.968,1.185,-2.853,287.503,95.118,98340.798,27.109,113.513
湖南,永州市,23.9,32.936,6.784,10.422,0.654,63.928,-1.986,-3.838,286.823,92.734,96927.579,25.748,111.723
湖南,湘潭市,29.919,39.23,6.094,18.146,0.758,60.809,1.24,-4.024,287.735,88.824,100685.103,27.744,112.619
湖南,湘西土家族苗族自治州,23.891,38.208,5.726,8.541,0.682,52.922,-1.048,-0.825,286.047,84.981,95788.839,28.708,109.718
湖南,益阳市,27.241,42.862,8.334,10.649,0.792,63.246,0.705,-3.437,287.119,83.976,99293.519,28.525,111.919
湖南,衡阳市,24.368,31.869,6.135,16.078,0.758,59.693,0.706,-3.816,287.62,91.868,100179.005,26.781,112.565
湖南,邵阳市,24.697,34.061,8.08,11.396,0.644,65.796,-1.69,-2.689,285.583,91.231,95423.904,26.893,110.881
湖南,郴州市,18.073,26.429,4.849,11.481,0.89,53.028,0.073,-3.318,286.826,97.116,96066.011,25.769,113.109
湖南,长沙市,31.15,41.33,7.033,17.156,0.746,50.766,1.167,-3.861,288.041,89.654,100058.508,28.235,113.159
甘肃,临夏回族自治州,23.136,33.155,5.087,12.25,0.574,70.594,-0.649,0.348,280.505,55.484,77777.636,35.617,103.291
甘肃,兰州市,32.449,50.137,13.677,23.977,0.679,61.366,-0.816,-0.111,281.158,59.281,79422.671,36.359,103.633
甘肃,嘉峪关市,33.132,88.17,19.455,62.168,0.925,73.785,-3.252,1.013,281.8,33.967,81956.792,39.798,98.145
甘肃,天水市,27.618,42.333,11.425,11.287,0.417,48.111,-0.793,2.379,281.734,70.294,83058.031,34.645,105.739
甘肃,定西市,24.306,34.527,8.247,7.956,0.369,66.245,-0.741,1.456,279.527,67.893,77577.69,35.124,104.432
甘肃,平凉市,33.968,53.321,11.874,17.098,0.577,48.501,-0.419,1.837,282.258,69.38,84922.356,35.304,106.644
甘肃,庆阳市,35.942,53.863,14.716,14.641,0.564,61.836,-0.092,1.573,282.563,65.471,86218.137,36.149,107.596
甘肃,张掖市,16.91,24.682,5.755,6.118,0.278,83.728,-0.041,0.237,277.427,44.368,74923.986,38.94,99.855
甘肃,武威市,34.258,42.616,15.728,9.505,0.413,72.565,-2.645,0.118,280.654,59.3,81767.093,38.163,103.073
甘肃,甘南藏族自治州,12.966,14.878,3.071,2.086,0.209,81.305,0.427,0.405,273.879,73.203,67905.047,34.331,102.768
甘肃,白银市,37.08,52.435,15.658,18.517,0.638,61.375,-1.441,1.373,282.006,63.065,81829.495,36.59,104.646
甘肃,酒泉市,12.87,17.227,5.897,2.706,0.193,77.689,-3.078,1.037,280.398,29.353,79350.675,40.236,96.062
甘肃,金昌市,37.398,53.781,13.26,13.446,0.513,83.167,-2.611,1.501,280.103,59.32,80961.879,38.44,102.048
甘肃,陇南市,25.516,35.578,10.731,5.861,0.355,54.529,-0.347,1.79,281.052,75.605,82606.971,33.599,105.224
福建,三明市,18.752,27.782,9.411,11.869,0.511,37.82,-0.865,-1.048,289.976,96.897,95353.217,26.29,117.395
福建,南平市,15.594,22.051,6.903,9.901,0.415,46.94,-1.018,-0.669,289.282,95.606,96148.551,27.324,118.143
福建,厦门市,18.32,30.695,8.053,20.262,0.495,59.582,-3.005,-5.165,294.758,85.025,100433.063,24.642,118.11
福建,宁德市,14.091,19.724,6.13,11.016,0.371,62.742,-1.977,-2.668,289.577,92.109,95482.285,26.968,119.474
福建,泉州市,16.74,24.79,6.145,14.17,0.449,61.824,-2.663,-2.834,292.115,92.709,96721.154,25.201,118.249
福建,漳州市,21.448,32.457,6.845,14.518,0.498,59.568,-2.139,-3.09,293.451,88.554,98291.726,24.372,117.444
福建,福州市,13.358,19.877,5.683,14.015,0.456,65.309,-2.875,-4.09,291.783,91.907,97521.314,26.083,119.206
福建,莆田市,14.615,21.255,6.565,13.588,0.454,67.204,-3.026,-4.769,292.941,90.405,98243.849,25.445,118.864
福建,龙岩市,25.738,33.46,8.546,13.691,0.605,39.412,-0.722,-1.369,290.579,95.369,95317.933,25.256,116.739
西藏,山南市,14.518,16.406,1.036,1.761,0.16,88.263,3.623,1.407,277.133,64.107,66333.094,28.295,92.274
西藏,拉萨市,6.681,8.967,0.137,3.121,0.135,89.949,3.512,0.165,271.075,47.544,56721.49,30.043,91.093
西藏,日喀则市,6.803,7.649,0.297,0.523,0.124,93.375,7.399,0.158,269.698,31.327,55524.225,29.483,86.493
西藏,昌都市,4.347,4.778,0.289,0.766,0.128,85.512,3.346,3.154,270.791,67.765,59269.876,30.753,97.044
西藏,林芝市,9.057,9.537,0.829,1.386,0.137,83.206,0.154,2.237,275.592,81.148,66613.415,29.184,95.25
西藏,玉树藏族自治州,1.703,1.865,0.139,0.476,0.121,91.482,1.772,0.699,267.876,61.174,57466.398,34.196,94.317
西藏,那曲市,1.855,1.997,0.1,0.208,0.122,95.22,3.647,0.178,267.96,49.054,55583.687,32.709,89.262
西藏,阿里地区,1.745,1.955,0.196,0.419,0.118,93.427,6.569,-0.485,265.502,40.907,55000.504,33.013,82.553
贵州,六盘水市,17.587,30.973,9.065,11.767,0.684,46.945,-2.271,0.747,284.363,93.71,83440.784,26.106,104.896
贵州,安顺市,21.271,33.897,7.13,10.501,0.489,47.301,-2.753,-1.351,286.336,85.762,88539.129,25.986,105.978
贵州,毕节市,18.02,27.809,7.707,11.432,0.612,47.192,-2.016,-0.663,283.579,92.621,83824.117,27.063,105.211
贵州,贵阳市,20.066,29.413,7.153,13.991,0.493,41.286,-2.396,-1.505,284.549,90.921,88632.589,26.845,106.71
贵州,遵义市,28.238,35.839,12.99,8.765,0.476,54.149,-2.197,0.272,285.059,89.036,90867.38,28.167,107.102
贵州,铜仁市,22.445,37.6,12.298,6.658,0.56,62.395,-2.013,-0.91,285.059,88.573,93264.832,27.937,108.534
贵州,黔东南苗族侗族自治州,20.713,34.126,17.452,6.352,0.532,60.629,-2.21,-3.592,284.988,91.803,93102.758,26.495,108.574
贵州,黔南布依族苗族自治州,19.274,29.522,14.041,5.604,0.45,54.5,-2.715,-2.894,285.627,88.751,90772.133,26.0,107.265
贵州,黔西南布依族苗族自治州,21.961,35.403,9.994,6.041,0.547,54.307,-2.407,-0.981,286.803,89.654,88908.292,25.256,105.467
辽宁,丹东市,20.888,28.819,7.325,17.741,0.51,41.045,1.305,-4.58,283.254,46.234,99196.502,40.554,124.376
辽宁,大连市,48.254,65.078,9.446,28.876,0.78,64.979,-0.976,-2.85,287.196,42.35,101450.107,39.591,122.22
辽宁,抚顺市,24.755,35.029,7.074,18.866,0.535,40.051,1.441,-2.05,280.659,54.654,97479.187,41.841,124.65
辽宁,朝阳市,20.621,42.236,7.877,19.534,0.572,42.266,0.47,-3.808,282.845,37.811,97125.622,41.545,120.053
辽宁,本溪市,25.271,36.188,8.172,21.223,0.626,38.571,1.588,-3.237,280.872,52.098,96817.912,41.232,124.544
辽宁,沈阳市,26.948,47.987,7.857,26.127,0.513,31.858,0.746,-2.821,283.27,44.424,101705.988,42.081,123.159
辽宁,盘锦市,20.567,42.311,10.933,28.357,0.573,34.286,-0.201,-3.568,285.028,35.659,102354.555,41.13,122.01
辽宁,营口市,32.301,53.432,9.519,34.132,0.708,37.137,-0.636,-2.928,284.963,37.671,100096.124,40.395,122.478
辽宁,葫芦岛市,28.651,52.378,12.155,28.343,0.625,36.96,-0.346,-2.423,285.018,40.623,99836.846,40.66,120.215
辽宁,辽阳市,33.021,59.031,10.818,34.387,0.769,28.993,0.356,-2.036,283.354,42.303,100318.258,41.153,123.261
辽宁,铁岭市,22.593,34.856,5.248,18.537,0.446,38.2,1.499,-1.982,281.539,51.735,100112.176,42.653,124.158
辽宁,锦州市,17.048,33.172,7.293,20.448,0.561,39.215,0.749,-4.304,284.699,35.039,101546.862,41.502,121.659
辽宁,阜新市,10.606,18.626,3.695,10.994,0.44,44.995,2.083,-4.265,282.836,40.01,100075.641,42.289,121.968
辽宁,鞍山市,26.431,46.987,8.936,29.13,0.658,33.82,0.417,-3.456,284.284,39.192,100371.421,40.731,123.007
重庆,重庆城区,37.235,52.306,11.934,24.382,0.611,45.189,-0.861,-0.222,287.792,80.517,95444.616,29.824,107.125
重庆,重庆郊县,30.868,44.394,13.914,9.217,0.472,60.506,-0.859,-0.183,285.295,76.809,91605.277,30.334,108.755
陕西,咸阳市,58.529,76.799,9.156,37.324,0.78,47.819,-0.977,0.616,285.961,49.224,91920.763,34.779,108.367
陕西,商洛市,42.472,61.843,12.188,10.501,0.496,71.301,-0.096,0.827,283.825,60.348,89855.323,33.64,109.889
陕西,安康市,31.385,45.143,13.724,6.249,0.427,73.055,-1.341,-0.053,284.032,65.181,90395.421,32.735,108.932
陕西,宝鸡市,37.02,52.004,8.565,18.33,0.557,50.287,-0.338,1.27,283.037,66.785,86792.882,34.386,107.193
陕西,延安市,34.156,57.865,15.054,25.561,0.712,57.592,0.5,2.227,283.528,53.296,88000.07,36.432,109.316
陕西,榆林市,34.004,51.028,15.018,26.213,0.748,54.85,-0.488,0.048,283.229,66.659,88361.194,38.041,109.581
陕西,汉中市,29.737,41.291,12.924,8.355,0.432,59.922,-1.724,0.12,284.011,67.462,89440.198,33.088,107.098
陕西,渭南市,56.004,90.652,10.995,46.298,0.829,53.969,-1.324,0.153,287.447,42.279,94284.262,34.919,109.855
陕西,西安市,51.419,72.882,8.266,29.499,0.702,55.439,-0.031,1.208,285.545,54.325,90989.058,34.12,108.77
陕西,铜川市,47.607,71.352,12.738,34.957,0.785,51.014,-1.117,0.928,284.431,46.791,89632.397,35.198,109.058
青海,保亭黎族苗族自治县,12.572,18.132,2.116,5.384,0.352,51.294,-2.276,-0.026,296.788,91.236,97218.768,18.566,109.618
青海,吐鲁番市,13.881,26.592,3.721,5.511,0.214,56.054,-1.159,-1.435,285.874,27.588,90416.358,42.386,89.851
青海,果洛藏族自治州,3.023,3.203,0.381,0.79,0.126,87.077,1.753,0.981,269.694,65.182,60191.204,34.127,99.404
青海,海东市,21.31,25.361,6.675,6.817,0.386,79.516,-1.001,0.344,277.198,57.461,73070.832,36.347,102.34
青海,海北藏族自治州,7.654,8.917,2.041,1.936,0.159,86.732,1.072,0.505,271.14,60.556,65599.344,37.775,100.288
青海,海南藏族自治州,4.427,4.895,0.69,1.023,0.134,84.405,0.443,0.275,273.785,53.18,66750.656,35.89,100.272
青海,海西蒙古族藏族自治州,1.874,2.063,0.382,0.408,0.123,88.05,1.763,-0.01,272.545,37.502,64733.919,36.677,94.519
青海,西宁市,18.25,25.183,6.555,9.314,0.503,74.237,-0.321,0.604,274.717,60.991,69852.644,36.842,101.423
青海,黄南藏族自治州,5.587,6.01,1.031,1.051,0.138,86.979,0.578,0.392,273.152,63.777,66076.566,35.022,101.631
香港,香港特别行政区,18.43,29.895,5.98,11.13,0.365,81.34,-4.825,-0.155,297.295,87.62,100960.63,22.45,114.22
黑龙江,七台河市,7.81,12.811,2.346,5.965,0.283,42.751,6.884,-0.379,276.32,63.04,98461.922,45.87,130.943
黑龙江,伊春市,6.197,8.876,1.194,2.206,0.246,53.007,6.368,-1.677,272.57,74.814,96910.768,47.772,129.184
黑龙江,佳木斯市,6.994,10.713,2.098,4.154,0.298,47.17,6.122,0.667,276.806,58.973,100306.825,47.207,132.11
黑龙江,双鸭山市,6.995,10.384,2.909,5.243,0.297,47.443,6.068,0.635,277.199,59.318,99896.909,46.722,132.643
黑龙江,哈尔滨市,8.608,15.831,3.483,7.703,0.312,47.902,5.406,-1.413,276.739,53.816,99012.901,45.634,127.964
黑龙江,大兴安岭地区,0.47,0.519,0.719,0.718,0.199,66.351,2.902,-7.274,271.314,58.553,95794.39,52.286,124.212
黑龙江,大庆市,5.872,12.109,3.458,5.905,0.275,50.416,3.258,-5.429,277.988,41.524,100596.253,46.327,124.687
黑龙江,牡丹江市,9.575,14.783,3.599,6.473,0.262,47.975,6.333,-0.689,276.117,64.533,95756.189,44.592,129.883
黑龙江,绥化市,6.947,10.622,1.851,4.279,0.271,51.724,4.923,-4.627,275.64,51.909,99594.718,46.89,126.634
黑龙江,鸡西市,8.498,11.763,3.294,6.179,0.26,47.581,6.118,-0.237,278.168,61.925,99715.731,45.626,132.289
黑龙江,鹤岗市,6.621,10.251,2.088,3.728,0.3,48.493,6.388,-0.867,274.87,64.259,99303.676,47.661,130.778
黑龙江,黑河市,6.569,8.677,0.871,1.955,0.243,59.904,5.09,-5.77,271.878,79.237,97510.97,49.268,127.004
黑龙江,齐齐哈尔市,3.906,6.101,1.864,2.797,0.23,57.905,3.451,-6.617,276.199,47.219,99765.78,47.715,124.57
