province,city,PM2.5,PM10,SO2,NO2,CO,O3,U,V,TEMP,RH,PSFC,lat,lon
上海,上海市,16.442,35.159,7.805,28.102,0.497,66.12,-0.073,-7.164,289.934,55.374,102518.907,31.173,121.42
云南,临沧市,20.091,40.529,16.356,3.983,0.476,49.155,-2.852,2.494,287.075,92.958,84300.941,23.935,99.686
云南,丽江市,26.59,36.987,18.942,5.854,0.496,60.554,2.55,2.596,281.898,82.8,74996.5,26.96,100.515
云南,保山市,18.251,38.261,14.183,6.166,0.474,39.807,-2.093,0.906,286.053,95.199,82242.091,24.953,98.962
云南,大理白族自治州,21.653,39.796,14.366,5.162,0.459,58.915,-0.249,2.423,283.413,92.016,78506.09,25.726,100.053
云南,德宏傣族景颇族自治州,29.497,43.662,18.52,5.751,0.52,38.084,-2.069,0.913,288.878,94.385,86411.237,24.535,98.052
云南,怒江傈僳族自治州,22.097,29.773,8.725,1.856,0.267,61.232,0.992,1.778,280.465,91.278,73121.906,26.916,98.885
云南,文山壮族苗族自治州,36.497,51.008,16.011,4.54,0.446,68.249,-2.119,-1.615,285.26,83.888,87111.892,23.696,104.735
云南,昆明市,30.096,44.747,14.996,13.316,0.703,47.932,-0.626,2.767,282.959,88.94,79686.213,25.384,102.863
云南,昭通市,33.925,57.021,14.063,11.114,0.58,55.475,-1.001,-0.2,285.08,74.113,84596.817,27.667,103.985
云南,普洱市,17.187,37.996,15.043,3.735,0.402,51.352,-2.752,1.415,287.448,93.148,86422.572,23.159,100.718
云南,曲靖市,33.025,53.764,16.794,11.269,0.649,58.573,-1.082,2.801,282.647,87.361,80502.083,25.737,103.929
云南,楚雄彝族自治州,27.292,42.674,19.954,7.803,0.594,51.372,0.177,2.575,284.392,87.546,81429.24,25.328,101.567
云南,玉溪市,28.041,43.72,15.695,7.153,0.489,55.695,-2.255,1.844,284.95,91.432,83969.965,24.136,102.217
云南,红河哈尼族彝族自治州,38.03,50.561,18.061,4.857,0.453,63.968,-3.203,0.445,285.754,87.681,85673.101,23.451,103.034
云南,西双版纳傣族自治州,14.164,30.443,9.511,3.828,0.384,44.483,-4.104,-0.284,289.731,87.132,89401.534,21.939,100.912
云南,迪庆藏族自治州,11.885,13.822,2.8,1.326,0.197,67.733,5.687,1.686,276.903,81.525,67547.475,27.957,99.459
内蒙古,乌兰察布市,4.045,6.588,2.266,4.441,0.273,63.773,0.617,-0.292,275.144,46.572,86824.045,41.691,112.44
内蒙古,乌海市,18.972,40.77,31.029,31.654,0.688,51.836,-3.736,1.892,281.595,30.796,88407.859,39.396,106.856
内蒙古,兴安盟,2.966,5.461,2.453,3.069,0.218,53.626,3.827,-3.756,278.896,49.667,95373.719,46.244,121.341
内蒙古,包头市,9.54,15.845,5.003,13.594,0.338,56.198,-0.211,1.617,275.867,39.766,86786.817,41.549,110.276
内蒙古,呼伦贝尔市,2.623,3.786,2.84,2.333,0.204,50.247,4.091,-0.053,277.797,64.893,93996.495,49.636,121.171
内蒙古,呼和浩特市,10.43,22.338,3.927,16.837,0.436,52.514,-0.757,-0.393,275.896,41.57,87191.458,40.578,111.513
内蒙古,巴彦淖尔市,9.309,14.624,5.952,10.284,0.31,58.001,-1.702,1.684,278.217,36.072,88147.284,41.446,107.582
内蒙古,赤峰市,2.841,5.186,2.369,3.181,0.223,57.28,3.657,-4.309,277.511,49.678,92669.336,43.226,118.892
内蒙古,通辽市,5.538,9.736,3.561,5.122,0.268,50.24,3.844,-3.133,280.149,44.434,98576.292,43.814,121.591
内蒙古,鄂尔多斯市,13.73,23.817,9.654,20.587,0.403,49.007,-3.142,1.459,279.383,36.13,87817.255,39.407,108.63
内蒙古,锡林郭勒盟,0.888,1.122,0.999,0.9,0.188,59.006,3.399,-1.11,276.323,55.061,89874.128,44.179,115.482
内蒙古,阿拉善盟,10.308,13.594,6.896,5.145,0.232,59.138,-4.696,1.523,282.381,28.461,88135.067,40.473,102.467
北京,北京市,7.201,17.867,2.793,20.289,0.291,43.496,2.111,-2.363,283.011,32.824,98842.427,40.158,116.395
台湾,台湾省,16.155,21.861,5.992,12.153,0.243,73.543,-2.769,-5.864,292.865,81.911,93215.392,23.757,120.975
吉林,吉林市,14.122,21.059,5.649,11.022,0.412,37.462,3.941,-1.637,276.687,81.253,97531.204,43.573,126.859
吉林,四平市,11.485,18.801,3.717,9.767,0.397,39.647,4.074,-2.489,280.263,50.739,99988.088,43.472,124.386
吉林,延边朝鲜族自治州,12.711,17.028,5.309,6.619,0.288,42.922,6.604,-2.821,274.263,87.184,94266.396,43.141,129.147
吉林,松原市,8.093,13.334,3.853,6.206,0.303,42.94,3.688,-3.144,280.601,47.881,100303.794,44.785,124.496
吉林,白城市,7.209,11.224,3.876,6.267,0.262,46.818,3.086,-2.512,280.954,43.714,100476.23,45.35,123.031
吉林,白山市,16.107,23.852,8.231,10.789,0.411,38.088,5.471,-1.523,273.173,92.15,92610.445,42.063,127.256
吉林,辽源市,13.612,22.464,4.08,11.944,0.443,37.858,5.038,-2.471,278.677,62.038,98053.027,42.836,125.32
吉林,通化市,13.358,22.416,7.279,10.751,0.449,37.882,4.233,-2.063,276.196,77.704,96239.489,41.939,125.927
吉林,长春市,10.649,18.848,3.589,9.262,0.389,39.462,3.975,-3.559,280.272,53.676,99782.47,44.268,125.611
四川,乐山市,45.401,68.455,8.746,22.664,0.572,41.472,-0.212,-2.092,286.218,69.383,90157.765,29.218,103.569
四川,内江市,44.24,76.962,8.725,35.761,0.805,25.138,-2.513,-1.038,291.546,59.282,97245.747,29.62,104.95
四川,凉山彝族自治州,28.278,38.747,16.952,8.629,0.545,56.233,1.251,2.791,280.56,79.419,74525.471,27.883,102.065
四川,南充市,40.492,64.578,8.139,24.903,0.616,39.962,-2.653,-1.059,289.838,62.736,97375.121,31.19,106.199
四川,宜宾市,54.006,78.375,13.714,25.586,0.712,33.34,0.821,-1.927,290.845,59.435,95560.511,28.573,104.621
四川,巴中市,36.17,56.298,9.372,14.424,0.499,56.248,-1.692,-0.27,287.583,59.524,93124.544,32.033,107.031
四川,广元市,35.463,56.0,12.234,15.28,0.516,42.95,-1.114,1.003,286.784,65.324,92222.09,32.261,105.788
四川,广安市,36.568,61.399,8.54,29.5,0.665,38.909,-2.217,0.642,291.166,52.903,97370.567,30.43,106.628
四川,德阳市,37.851,67.833,5.787,25.254,0.536,46.016,-1.24,-1.45,287.528,63.501,93784.948,31.13,104.436
四川,成都市,37.656,69.939,6.363,31.738,0.572,40.263,-1.316,-2.11,288.37,59.504,93910.517,30.64,103.929
四川,攀枝花市,42.193,60.628,52.615,25.418,1.078,38.356,0.46,2.678,285.671,72.763,81916.057,26.791,101.734
四川,泸州市,36.513,54.288,13.722,20.564,0.535,45.244,-3.147,3.543,290.665,52.0,93955.307,28.424,105.675
四川,甘孜藏族自治州,7.19,8.011,1.039,1.361,0.138,79.888,3.175,1.715,272.302,75.648,61399.787,30.936,100.009
四川,眉山市,39.997,73.87,7.244,31.262,0.644,31.111,-0.804,-2.154,288.786,62.793,94347.939,29.912,103.766
四川,绵阳市,35.96,55.115,7.267,13.694,0.437,56.264,-0.887,0.441,284.103,71.756,88565.334,31.86,104.704
四川,自贡市,56.499,86.513,11.432,37.478,0.845,21.735,-1.67,-2.007,291.511,59.972,97205.042,29.307,104.659
四川,资阳市,34.133,68.98,6.951,29.507,0.687,31.195,-3.116,-1.117,291.12,60.651,97526.706,30.102,105.149
四川,达州市,34.864,53.752,9.37,21.865,0.497,61.54,-2.462,0.157,288.962,55.083,94721.278,31.335,107.636
四川,遂宁市,38.241,69.38,6.714,28.222,0.631,32.582,-3.283,-1.523,290.4,63.53,97800.437,30.642,105.457
四川,阿坝藏族羌族自治州,14.431,18.012,2.715,2.423,0.193,72.478,0.309,0.576,272.074,83.918,65776.665,32.406,102.61
四川,雅安市,29.141,43.264,6.638,9.111,0.359,62.576,-0.596,-0.444,279.601,81.889,80560.089,29.932,102.689
天津,天津市,12.804,30.005,5.878,33.875,0.421,33.056,2.074,-2.804,284.353,31.494,102616.582,39.315,117.308
宁夏,中卫市,23.657,38.479,10.508,18.54,0.43,60.195,-1.927,2.612,282.588,39.164,84091.981,37.018,105.509
宁夏,吴忠市,17.726,27.9,9.809,8.822,0.312,64.474,-2.709,3.4,282.544,35.176,85716.22,37.454,106.577
宁夏,固原市,23.216,45.758,10.229,20.983,0.364,62.612,-1.452,5.086,280.56,53.87,81548.074,35.905,106.183
宁夏,石嘴山市,20.016,41.696,23.273,23.962,0.708,60.981,-2.566,0.027,281.128,32.749,87470.562,39.013,106.499
宁夏,银川市,19.028,35.787,13.661,15.245,0.482,62.572,-2.878,-0.581,282.59,33.132,87716.767,38.287,106.342
安徽,亳州市,27.973,64.693,11.535,31.333,0.416,67.812,-2.905,2.295,288.782,27.55,102400.161,33.44,116.162
安徽,六安市,23.614,49.172,9.124,21.321,0.407,73.337,-3.567,0.839,287.607,30.77,99864.699,31.617,116.209
安徽,合肥市,23.875,53.19,9.584,33.943,0.455,66.876,-4.012,-1.127,288.797,32.401,102275.551,31.766,117.359
安徽,安庆市,25.052,48.513,10.877,21.814,0.49,72.093,-4.723,-4.036,287.688,36.729,100265.514,30.557,116.473
安徽,宣城市,24.1,42.62,9.524,23.454,0.505,67.772,-3.473,-3.468,287.05,49.116,100185.288,30.676,118.846
安徽,宿州市,37.028,78.287,12.248,41.452,0.515,58.642,-2.019,-0.067,287.934,29.508,102381.618,33.844,117.23
安徽,池州市,22.249,38.783,9.896,17.244,0.438,66.891,-5.315,-3.154,287.567,40.65,100401.151,30.296,117.379
安徽,淮北市,31.913,71.441,12.514,43.269,0.467,60.193,-2.718,1.2,288.2,28.218,102421.052,33.722,116.747
安徽,淮南市,25.211,58.586,11.147,30.814,0.425,70.563,-3.6,0.992,289.423,29.639,102451.681,32.463,116.746
安徽,滁州市,26.469,50.544,9.94,26.168,0.391,70.524,-3.164,-1.783,288.496,31.868,102183.101,32.55,118.076
安徽,芜湖市,25.866,49.926,10.304,30.562,0.534,68.939,-4.045,-2.767,288.404,39.937,102423.564,31.167,118.162
安徽,蚌埠市,28.844,59.855,11.091,29.704,0.418,68.88,-2.942,0.139,288.42,29.244,102451.12,33.121,117.263
安徽,铜陵市,26.706,50.169,10.418,26.535,0.518,71.349,-4.22,-2.626,288.179,40.993,102269.529,30.883,117.531
安徽,阜阳市,28.092,66.1,11.664,26.231,0.441,73.108,-2.574,2.766,289.021,29.244,102360.848,32.937,115.723
安徽,马鞍山市,25.421,52.699,10.495,35.743,0.516,64.831,-3.911,-3.378,288.594,34.425,102439.786,31.622,118.386
安徽,黄山市,18.983,34.229,9.947,14.584,0.441,60.573,-5.165,-3.983,286.414,47.633,98120.718,29.869,118.09
山东,东营市,18.835,39.297,12.818,31.093,0.539,44.187,3.943,-2.644,285.934,33.882,102682.89,37.57,118.572
山东,临沂市,29.21,64.376,11.418,37.983,0.536,46.784,-0.786,-3.408,285.77,29.849,100913.577,35.289,118.27
山东,威海市,9.63,21.765,7.565,16.895,0.45,50.548,3.762,-3.005,285.557,57.796,101868.759,37.148,122.028
山东,德州市,30.882,63.969,9.548,43.598,0.527,38.965,0.276,-1.778,285.123,26.864,102634.805,37.233,116.679
山东,日照市,22.181,50.083,9.093,34.186,0.486,46.589,0.682,-4.199,285.465,31.733,101009.097,35.566,119.108
山东,枣庄市,36.603,87.42,15.974,46.286,0.527,46.359,-1.934,-1.632,287.158,28.242,101647.968,34.925,117.383
山东,泰安市,29.47,70.71,10.95,43.842,0.596,39.176,-1.93,-2.396,285.911,27.027,100825.575,35.993,117.04
山东,济南市,29.144,68.348,12.564,44.203,0.65,36.056,-0.232,-1.874,285.115,26.34,100813.41,36.639,117.254
山东,济宁市,36.405,86.878,15.307,49.267,0.607,43.635,-2.087,-1.26,286.97,29.522,102109.847,35.375,116.697
山东,淄博市,32.304,69.987,20.149,43.243,0.873,36.347,1.714,-1.998,284.45,27.722,100174.505,36.623,118.062
山东,滨州市,23.631,45.182,12.194,35.26,0.589,40.716,3.024,-2.296,285.383,29.312,102669.436,37.516,117.852
山东,潍坊市,26.017,55.951,13.788,38.778,0.698,40.154,3.661,-2.96,285.348,31.207,101585.564,36.53,119.092
山东,烟台市,13.162,26.352,7.387,23.133,0.48,46.23,4.086,-3.378,285.861,50.653,101421.443,37.25,120.789
山东,聊城市,35.092,80.615,12.564,53.325,0.625,37.767,-1.904,-1.206,285.971,25.913,102411.52,36.458,115.863
山东,菏泽市,44.144,100.551,16.697,49.699,0.685,52.333,-2.815,-0.75,287.508,29.278,102244.422,35.134,115.69
山东,青岛市,20.563,43.91,9.589,33.25,0.546,42.334,3.902,-3.245,285.619,41.09,102082.901,36.46,120.172
山西,临汾市,30.12,69.756,18.884,40.769,0.884,54.907,-1.767,-0.18,282.654,32.882,90914.016,36.227,111.398
山西,吕梁市,17.506,43.183,10.823,26.664,0.494,48.177,-1.426,-0.306,280.056,32.348,88510.377,37.663,111.27
山西,大同市,9.034,19.622,5.544,11.447,0.551,51.212,0.721,-2.201,276.18,43.272,88125.782,39.911,113.713
山西,太原市,22.321,54.362,12.231,33.317,0.53,43.306,-0.623,-1.657,278.626,36.048,88435.111,37.967,112.321
山西,忻州市,12.676,29.402,7.202,18.016,0.394,52.881,-0.449,-0.948,277.098,36.263,86928.374,38.877,112.391
山西,晋中市,28.898,58.569,11.595,34.014,0.578,46.891,-0.531,0.369,279.656,35.222,89365.972,37.328,112.997
山西,晋城市,39.732,84.798,15.856,37.784,1.138,69.159,-2.454,0.499,282.162,34.817,91329.31,35.625,112.752
山西,朔州市,14.557,39.05,9.848,18.941,0.638,46.375,-0.838,-0.828,276.098,42.911,87455.032,39.619,112.655
山西,运城市,35.833,78.758,18.263,41.804,0.9,62.141,-4.014,-0.162,286.078,29.374,95102.962,35.205,111.071
山西,长治市,32.079,71.069,13.475,35.361,0.872,58.603,-1.502,0.422,280.412,35.232,89656.076,36.48,112.915
山西,阳泉市,29.764,59.574,13.011,34.895,0.538,44.455,-0.169,-0.186,279.811,34.258,91301.268,38.031,113.512
广东,东莞市,20.114,29.051,6.711,20.078,0.763,66.113,-4.14,-5.214,294.577,70.244,101593.387,22.931,113.81
广东,中山市,21.201,34.536,6.97,28.523,0.807,64.264,-3.569,-5.998,295.127,71.812,101575.306,22.5,113.383
广东,云浮市,23.837,38.248,12.064,14.835,0.747,64.189,-3.381,-4.5,293.05,69.716,99629.701,22.776,111.818
广东,佛山市,21.84,33.417,7.465,24.928,0.767,67.593,-2.78,-5.797,294.528,67.293,101667.465,23.035,112.979
广东,广州市,21.887,30.244,7.837,16.695,0.683,70.596,-3.424,-5.375,294.038,69.195,100761.159,23.339,113.525
广东,惠州市,22.526,31.901,10.264,9.75,0.67,68.319,-3.55,-6.706,292.719,76.033,99766.884,23.244,114.485
广东,揭阳市,22.095,33.627,11.56,17.793,0.966,51.377,-2.377,-6.07,294.425,78.08,100326.348,23.323,116.123
广东,梅州市,18.233,32.582,11.691,13.9,0.844,51.163,-1.026,-4.819,291.619,82.132,98375.39,24.169,116.07
广东,汕头市,20.762,31.263,10.394,18.234,0.868,56.115,-4.457,-6.376,295.624,73.784,101434.194,23.339,116.614
广东,汕尾市,21.429,32.9,13.927,11.325,0.81,62.834,-2.712,-6.667,294.251,77.544,100034.965,23.024,115.527
广东,江门市,25.43,40.379,11.318,25.434,0.771,66.973,-3.094,-6.68,294.579,71.592,101011.04,22.289,112.676
广东,河源市,23.38,33.809,15.069,9.415,0.656,64.376,-2.004,-6.702,290.999,79.063,98594.084,24.021,114.969
广东,深圳市,22.462,33.518,7.248,22.242,0.77,62.603,-3.897,-7.398,293.948,74.592,101073.988,22.667,114.143
广东,清远市,27.28,35.556,12.713,9.974,0.535,72.686,-3.675,-6.409,291.36,63.3,98152.637,24.295,112.871
广东,湛江市,26.024,39.904,14.182,9.174,0.797,74.804,-3.78,-5.235,296.701,68.884,101374.648,21.091,110.163
广东,潮州市,17.579,28.399,9.376,14.301,0.856,54.989,-3.603,-5.712,294.139,75.277,99775.064,23.755,116.754
广东,珠海市,26.365,41.757,14.037,26.085,0.743,67.325,-3.55,-7.238,295.522,73.57,101616.993,22.095,113.317
广东,肇庆市,23.507,33.861,11.324,11.143,0.616,69.908,-4.105,-4.995,293.191,63.782,99751.045,23.505,112.199
广东,茂名市,24.855,38.866,14.454,10.072,0.755,66.821,-4.587,-5.569,294.645,67.678,99618.505,22.013,110.952
广东,阳江市,24.982,39.74,16.051,14.163,0.733,65.858,-3.378,-6.865,294.116,69.865,100167.118,22.042,111.786
广东,韶关市,29.302,36.96,13.121,9.686,0.68,74.397,-3.837,-5.882,289.937,66.778,97405.104,24.785,113.819
广西,北海市,35.632,47.586,15.166,9.265,0.965,74.222,-2.916,-6.403,295.743,63.733,101487.94,21.674,109.37
广西,南宁市,38.684,52.465,10.753,10.608,0.746,74.32,-2.878,-5.536,292.594,63.847,99791.637,23.051,108.469
广西,崇左市,36.606,51.409,13.335,6.703,0.598,72.97,-3.065,-5.584,292.368,65.899,98494.215,22.483,107.291
广西,来宾市,39.286,51.425,11.763,8.432,0.66,71.608,-3.684,-5.404,292.04,59.029,98623.492,23.859,109.417
广西,柳州市,37.611,50.692,13.894,7.826,0.591,70.822,-3.659,-4.854,291.337,54.127,98092.581,24.956,109.372
广西,桂林市,40.977,55.269,14.349,9.312,0.541,76.865,-5.439,-5.175,289.725,54.813,96469.69,25.353,110.513
广西,梧州市,29.55,42.7,12.836,10.252,0.762,65.85,-3.356,-4.576,292.835,63.662,99395.078,23.484,110.996
广西,河池市,34.933,47.503,13.935,5.819,0.513,61.225,-3.616,-3.489,290.034,61.684,95754.807,24.628,107.843
广西,玉林市,28.098,43.001,13.557,10.067,0.877,71.358,-3.529,-5.78,293.619,68.816,99748.79,22.452,110.164
广西,百色市,34.776,48.68,15.194,4.831,0.474,64.572,-2.235,-2.374,289.179,69.167,93658.262,23.981,106.292
广西,贵港市,33.885,46.167,11.348,8.485,0.761,74.303,-3.82,-5.044,293.079,61.726,100258.252,23.322,110.021
广西,贺州市,31.55,41.56,13.841,8.454,0.571,69.307,-4.049,-6.313,291.243,57.34,97614.795,24.364,111.394
广西,钦州市,38.764,50.934,11.625,9.868,0.92,75.723,-2.637,-6.603,294.127,65.405,100837.645,22.173,109.01
广西,防城港市,41.988,56.618,12.359,10.064,0.818,76.317,-2.04,-7.031,293.033,68.162,99259.677,21.88,108.002
新疆,乌鲁木齐市,20.178,32.349,3.089,14.385,0.286,67.215,0.258,-0.081,281.719,39.825,84649.415,43.746,87.818
新疆,五家渠市,26.61,39.17,5.063,15.42,0.32,54.53,-0.08,-0.557,287.823,45.18,96904.993,44.363,87.517
新疆,伊犁哈萨克自治州,26.179,33.23,2.496,3.997,0.27,70.682,0.151,0.298,278.803,58.128,80774.452,43.438,82.146
新疆,克孜勒苏柯尔克孜自治州,46.427,54.816,0.904,4.283,0.177,65.911,-1.153,2.587,273.031,44.262,70674.024,39.661,75.949
新疆,克拉玛依市,23.099,38.644,3.502,8.693,0.342,56.746,-1.167,-1.152,288.72,38.639,97712.085,45.457,85.207
新疆,北屯市,13.402,19.552,21.364,9.06,1.002,46.638,1.08,-1.96,285.554,39.168,95885.118,47.27,87.868
新疆,博尔塔拉蒙古自治州,25.304,31.751,3.568,3.15,0.221,63.032,0.609,0.256,282.364,53.782,86595.564,44.714,82.114
新疆,双河市,25.926,34.096,5.016,4.92,0.228,55.676,-0.518,-1.832,289.856,37.406,98163.398,44.87,82.474
新疆,可克达拉市,31.136,53.456,6.348,11.668,0.548,48.59,0.342,-0.004,286.982,50.284,95190.158,43.918,80.786
新疆,和田地区,16.554,18.953,0.577,1.096,0.147,76.1,-0.494,1.118,277.855,30.603,74156.857,37.059,80.934
新疆,哈密市,6.849,8.45,0.972,3.108,0.184,69.44,-1.05,0.056,285.378,17.909,88617.608,43.042,93.517
新疆,喀什地区,46.271,56.058,1.28,5.089,0.19,63.83,0.643,1.8,278.184,33.411,76286.772,38.125,77.178
新疆,图木舒克市,42.305,44.027,2.325,1.68,0.157,59.397,-4.01,-1.432,287.47,26.457,89508.608,39.892,79.182
新疆,塔城地区,23.532,28.914,3.228,3.113,0.221,63.86,0.057,-0.066,283.909,48.273,89966.057,45.642,84.789
新疆,巴音郭楞蒙古自治州,8.47,9.836,0.949,0.557,0.142,76.777,-1.365,-0.397,281.025,25.135,79399.468,39.463,87.481
新疆,新星市,5.805,12.89,2.295,15.595,0.39,56.225,-2.885,-0.11,289.58,11.475,92959.995,42.75,93.68
新疆,昆玉市,66.387,89.273,2.41,8.06,0.34,54.88,-0.83,-0.6,288.097,15.637,87105.767,37.457,79.093
新疆,昌吉回族自治州,16.888,21.885,2.444,5.635,0.204,66.443,-0.293,0.174,284.594,41.441,90269.2,44.342,88.608
新疆,石河子市,23.135,38.33,5.835,19.535,0.335,59.32,-0.245,0.9,288.44,39.245,95022.925,44.245,86.035
新疆,胡杨河市,25.292,37.77,3.29,5.438,0.378,61.408,0.186,0.222,289.204,39.68,98175.792,44.852,84.772
新疆,铁门关市,28.103,55.663,4.393,5.323,0.313,68.04,0.107,-2.017,289.633,18.767,91909.41,41.773,85.66
新疆,阿克苏地区,27.39,34.185,1.871,3.549,0.184,68.464,-0.302,-0.606,284.587,28.308,85571.58,40.965,81.578
新疆,阿勒泰地区,13.085,14.646,4.531,2.041,0.298,64.605,0.034,0.127,282.434,44.129,88904.736,46.902,88.421
新疆,阿拉尔市,31.449,49.662,2.142,9.497,0.247,61.057,-1.137,-1.383,287.821,24.8,90370.532,40.629,80.998
江苏,南京市,25.769,51.687,9.669,35.505,0.493,63.906,-3.128,-3.813,288.507,34.662,102493.878,31.899,118.876
江苏,南通市,20.575,32.935,11.766,16.16,0.4,75.96,0.51,-6.461,289.162,47.511,102576.542,32.201,120.979
江苏,宿迁市,33.821,60.854,11.202,32.924,0.543,58.738,-1.241,-1.974,288.086,30.755,102628.718,33.765,118.495
江苏,常州市,26.268,46.942,10.944,34.374,0.533,70.748,-2.533,-5.375,289.355,41.983,102517.224,31.613,119.666
江苏,徐州市,41.75,91.241,15.122,50.222,0.601,49.534,-1.236,-0.891,287.357,29.82,102383.319,34.363,117.513
江苏,扬州市,27.325,49.336,10.559,26.421,0.488,71.544,-1.775,-4.223,288.473,33.519,102654.608,32.709,119.486
江苏,无锡市,24.666,46.502,11.93,35.554,0.584,67.887,-2.07,-5.702,289.394,46.482,102408.341,31.546,120.066
江苏,泰州市,26.349,46.843,12.418,25.761,0.524,71.674,-0.82,-5.333,288.425,36.872,102599.242,32.605,120.048
江苏,淮安市,31.168,57.168,11.14,28.185,0.521,65.328,-1.468,-2.499,288.056,32.318,102618.416,33.362,118.985
江苏,盐城市,25.3,44.219,12.412,22.398,0.512,69.645,1.439,-4.42,288.119,36.903,102646.935,33.529,120.156
江苏,苏州市,20.468,39.7,11.172,31.444,0.527,69.771,-1.304,-6.776,289.832,51.555,102534.786,31.374,120.661
江苏,连云港市,28.663,53.13,11.0,33.47,0.522,54.62,0.662,-3.009,287.443,30.872,102504.191,34.519,119.133
江苏,镇江市,27.139,49.865,10.218,32.864,0.51,68.494,-2.318,-4.819,288.581,36.108,102518.958,32.016,119.49
江西,上饶市,21.883,38.552,14.785,16.295,0.471,66.251,-5.777,-4.068,288.256,50.295,100120.632,28.778,117.47
江西,九江市,18.558,39.171,11.113,16.503,0.444,74.698,-5.504,-3.681,288.375,40.892,100141.541,29.313,115.444
江西,南昌市,19.374,42.506,12.182,19.326,0.462,72.193,-5.254,-4.236,290.176,45.8,101989.223,28.671,116.016
江西,吉安市,31.796,52.179,16.667,14.713,0.624,67.873,-2.834,-5.265,288.46,61.905,99592.521,26.954,114.831
江西,宜春市,22.571,44.404,12.724,18.058,0.529,66.188,-4.621,-4.325,288.298,45.795,100036.377,28.29,114.974
江西,抚州市,24.673,39.125,15.221,12.181,0.434,79.304,-3.703,-4.997,288.624,61.547,99579.286,27.514,116.42
江西,新余市,26.913,53.247,16.963,22.76,0.689,60.516,-3.617,-4.935,288.725,49.417,100955.545,27.847,114.836
江西,景德镇市,18.945,34.855,12.085,14.397,0.435,62.178,-5.449,-3.956,288.558,42.296,101007.1,29.287,117.24
江西,萍乡市,30.373,53.032,14.636,19.211,0.718,61.759,-6.269,-3.587,288.243,50.384,98629.417,27.505,113.908
江西,赣州市,30.439,44.121,15.386,8.649,0.758,72.929,-1.653,-6.158,289.072,72.418,97781.368,25.692,115.279
江西,鹰潭市,27.561,44.053,18.29,16.894,0.463,73.541,-6.16,-3.729,288.462,58.344,100604.589,28.222,117.094
河北,保定市,16.013,32.418,4.608,25.916,0.384,44.845,0.808,-1.588,283.294,28.931,98874.232,39.018,115.159
河北,唐山市,19.345,37.703,15.388,34.104,0.506,31.231,1.277,-2.544,283.263,34.224,102045.692,39.731,118.354
河北,廊坊市,15.462,35.167,4.405,34.983,0.401,34.108,1.733,-2.86,284.904,28.732,102689.409,39.267,116.632
河北,张家口市,4.587,7.344,2.145,7.242,0.261,55.012,2.175,-3.544,276.007,48.099,88561.626,40.877,115.042
河北,承德市,4.466,7.598,2.589,8.223,0.257,53.925,2.249,-4.325,277.66,47.17,91827.994,41.339,117.578
河北,沧州市,25.638,46.471,7.904,37.314,0.502,39.268,1.379,-2.858,284.962,28.344,102730.768,38.258,116.744
河北,石家庄市,29.773,64.11,8.508,39.333,0.561,41.102,0.354,-0.566,283.872,28.671,99448.84,38.135,114.407
河北,秦皇岛市,13.84,23.96,7.965,22.685,0.433,41.194,2.092,-3.516,281.984,37.07,99666.3,40.12,119.193
河北,衡水市,34.868,63.424,7.988,40.772,0.496,42.452,0.014,-2.25,285.044,27.229,102623.484,37.755,115.813
河北,邢台市,35.502,78.916,11.382,43.944,0.59,42.223,0.056,-1.524,284.925,27.178,101105.92,37.195,114.815
河北,邯郸市,36.982,85.344,16.907,48.407,0.831,43.638,-1.265,-1.79,285.027,27.651,100608.405,36.538,114.596
河南,三门峡市,34.038,65.067,12.351,31.783,0.562,63.974,-3.082,1.72,284.885,32.361,92683.302,34.362,111.101
河南,信阳市,23.812,47.078,9.969,17.248,0.37,76.954,-3.725,2.545,289.72,25.879,101336.274,32.091,114.907
河南,南阳市,29.878,62.606,9.226,29.257,0.545,75.871,-1.408,0.295,288.645,28.726,99192.248,33.034,112.323
河南,周口市,32.484,80.021,11.615,30.598,0.51,74.135,-2.385,3.001,289.039,27.18,102114.725,33.738,114.884
河南,商丘市,37.852,87.948,13.877,44.299,0.518,59.381,-2.78,1.177,288.343,27.968,102243.104,34.277,115.718
河南,安阳市,42.856,92.036,20.324,48.096,1.015,50.51,-0.752,-2.307,285.537,27.742,100184.322,35.888,114.318
河南,平顶山市,40.615,87.026,16.234,46.291,0.647,62.584,0.513,-0.844,288.155,29.253,99861.404,33.8,113.025
河南,开封市,45.724,96.849,15.05,45.016,0.624,64.158,-2.732,-0.158,288.078,28.877,101872.332,34.594,114.514
河南,新乡市,44.469,93.175,17.717,46.851,0.864,58.843,-2.897,-3.445,286.951,27.229,100969.645,35.256,114.111
河南,洛阳市,41.029,82.224,15.501,39.169,0.645,61.578,-1.362,-0.686,285.229,33.756,95154.721,34.274,112.019
河南,济源市,45.509,97.31,17.383,47.615,1.154,56.785,-3.86,-1.369,285.679,30.354,97063.995,35.105,112.445
河南,漯河市,34.793,84.257,12.971,38.802,0.536,77.916,-0.466,2.319,289.275,27.368,101910.372,33.652,113.945
河南,濮阳市,43.704,93.246,16.911,52.428,0.786,48.057,-2.763,-1.221,286.941,28.231,102250.362,35.809,115.283
河南,焦作市,42.029,90.034,15.024,46.911,0.898,59.982,-5.371,-2.423,287.759,26.332,100744.832,35.121,113.163
河南,许昌市,42.812,98.578,15.296,51.939,0.701,58.684,-1.026,-0.803,288.185,29.377,101241.032,34.075,113.707
河南,郑州市,49.785,106.021,15.697,55.344,0.796,50.62,-3.177,-2.356,286.792,30.495,99947.536,34.634,113.438
河南,驻马店市,28.544,61.348,9.502,23.076,0.409,80.938,-1.597,3.408,289.648,26.797,101607.836,32.925,114.174
河南,鹤壁市,44.477,95.01,21.824,50.44,1.109,48.778,-0.338,-3.533,286.311,26.544,101375.378,35.716,114.319
浙江,丽水市,18.211,30.155,10.076,17.654,0.481,69.267,-3.549,-5.081,285.321,71.92,95272.948,28.194,119.51
浙江,台州市,13.701,22.977,7.895,18.899,0.452,62.892,-1.533,-8.172,288.984,69.008,99571.562,28.742,121.109
浙江,嘉兴市,18.205,38.793,9.088,33.193,0.597,59.841,-1.55,-6.382,289.658,55.487,102505.157,30.635,120.754
浙江,宁波市,11.662,21.475,8.383,20.746,0.452,65.858,-1.227,-8.147,290.225,63.054,101151.244,29.706,121.49
浙江,杭州市,20.343,39.274,9.432,25.824,0.589,59.223,-3.114,-5.505,287.389,55.125,99555.579,29.891,119.464
浙江,温州市,15.403,25.31,8.583,20.708,0.469,64.377,-1.744,-7.138,287.982,71.824,98331.467,27.897,120.411
浙江,湖州市,21.151,39.31,9.496,31.396,0.543,66.649,-2.219,-5.07,288.754,52.604,101252.76,30.757,119.871
浙江,绍兴市,16.994,32.697,8.867,30.268,0.634,56.755,-2.07,-6.398,288.626,63.442,100352.588,29.709,120.64
浙江,舟山市,7.84,12.513,5.47,3.362,0.275,79.805,-1.81,-9.748,291.655,59.67,102133.528,30.038,122.23
浙江,衢州市,19.336,35.11,12.186,21.285,0.506,61.768,-5.706,-4.604,287.17,54.4,98711.553,28.912,118.675
浙江,金华市,17.838,33.407,9.173,26.343,0.593,58.415,-2.924,-5.712,287.241,64.259,98975.923,29.109,119.967
海南,万宁市,38.673,55.953,14.176,5.393,0.558,93.209,-3.238,-6.632,297.224,85.669,100198.407,18.842,110.294
海南,三亚市,40.373,55.457,6.969,6.847,0.609,87.454,-4.947,-4.419,298.009,73.08,98918.693,18.413,109.407
海南,东方市,48.347,61.598,19.73,3.669,0.513,92.397,-4.653,-4.875,297.589,75.996,99599.973,18.971,108.838
海南,临高县,31.33,49.784,9.954,5.571,0.679,91.173,-4.543,-4.664,297.231,82.06,100862.427,19.821,109.733
海南,乐东黎族自治县,44.098,57.785,14.338,4.031,0.532,89.585,-4.535,-4.108,297.137,75.507,98053.83,18.659,109.072
海南,五指山市,44.024,59.248,14.734,4.234,0.564,87.654,-5.246,-5.744,294.296,86.956,94878.788,18.81,109.518
海南,儋州市,40.559,59.37,15.059,5.199,0.611,88.841,-4.505,-3.976,296.881,83.507,100505.551,19.568,109.399
海南,定安县,27.835,45.013,5.002,7.147,0.765,84.708,-3.348,-4.902,297.182,82.933,100530.892,19.47,110.28
海南,屯昌县,32.476,51.7,6.9,7.034,0.718,83.572,-2.854,-4.3,296.336,86.694,99749.792,19.342,110.076
海南,文昌市,27.986,45.626,7.488,6.241,0.693,89.26,-4.936,-6.1,297.972,81.206,101297.557,19.707,110.773
海南,昌江黎族自治县,48.607,64.204,19.611,4.076,0.543,92.03,-5.758,-4.684,296.001,84.82,98618.601,19.233,109.016
海南,海口市,25.641,41.683,5.425,6.991,0.776,87.432,-4.622,-5.182,297.511,82.112,101127.035,19.842,110.393
海南,澄迈县,28.583,46.004,6.447,7.321,0.766,86.047,-3.783,-4.38,297.053,83.566,100677.899,19.676,109.989
海南,琼中黎族苗族自治县,41.486,60.291,12.671,5.68,0.632,81.879,-2.855,-4.419,294.902,91.543,97557.949,19.087,109.847
海南,琼海市,30.135,48.23,8.377,5.98,0.638,91.493,-2.997,-5.105,297.892,81.29,101054.01,19.22,110.43
海南,白沙黎族自治县,45.214,62.849,17.422,4.68,0.592,85.638,-4.298,-3.341,294.668,91.586,97282.598,19.2,109.388
海南,陵水黎族自治县,41.724,57.411,11.697,5.521,0.573,88.354,-4.193,-6.797,297.417,79.954,99493.036,18.581,109.913
湖北,仙桃市,25.645,51.932,10.684,26.57,0.567,75.613,-4.758,1.01,290.252,35.048,102280.374,30.284,113.417
湖北,十堰市,18.067,33.448,8.562,11.827,0.414,77.175,-1.955,0.673,286.899,37.856,94199.799,32.462,110.476
湖北,咸宁市,21.153,38.816,9.945,15.613,0.472,80.678,-5.937,0.033,288.854,35.751,100357.27,29.621,114.178
湖北,天门市,29.0,69.495,13.716,40.009,0.777,67.441,-3.833,1.133,290.001,33.339,102239.658,30.633,113.053
湖北,孝感市,24.71,52.94,9.417,29.799,0.57,74.968,-3.22,1.758,289.65,30.852,101663.505,31.116,113.869
湖北,宜昌市,21.444,44.952,11.461,18.59,0.518,76.494,-1.336,0.623,287.232,38.698,95067.187,30.746,111.129
湖北,恩施土家族苗族自治州,23.744,39.846,12.255,8.856,0.421,58.445,-1.793,1.852,285.057,56.22,90432.813,30.195,109.552
湖北,武汉市,23.682,48.597,11.254,31.041,0.588,77.621,-4.642,1.456,290.14,32.149,102200.867,30.606,114.349
湖北,潜江市,30.77,66.252,13.027,36.706,0.76,66.68,-4.552,0.717,290.37,32.424,102223.766,30.33,112.77
湖北,神农架林区,14.805,24.081,6.496,4.889,0.288,88.336,-0.162,2.019,281.263,50.113,83774.262,31.592,110.49
湖北,荆州市,28.349,58.45,12.549,27.05,0.709,72.819,-3.776,-0.109,290.648,33.62,101968.674,30.01,112.512
湖北,荆门市,28.334,64.082,14.727,39.193,0.712,68.644,-2.64,1.701,290.009,31.663,101204.558,31.059,112.616
湖北,襄阳市,23.464,45.996,11.068,21.035,0.506,80.034,-0.793,3.066,288.704,31.544,98414.193,31.919,111.96
湖北,鄂州市,23.064,47.421,13.254,26.199,0.58,83.549,-5.316,0.579,289.554,31.193,102251.659,30.337,114.794
湖北,随州市,25.17,51.121,8.563,24.053,0.51,76.572,-2.227,2.898,289.225,30.15,100519.237,31.809,113.43
湖北,黄冈市,20.421,41.454,10.02,16.718,0.448,78.1,-5.548,-1.125,288.828,28.581,100496.328,30.702,115.358
湖北,黄石市,19.934,43.67,12.168,20.534,0.519,83.292,-6.186,-0.42,289.071,36.989,101240.288,29.925,115.034
湖南,娄底市,29.909,57.017,10.636,19.014,0.796,71.938,-3.519,-2.743,289.021,49.006,98065.55,27.715,111.632
湖南,岳阳市,24.127,41.936,9.092,16.69,0.524,72.201,-5.439,-1.197,289.906,35.851,101024.319,29.081,113.275
湖南,常德市,24.763,51.94,14.057,20.519,0.696,74.576,-2.177,-1.383,289.599,39.395,100231.004,29.271,111.524
湖南,张家界市,19.197,41.948,12.209,14.384,0.511,68.262,-2.891,-1.585,287.75,41.362,96257.335,29.379,110.526
湖南,怀化市,27.326,51.525,12.183,13.371,0.618,63.27,-3.954,-2.728,289.281,45.565,97120.73,27.535,110.071
湖南,株洲市,31.843,51.777,14.058,17.89,0.654,63.91,-6.075,-3.192,288.899,51.642,98727.212,27.109,113.513
湖南,永州市,42.449,58.086,13.442,14.677,0.555,69.627,-4.019,-5.215,289.041,57.001,97252.8,25.748,111.723
湖南,湘潭市,33.368,62.02,10.085,30.149,0.818,68.4,-3.346,-2.308,289.928,51.206,101086.646,27.744,112.619
湖南,湘西土家族苗族自治州,21.612,42.708,9.106,12.827,0.56,55.251,-3.695,-1.493,288.115,43.086,96154.432,28.708,109.718
湖南,益阳市,25.149,47.639,10.075,16.037,0.675,76.938,-3.236,-1.707,289.574,44.703,99695.955,28.525,111.919
湖南,衡阳市,38.114,58.641,13.32,20.933,0.685,64.636,-3.272,-4.16,290.069,53.788,100529.836,26.781,112.565
湖南,邵阳市,40.532,63.424,14.471,16.553,0.663,68.328,-4.154,-2.844,288.112,53.965,95779.786,26.893,110.881
湖南,郴州市,30.443,44.536,12.16,13.688,0.646,67.703,-3.333,-5.13,288.749,55.729,96367.983,25.769,113.109
湖南,长沙市,26.446,49.884,9.177,22.11,0.677,68.369,-4.471,-2.104,289.679,42.336,100501.889,28.235,113.159
甘肃,临夏回族自治州,26.814,45.966,8.211,17.225,0.595,64.895,0.145,-0.017,279.741,42.829,77937.039,35.617,103.291
甘肃,兰州市,24.055,46.053,12.651,26.033,0.538,60.417,-0.747,0.194,281.039,35.671,79564.626,36.359,103.633
甘肃,嘉峪关市,17.987,72.007,23.743,55.357,0.755,55.568,-3.842,1.078,281.687,24.17,82052.185,39.798,98.145
甘肃,天水市,25.456,47.218,11.124,12.057,0.338,62.201,-0.708,5.184,281.621,66.435,83277.972,34.645,105.739
甘肃,定西市,24.761,42.246,6.901,11.103,0.35,68.386,-0.891,2.755,279.028,62.512,77737.563,35.124,104.432
甘肃,平凉市,25.241,50.954,9.828,25.162,0.4,57.029,-1.089,4.08,282.217,50.863,85167.741,35.304,106.644
甘肃,庆阳市,16.741,30.824,10.407,14.59,0.339,66.074,-2.562,3.286,282.254,34.768,86490.196,36.149,107.596
甘肃,张掖市,10.955,15.867,3.624,5.892,0.211,76.932,0.017,0.437,277.792,36.805,75021.076,38.94,99.855
甘肃,武威市,14.897,21.402,9.604,10.5,0.287,62.439,-2.757,0.568,280.349,34.429,81886.288,38.163,103.073
甘肃,甘南藏族自治州,14.978,18.245,2.764,2.205,0.215,83.249,0.126,0.333,272.627,73.573,68035.049,34.331,102.768
甘肃,白银市,24.399,41.834,11.199,19.047,0.437,60.705,-1.676,3.331,281.988,42.996,81974.883,36.59,104.646
甘肃,酒泉市,6.793,8.963,1.896,2.811,0.167,74.729,-2.948,1.118,280.444,20.227,79456.354,40.236,96.062
甘肃,金昌市,15.509,29.437,10.145,15.26,0.338,65.645,-2.311,1.283,279.998,33.95,81070.538,38.44,102.048
甘肃,陇南市,25.727,42.763,11.471,6.791,0.363,65.666,-0.025,3.672,280.656,75.336,82838.476,33.599,105.224
福建,三明市,14.06,25.705,10.485,8.888,0.562,69.053,-2.805,-3.525,287.693,79.331,95730.372,26.29,117.395
福建,南平市,14.783,25.156,12.53,10.679,0.49,74.006,-3.196,-3.944,287.876,65.505,96564.531,27.324,118.143
福建,厦门市,12.907,25.413,6.523,16.458,0.607,67.028,-4.545,-8.838,293.26,72.27,100736.15,24.642,118.11
福建,宁德市,14.07,21.502,8.394,11.525,0.475,68.504,-2.585,-5.854,286.923,77.399,95871.376,26.968,119.474
福建,泉州市,13.196,25.366,8.114,12.09,0.588,68.407,-2.816,-6.497,289.983,81.895,97031.799,25.201,118.249
福建,漳州市,14.21,28.075,8.702,13.94,0.686,59.011,-3.518,-5.875,292.285,78.619,98564.808,24.372,117.444
福建,福州市,11.883,19.701,6.716,12.543,0.519,70.798,-2.643,-7.361,288.978,79.758,97905.752,26.083,119.206
福建,莆田市,11.9,20.741,7.687,12.069,0.521,74.236,-3.231,-9.111,290.351,78.078,98574.13,25.445,118.864
福建,龙岩市,15.092,31.481,10.778,9.469,0.652,61.335,-2.445,-4.383,289.123,84.039,95619.77,25.256,116.739
西藏,山南市,9.493,10.638,0.792,1.406,0.148,89.96,3.255,1.912,278.052,61.981,66452.942,28.295,92.274
西藏,拉萨市,7.224,9.563,0.367,2.959,0.14,84.797,5.503,2.035,273.437,45.546,56799.307,30.043,91.093
西藏,日喀则市,6.593,7.415,0.444,0.515,0.124,83.678,6.422,2.805,270.954,41.594,55574.054,29.483,86.493
西藏,昌都市,5.001,5.908,0.4,0.761,0.136,83.29,4.93,3.102,272.305,64.655,59345.116,30.753,97.044
西藏,林芝市,9.203,9.664,0.809,1.28,0.136,83.398,0.53,2.066,275.97,79.056,66739.38,29.184,95.25
西藏,玉树藏族自治州,2.354,2.485,0.128,0.31,0.123,89.527,2.315,0.597,268.486,65.182,57551.474,34.196,94.317
西藏,那曲市,2.327,2.534,0.106,0.194,0.123,90.816,3.195,0.679,269.389,52.242,55653.482,32.709,89.262
西藏,阿里地区,1.644,1.861,0.192,0.341,0.122,87.099,5.289,0.816,266.783,43.992,55010.387,33.013,82.553
贵州,六盘水市,34.078,56.97,12.771,13.611,0.62,63.336,-1.031,2.711,283.433,84.055,83751.344,26.106,104.896
贵州,安顺市,34.768,52.489,11.18,7.967,0.408,72.473,-2.366,1.329,286.329,68.797,88887.212,25.986,105.978
贵州,毕节市,36.501,58.939,11.887,15.25,0.556,59.663,-1.563,3.841,284.286,75.708,84082.649,27.063,105.211
贵州,贵阳市,33.842,59.622,7.986,21.982,0.508,59.998,-3.534,2.134,285.857,61.151,88946.981,26.845,106.71
贵州,遵义市,31.781,43.751,12.291,11.365,0.413,55.818,-4.075,3.067,286.666,55.028,91171.914,28.167,107.102
贵州,铜仁市,24.666,44.446,12.612,10.104,0.49,55.127,-4.103,-0.166,287.47,47.627,93599.474,27.937,108.534
贵州,黔东南苗族侗族自治州,31.383,48.486,17.22,9.81,0.473,62.138,-3.658,-3.085,287.446,57.66,93439.025,26.495,108.574
贵州,黔南布依族苗族自治州,33.772,48.383,14.292,8.12,0.402,65.947,-3.853,-1.341,286.934,61.169,91118.088,26.0,107.265
贵州,黔西南布依族苗族自治州,32.553,49.248,13.914,5.195,0.458,72.239,-1.843,0.191,286.684,72.414,89263.98,25.256,105.467
辽宁,丹东市,17.817,28.672,9.018,16.984,0.618,31.916,3.095,-4.275,279.596,50.879,99318.386,40.554,124.376
辽宁,大连市,10.483,19.071,5.516,14.169,0.361,46.615,2.318,-3.341,283.536,45.445,101691.162,39.591,122.22
辽宁,抚顺市,19.325,31.015,7.937,15.783,0.487,31.397,3.766,-1.361,277.446,61.95,97529.897,41.841,124.65
辽宁,朝阳市,9.065,18.288,5.756,12.166,0.383,48.987,2.706,-4.189,280.302,40.553,97264.12,41.545,120.053
辽宁,本溪市,20.239,33.174,9.064,17.304,0.656,30.36,3.662,-2.959,277.199,60.214,96881.282,41.232,124.544
辽宁,沈阳市,18.131,30.491,6.539,18.218,0.438,33.905,2.826,-1.839,281.391,41.663,101795.575,42.081,123.159
辽宁,盘锦市,11.368,23.24,6.971,20.985,0.404,38.575,2.745,-2.207,282.696,37.355,102516.435,41.13,122.01
辽宁,营口市,14.818,28.998,7.443,21.281,0.486,38.485,1.968,-2.523,280.982,44.873,100271.027,40.395,122.478
辽宁,葫芦岛市,10.3,19.593,6.639,14.091,0.381,47.604,2.849,-3.723,282.17,35.769,100048.48,40.66,120.215
辽宁,辽阳市,24.549,43.914,9.499,24.935,0.806,27.218,2.366,-0.894,279.981,46.186,100445.504,41.153,123.261
辽宁,铁岭市,16.591,27.021,5.64,15.689,0.447,34.469,3.501,-1.861,280.149,50.131,100148.325,42.653,124.158
辽宁,锦州市,10.555,20.017,5.235,15.135,0.348,44.113,2.863,-3.245,282.592,36.44,101685.681,41.502,121.659
辽宁,阜新市,8.803,14.212,3.357,9.066,0.292,47.568,3.663,-3.317,281.263,40.125,100157.341,42.289,121.968
辽宁,鞍山市,18.609,34.146,7.594,21.538,0.639,33.469,2.796,-2.507,280.776,43.15,100518.127,40.731,123.007
重庆,重庆城区,34.674,51.86,12.31,24.573,0.556,48.707,-3.349,2.206,290.506,48.438,95693.615,29.824,107.125
重庆,重庆郊县,25.533,37.493,14.057,9.174,0.391,61.894,-2.871,1.384,286.896,52.289,91946.464,30.334,108.755
陕西,咸阳市,30.89,63.631,11.207,45.499,0.69,45.287,-4.069,0.316,286.05,26.819,92237.554,34.779,108.367
陕西,商洛市,21.95,39.457,6.77,16.063,0.401,65.919,-2.013,1.254,284.158,36.186,90190.881,33.64,109.889
陕西,安康市,19.059,30.733,7.273,8.603,0.346,65.836,-1.438,0.858,285.39,48.63,90699.855,32.735,108.932
陕西,宝鸡市,29.578,56.363,7.847,30.919,0.485,51.268,-1.366,2.479,283.365,50.534,87074.738,34.386,107.193
陕西,延安市,19.027,38.166,14.394,29.1,0.61,52.02,-2.114,1.601,281.97,33.031,88344.166,36.432,109.316
陕西,榆林市,17.518,35.009,12.761,31.413,0.566,45.944,-2.267,0.765,280.772,32.724,88730.523,38.041,109.581
陕西,汉中市,28.789,43.885,10.512,10.05,0.4,57.252,-0.817,1.102,285.238,57.816,89721.874,33.088,107.098
陕西,渭南市,29.585,64.516,14.33,40.706,0.678,53.821,-4.109,-0.948,287.349,26.517,94639.028,34.919,109.855
陕西,西安市,31.642,63.683,8.547,38.604,0.628,48.474,-1.386,0.97,285.932,34.971,91300.772,34.12,108.77
陕西,铜川市,25.127,49.084,13.885,32.647,0.636,54.772,-2.922,0.15,283.971,29.053,89967.279,35.198,109.058
青海,保亭黎族苗族自治县,41.546,56.5,9.04,6.166,0.598,87.076,-4.988,-5.664,296.482,78.938,97349.686,18.566,109.618
青海,吐鲁番市,8.453,13.829,1.985,2.902,0.188,76.578,-0.712,-0.417,287.01,15.996,90576.431,42.386,89.851
青海,果洛藏族自治州,4.59,4.746,0.295,0.694,0.123,84.698,0.51,0.199,268.261,75.069,60287.171,34.127,99.404
青海,海东市,21.842,26.609,7.784,8.163,0.352,70.765,-0.501,0.354,276.75,43.742,73202.613,36.347,102.34
青海,海北藏族自治州,11.113,12.5,2.722,2.223,0.163,86.472,0.782,0.562,270.711,59.031,65709.188,37.775,100.288
青海,海南藏族自治州,10.296,11.072,1.794,1.404,0.145,87.609,0.116,0.215,273.174,45.993,66869.569,35.89,100.272
青海,海西蒙古族藏族自治州,6.398,6.615,0.5,0.461,0.125,88.826,0.558,0.299,272.631,36.835,64825.221,36.677,94.519
青海,西宁市,20.578,28.688,7.885,10.966,0.471,69.579,0.146,0.202,274.235,48.663,69976.928,36.842,101.423
青海,黄南藏族自治州,11.068,11.788,1.784,1.4,0.152,86.711,0.597,0.387,271.752,61.666,66202.069,35.022,101.631
香港,香港特别行政区,24.335,36.25,9.265,21.87,0.72,64.98,-3.94,-8.445,294.795,75.09,101226.1,22.45,114.22
黑龙江,七台河市,10.885,20.938,3.61,8.863,0.363,42.933,3.148,-5.487,277.95,71.655,98294.955,45.87,130.943
黑龙江,伊春市,6.302,9.563,1.903,3.115,0.249,51.356,2.241,-5.093,277.289,62.168,97080.401,47.772,129.184
黑龙江,佳木斯市,11.028,18.712,2.656,5.528,0.375,49.36,1.498,-4.978,279.444,61.77,100291.152,47.207,132.11
黑龙江,双鸭山市,10.398,17.085,2.726,4.849,0.391,51.504,1.833,-4.892,279.221,66.615,99777.652,46.722,132.643
黑龙江,哈尔滨市,10.147,16.589,3.096,6.757,0.308,48.217,2.951,-3.38,278.718,65.101,98934.35,45.634,127.964
黑龙江,大兴安岭地区,1.551,2.14,1.179,1.48,0.192,54.907,2.667,-0.135,277.167,67.634,95326.788,52.286,124.212
黑龙江,大庆市,8.92,15.586,3.826,8.1,0.311,42.386,3.06,-3.071,280.381,49.601,100496.774,46.327,124.687
黑龙江,牡丹江市,10.522,14.523,3.311,5.272,0.26,46.984,4.632,-4.176,275.156,86.387,95542.194,44.592,129.883
黑龙江,绥化市,12.481,17.861,2.086,6.096,0.315,47.032,2.267,-4.304,279.704,54.201,99557.44,46.89,126.634
黑龙江,鸡西市,10.629,15.496,3.744,5.925,0.274,51.986,2.249,-5.767,278.963,76.747,99410.41,45.626,132.289
黑龙江,鹤岗市,6.985,12.649,1.909,3.965,0.352,51.456,2.673,-6.05,278.625,61.774,99415.618,47.661,130.778
黑龙江,黑河市,12.953,21.41,1.687,3.777,0.293,52.89,2.148,-2.788,278.006,58.942,97606.821,49.268,127.004
黑龙江,齐齐哈尔市,8.947,13.477,3.117,4.989,0.287,49.39,2.473,-2.814,280.189,50.036,99649.886,47.715,124.57
