province,city,PM2.5,PM10,SO2,NO2,CO,O3,U,V,TEMP,RH,PSFC,lat,lon
上海,上海市,49.125,58.329,8.736,36.957,0.733,71.427,1.761,-6.455,291.828,75.18,101918.571,31.173,121.42
云南,临沧市,23.961,35.567,7.273,4.051,0.388,35.896,0.318,1.503,289.197,90.05,84143.622,23.935,99.686
云南,丽江市,9.129,13.093,3.028,6.594,0.41,69.833,3.746,1.892,283.483,60.311,74882.01,26.96,100.515
云南,保山市,21.644,33.057,5.582,5.4,0.38,43.263,0.569,0.498,287.515,88.147,82125.024,24.953,98.962
云南,大理白族自治州,14.061,23.957,4.624,5.181,0.377,59.186,2.895,1.513,285.47,80.889,78371.985,25.726,100.053
云南,德宏傣族景颇族自治州,29.714,36.999,6.898,4.56,0.316,46.094,-1.303,0.216,289.846,89.664,86289.867,24.535,98.052
云南,怒江傈僳族自治州,7.604,11.931,1.015,2.294,0.2,69.803,2.3,1.742,280.789,74.107,73040.819,26.916,98.885
云南,文山壮族苗族自治州,20.372,34.028,13.595,6.299,0.493,44.649,-3.214,-0.522,286.544,98.369,86908.543,23.696,104.735
云南,昆明市,21.632,35.975,10.717,14.258,0.749,38.157,-1.234,4.045,285.348,95.075,79527.36,25.384,102.863
云南,昭通市,20.111,36.952,13.942,10.092,0.685,50.741,-1.638,0.299,284.299,88.306,84458.859,27.667,103.985
云南,普洱市,18.16,30.702,7.074,3.405,0.345,40.237,-0.623,1.856,290.754,92.502,86195.934,23.159,100.718
云南,曲靖市,18.726,33.104,13.161,12.162,0.737,38.641,-2.403,2.946,283.608,96.394,80356.354,25.737,103.929
云南,楚雄彝族自治州,21.891,34.831,7.622,6.427,0.508,53.962,1.123,2.806,287.582,86.951,81239.537,25.328,101.567
云南,玉溪市,19.692,32.123,9.207,6.319,0.46,51.763,-2.242,3.627,288.563,94.384,83738.344,24.136,102.217
云南,红河哈尼族彝族自治州,18.386,29.832,11.56,4.737,0.45,51.935,-3.425,2.451,288.561,96.186,85445.864,23.451,103.034
云南,西双版纳傣族自治州,14.011,24.266,5.484,4.725,0.322,28.819,-1.419,0.934,292.918,89.984,89144.318,21.939,100.912
云南,迪庆藏族自治州,5.297,6.379,1.164,2.736,0.203,80.176,5.783,2.767,276.73,64.333,67475.995,27.957,99.459
内蒙古,乌兰察布市,17.336,23.428,4.69,8.295,0.282,55.858,7.936,0.559,277.027,38.002,85977.683,41.691,112.44
内蒙古,乌海市,35.335,78.805,41.79,46.768,1.098,35.946,2.279,1.286,281.761,29.525,87937.408,39.396,106.856
内蒙古,兴安盟,8.422,13.074,2.653,2.255,0.205,50.517,8.282,-2.088,277.439,55.121,94143.039,46.244,121.341
内蒙古,包头市,17.082,22.682,4.435,10.969,0.321,54.787,7.38,1.778,277.968,32.578,85999.264,41.549,110.276
内蒙古,呼伦贝尔市,26.446,30.19,6.628,3.426,0.262,39.91,4.94,-0.145,274.618,76.68,92649.487,49.636,121.171
内蒙古,呼和浩特市,24.629,46.629,10.757,31.707,0.591,42.151,5.128,1.945,277.622,37.906,86488.096,40.578,111.513
内蒙古,巴彦淖尔市,11.137,12.753,2.227,3.084,0.204,61.974,6.834,2.111,279.656,30.294,87420.527,41.446,107.582
内蒙古,赤峰市,8.767,10.808,2.697,2.581,0.192,54.111,7.671,-2.52,278.38,40.53,91658.004,43.226,118.892
内蒙古,通辽市,9.524,13.529,3.559,3.764,0.198,49.304,6.901,-1.586,281.558,40.128,97491.458,43.814,121.591
内蒙古,鄂尔多斯市,19.246,31.964,13.641,19.532,0.434,49.502,4.472,2.223,280.571,33.527,87272.258,39.407,108.63
内蒙古,锡林郭勒盟,10.862,11.267,1.965,0.826,0.17,54.882,6.996,-0.066,276.02,44.966,88813.753,44.179,115.482
内蒙古,阿拉善盟,9.37,11.712,2.1,2.653,0.193,68.084,3.206,1.511,281.883,26.773,87664.409,40.473,102.467
北京,北京市,12.662,27.869,4.129,22.176,0.304,42.09,4.237,-0.658,285.154,24.639,97907.561,40.158,116.395
台湾,台湾省,24.667,30.12,10.285,21.805,0.266,67.812,-0.003,-2.671,292.617,82.657,93231.19,23.757,120.975
吉林,吉林市,21.686,32.721,9.9,11.674,0.494,59.198,3.789,5.717,281.99,70.045,96741.735,43.573,126.859
吉林,四平市,19.045,27.872,5.831,11.285,0.375,47.091,5.694,2.447,282.892,49.852,98969.499,43.472,124.386
吉林,延边朝鲜族自治州,25.035,33.823,9.765,9.746,0.409,50.176,2.843,3.435,279.94,76.692,93905.029,43.141,129.147
吉林,松原市,21.715,30.428,5.376,6.543,0.298,43.233,5.54,2.015,282.451,46.98,99194.91,44.785,124.496
吉林,白城市,14.051,22.371,3.764,5.25,0.246,43.444,6.752,-0.725,282.036,42.636,99280.699,45.35,123.031
吉林,白山市,23.459,32.008,11.734,10.796,0.571,51.8,3.182,4.438,278.772,72.202,92056.391,42.063,127.256
吉林,辽源市,19.268,29.483,8.176,12.939,0.466,51.9,5.526,4.913,282.49,62.559,97158.67,42.836,125.32
吉林,通化市,20.214,32.039,10.864,13.518,0.66,51.411,3.136,4.727,281.389,70.125,95468.839,41.939,125.927
吉林,长春市,23.091,35.051,6.533,12.181,0.479,49.844,5.02,4.101,282.954,60.28,98789.966,44.268,125.611
四川,乐山市,29.752,44.926,9.759,15.418,0.62,41.561,-0.796,-1.022,285.774,83.036,89989.672,29.218,103.569
四川,内江市,21.459,36.753,5.687,19.413,0.702,41.49,-0.799,-1.145,290.988,61.897,97099.031,29.62,104.95
四川,凉山彝族自治州,17.157,26.033,9.526,6.345,0.538,64.01,1.942,3.115,281.394,72.629,74406.583,27.883,102.065
四川,南充市,25.996,42.123,7.748,16.816,0.63,35.335,-2.014,-1.696,289.259,66.924,97156.173,31.19,106.199
四川,宜宾市,26.531,39.108,10.353,18.6,0.701,43.963,-0.519,-1.492,289.857,74.178,95439.151,28.573,104.621
四川,巴中市,34.039,50.281,8.924,9.345,0.485,41.299,-3.926,-0.349,286.825,62.172,92908.629,32.033,107.031
四川,广元市,27.436,44.404,8.792,9.173,0.41,38.188,-1.49,-1.73,285.623,64.58,92024.835,32.261,105.788
四川,广安市,27.119,40.044,6.774,22.698,0.728,29.404,-1.286,-0.093,290.267,68.51,97155.55,30.43,106.628
四川,德阳市,22.55,41.025,6.073,14.798,0.445,48.344,-1.602,-1.96,288.254,57.672,93566.188,31.13,104.436
四川,成都市,21.468,41.664,6.767,21.908,0.501,46.618,-0.761,-1.76,288.556,57.154,93711.531,30.64,103.929
四川,攀枝花市,24.168,38.511,18.34,20.143,1.014,51.759,0.374,2.375,288.33,67.357,81717.643,26.791,101.734
四川,泸州市,26.373,38.763,9.677,19.115,0.632,36.484,-1.391,0.067,288.875,77.016,93824.252,28.424,105.675
四川,甘孜藏族自治州,4.677,5.579,0.942,1.07,0.142,86.455,5.765,4.308,271.75,57.347,61234.495,30.936,100.009
四川,眉山市,21.899,40.354,7.379,20.509,0.586,38.053,-0.428,-1.305,288.77,68.009,94169.694,29.912,103.766
四川,绵阳市,27.821,41.219,7.054,7.747,0.352,54.132,-0.789,-1.784,283.69,69.646,88363.52,31.86,104.704
四川,自贡市,25.499,37.531,6.849,21.559,0.73,40.031,-0.728,-1.209,291.203,63.513,97072.487,29.307,104.659
四川,资阳市,20.958,37.11,5.982,14.079,0.61,43.111,-1.02,-1.418,290.705,61.798,97352.058,30.102,105.149
四川,达州市,36.334,53.858,9.039,17.758,0.606,41.759,-2.884,0.233,287.853,64.517,94504.122,31.335,107.636
四川,遂宁市,24.395,39.109,6.933,14.612,0.579,39.207,-1.494,-1.776,290.279,62.944,97597.01,30.642,105.457
四川,阿坝藏族羌族自治州,17.935,23.23,4.313,2.22,0.233,69.476,0.664,2.038,271.169,80.627,65595.712,32.406,102.61
四川,雅安市,25.037,39.69,10.919,7.467,0.436,56.722,-1.124,-0.365,279.43,88.742,80384.807,29.932,102.689
天津,天津市,18.646,48.595,5.936,35.18,0.476,35.788,5.028,0.105,287.442,22.252,101681.023,39.315,117.308
宁夏,中卫市,32.587,58.354,6.76,19.978,0.427,50.48,2.868,4.419,282.292,38.422,83822.504,37.018,105.509
宁夏,吴忠市,28.74,45.039,6.999,14.034,0.338,53.176,2.639,3.277,282.51,35.526,85394.479,37.454,106.577
宁夏,固原市,32.342,77.21,6.857,27.288,0.474,45.081,2.456,5.873,279.82,48.081,81309.675,35.905,106.183
宁夏,石嘴山市,36.094,76.678,29.161,40.202,0.918,40.223,2.325,1.213,282.19,28.98,87016.159,39.013,106.499
宁夏,银川市,33.519,68.114,14.669,31.502,0.592,43.518,2.054,1.721,283.084,31.617,87322.214,38.287,106.342
安徽,亳州市,67.83,101.161,12.388,44.027,0.714,66.486,-0.563,-3.453,290.874,32.881,101798.064,33.44,116.162
安徽,六安市,39.959,64.16,10.373,23.091,0.564,71.069,1.58,-0.511,290.558,50.449,99313.712,31.617,116.209
安徽,合肥市,41.117,62.159,6.178,36.238,0.66,64.784,0.869,0.917,291.232,62.561,101669.121,31.766,117.359
安徽,安庆市,42.357,50.214,9.968,20.687,0.653,57.686,-1.011,-1.374,290.562,62.907,99764.773,30.557,116.473
安徽,宣城市,33.569,51.241,6.526,23.313,0.655,56.903,0.061,-1.039,288.404,80.337,99692.016,30.676,118.846
安徽,宿州市,75.288,112.531,12.607,45.311,0.739,65.766,-0.393,-2.496,290.483,35.847,101735.982,33.844,117.23
安徽,池州市,29.427,42.672,8.493,17.718,0.628,45.966,-2.051,-1.328,289.702,74.293,99923.972,30.296,117.379
安徽,淮北市,79.949,117.001,14.45,55.807,0.792,65.414,-0.65,-3.069,290.674,33.413,101788.097,33.722,116.747
安徽,淮南市,54.778,88.56,10.18,34.893,0.678,77.36,1.44,0.173,291.567,52.167,101815.737,32.463,116.746
安徽,滁州市,51.83,77.776,8.993,34.649,0.587,72.705,0.739,0.146,291.11,61.105,101544.739,32.55,118.076
安徽,芜湖市,40.935,57.654,7.508,33.713,0.753,51.896,0.128,0.647,290.21,73.223,101862.731,31.167,118.162
安徽,蚌埠市,67.289,96.617,12.565,39.001,0.653,74.29,0.002,-0.875,291.112,51.166,101790.439,33.121,117.263
安徽,铜陵市,43.404,55.595,8.549,31.533,0.749,47.824,-0.92,0.284,290.576,71.844,101720.391,30.883,117.531
安徽,阜阳市,64.171,95.893,11.953,38.991,0.725,63.996,-0.303,-3.363,291.104,35.228,101776.767,32.937,115.723
安徽,马鞍山市,42.512,63.086,7.533,44.184,0.778,51.926,0.561,0.276,290.798,68.757,101848.368,31.622,118.386
安徽,黄山市,23.142,36.776,8.185,12.687,0.597,46.507,-1.703,-2.565,288.319,78.779,97698.225,29.869,118.09
山东,东营市,29.974,64.646,11.486,36.625,0.544,44.746,5.864,-1.378,288.547,24.278,101894.338,37.57,118.572
山东,临沂市,51.347,108.528,11.078,42.381,0.672,50.655,2.312,-2.742,288.49,23.996,100242.804,35.289,118.27
山东,威海市,19.185,47.042,9.377,18.17,0.553,61.508,7.003,-1.514,288.16,48.403,101129.196,37.148,122.028
山东,德州市,28.81,83.221,9.455,35.775,0.516,43.898,4.212,0.595,288.084,18.878,101847.48,37.233,116.679
山东,日照市,39.79,87.506,9.196,34.449,0.547,52.753,2.895,-2.662,288.198,26.712,100317.456,35.566,119.108
山东,枣庄市,59.835,122.342,14.592,49.274,0.711,49.733,0.949,-2.978,289.383,20.84,101006.104,34.925,117.383
山东,泰安市,34.064,96.636,9.9,39.923,0.592,48.142,2.238,-1.972,287.724,19.193,100160.784,35.993,117.04
山东,济南市,32.875,96.445,10.074,41.642,0.617,44.354,3.722,-0.198,287.16,19.746,100096.68,36.639,117.254
山东,济宁市,40.998,98.693,12.142,41.427,0.632,49.978,1.131,-2.524,288.879,18.549,101475.265,35.375,116.697
山东,淄博市,40.52,104.658,13.888,43.025,0.849,45.663,4.685,-0.837,286.82,20.84,99459.72,36.623,118.062
山东,滨州市,33.315,74.675,10.036,37.848,0.607,42.947,5.214,-0.265,288.086,20.875,101873.433,37.516,117.852
山东,潍坊市,37.996,91.311,11.935,37.615,0.679,49.311,5.027,-1.827,287.829,23.891,100862.679,36.53,119.092
山东,烟台市,21.125,49.141,7.797,21.796,0.478,54.872,6.12,-1.869,287.786,43.022,100692.592,37.25,120.789
山东,聊城市,26.974,84.972,10.476,33.695,0.568,50.661,2.754,-0.112,288.529,17.348,101702.647,36.458,115.863
山东,菏泽市,35.976,91.918,10.714,35.37,0.702,55.082,0.645,-2.398,289.278,16.841,101654.922,35.134,115.69
山东,青岛市,29.517,69.695,8.557,29.036,0.539,50.303,5.137,-2.405,288.305,34.522,101361.417,36.46,120.172
山西,临汾市,36.446,77.561,11.831,33.474,1.106,48.103,1.337,-0.044,282.546,26.278,90559.746,36.227,111.398
山西,吕梁市,23.609,50.343,13.926,28.555,0.595,45.638,2.739,1.219,280.17,28.518,88083.144,37.663,111.27
山西,大同市,17.148,39.196,14.726,21.858,0.518,45.161,7.767,-1.788,278.387,35.406,87403.919,39.911,113.713
山西,太原市,25.009,62.748,14.545,35.184,0.603,44.817,5.828,-0.539,280.414,27.38,87922.602,37.967,112.321
山西,忻州市,18.257,35.91,11.403,22.337,0.376,49.333,6.262,-0.256,278.477,33.108,86362.895,38.877,112.391
山西,晋中市,29.674,75.362,15.13,41.165,0.814,42.527,5.831,-0.042,281.052,24.701,88875.992,37.328,112.997
山西,晋城市,33.074,76.767,12.591,30.335,0.997,56.953,2.932,-2.345,283.462,20.417,90932.459,35.625,112.752
山西,朔州市,22.529,50.962,16.081,29.812,0.53,42.315,7.446,0.187,278.226,37.4,86805.28,39.619,112.655
山西,运城市,43.842,95.282,13.185,40.063,1.211,45.017,-0.547,-1.095,286.157,24.281,94769.931,35.205,111.071
山西,长治市,30.061,76.46,12.39,33.903,0.944,49.047,5.016,-0.742,281.766,21.769,89220.977,36.48,112.915
山西,阳泉市,22.41,51.908,13.687,32.522,0.493,46.287,8.317,-0.275,282.392,24.889,90682.396,38.031,113.512
广东,东莞市,23.949,37.29,7.856,27.409,0.791,39.743,-3.857,-4.328,296.518,65.687,101482.723,22.931,113.81
广东,中山市,31.154,49.882,9.217,43.823,0.866,40.893,-3.381,-4.119,296.842,69.54,101476.656,22.5,113.383
广东,云浮市,18.902,32.993,9.938,18.38,0.789,28.92,-3.919,-3.16,294.636,74.812,99513.986,22.776,111.818
广东,佛山市,20.949,39.003,10.163,36.329,0.89,20.451,-2.221,-5.275,296.042,67.607,101551.526,23.035,112.979
广东,广州市,20.121,33.723,8.247,22.836,0.799,35.876,-2.98,-4.635,295.578,67.563,100648.451,23.339,113.525
广东,惠州市,20.212,33.235,9.699,11.389,0.717,52.017,-2.879,-5.458,294.765,70.511,99667.176,23.244,114.485
广东,揭阳市,27.32,43.162,13.648,17.836,0.918,60.617,-1.714,-4.185,295.708,72.551,100225.513,23.323,116.123
广东,梅州市,20.232,35.132,13.393,12.431,0.828,48.85,-0.001,-4.576,293.371,73.145,98256.898,24.169,116.07
广东,汕头市,27.235,43.511,13.327,19.236,0.858,64.929,-2.602,-3.622,296.071,75.241,101338.693,23.339,116.614
广东,汕尾市,23.756,37.219,12.112,10.698,0.743,66.321,-1.991,-3.755,295.845,71.984,99953.027,23.024,115.527
广东,江门市,31.124,49.174,12.728,37.645,0.861,34.515,-3.276,-4.829,296.319,73.214,100913.88,22.289,112.676
广东,河源市,19.924,34.517,15.26,10.727,0.793,47.842,-1.455,-6.107,292.659,74.837,98480.904,24.021,114.969
广东,深圳市,26.759,42.98,7.956,29.807,0.764,47.299,-3.47,-5.041,296.153,69.597,100983.938,22.667,114.143
广东,清远市,20.848,36.404,12.683,14.18,0.77,36.46,-2.456,-4.941,291.922,75.763,98031.594,24.295,112.871
广东,湛江市,20.639,32.628,7.482,10.066,0.606,70.033,-5.586,-1.422,297.694,82.727,101264.575,21.091,110.163
广东,潮州市,27.132,42.241,11.629,16.064,0.848,58.491,-1.222,-3.452,295.118,74.458,99672.181,23.755,116.754
广东,珠海市,36.13,52.312,13.057,35.578,0.737,59.985,-3.552,-4.222,296.838,74.263,101537.752,22.095,113.317
广东,肇庆市,15.123,28.773,11.032,15.43,0.747,29.79,-3.224,-4.044,294.029,73.44,99638.64,23.505,112.199
广东,茂名市,26.467,41.704,10.352,13.529,0.747,55.062,-4.9,-2.825,296.138,78.038,99519.217,22.013,110.952
广东,阳江市,31.569,48.711,12.743,23.058,0.823,42.295,-3.922,-4.545,295.768,76.633,100068.276,22.042,111.786
广东,韶关市,22.459,35.717,11.707,12.172,0.906,40.805,-2.641,-4.376,290.747,79.083,97278.138,24.785,113.819
广西,北海市,19.712,32.293,13.656,11.773,1.054,30.691,-4.096,-4.174,296.231,80.414,101340.471,21.674,109.37
广西,南宁市,13.223,22.993,8.067,11.272,0.781,33.866,-2.579,-5.268,290.441,90.414,99649.999,23.051,108.469
广西,崇左市,11.851,24.147,11.625,8.433,0.69,38.426,-2.791,-5.037,289.863,94.174,98342.754,22.483,107.291
广西,来宾市,19.933,28.484,8.073,8.324,0.684,42.019,-1.964,-4.699,290.613,85.219,98487.652,23.859,109.417
广西,柳州市,23.949,33.719,10.875,7.247,0.592,52.081,-1.733,-4.945,289.376,79.64,97938.517,24.956,109.372
广西,桂林市,34.653,44.619,10.999,9.887,0.574,53.759,-3.447,-3.591,288.788,78.435,96308.583,25.353,110.513
广西,梧州市,16.871,28.251,10.259,10.591,0.756,33.963,-2.834,-3.97,293.035,77.85,99274.742,23.484,110.996
广西,河池市,19.492,30.98,13.21,5.136,0.561,43.628,-2.278,-3.644,287.552,91.674,95592.942,24.628,107.843
广西,玉林市,19.066,30.357,10.817,11.186,0.914,33.578,-3.931,-4.541,294.303,80.541,99622.838,22.452,110.164
广西,百色市,20.008,35.376,15.087,6.048,0.548,47.655,-2.015,-2.196,287.64,96.387,93476.545,23.981,106.292
广西,贵港市,15.351,23.606,8.786,9.105,0.786,35.86,-3.393,-4.083,292.476,80.511,100131.394,23.322,110.021
广西,贺州市,22.359,35.514,14.433,10.279,0.647,41.871,-2.555,-4.973,290.753,78.368,97489.771,24.364,111.394
广西,钦州市,15.011,23.618,10.082,11.011,0.979,28.256,-3.46,-6.044,293.462,83.181,100692.958,22.173,109.01
广西,防城港市,18.063,28.388,10.098,10.906,0.87,30.548,-2.336,-6.078,291.651,90.923,99110.546,21.88,108.002
新疆,乌鲁木齐市,15.757,32.595,3.721,15.506,0.386,58.594,2.558,-1.226,277.684,36.361,84278.35,43.746,87.818
新疆,五家渠市,34.52,67.133,9.427,25.97,0.733,37.23,1.84,-1.95,283.087,40.43,96646.95,44.363,87.517
新疆,伊犁哈萨克自治州,8.932,15.263,3.067,6.103,0.399,64.841,2.489,0.166,274.389,48.379,80601.839,43.438,82.146
新疆,克孜勒苏柯尔克孜自治州,2.947,6.819,0.399,1.954,0.19,81.18,4.415,-4.923,272.168,36.789,70603.824,39.661,75.949
新疆,克拉玛依市,16.465,41.962,5.37,11.285,0.373,47.744,2.251,-1.456,280.64,51.412,97505.497,45.457,85.207
新疆,北屯市,3.082,3.496,26.234,2.502,0.734,53.066,1.628,-0.26,277.216,69.966,95507.44,47.27,87.868
新疆,博尔塔拉蒙古自治州,7.612,13.09,3.47,4.044,0.302,58.971,5.609,0.715,277.532,47.337,86280.376,44.714,82.114
新疆,双河市,10.928,22.422,5.078,5.894,0.356,44.41,-0.608,-7.158,282.788,45.218,98018.74,44.87,82.474
新疆,可克达拉市,31.95,53.21,8.974,22.594,1.234,41.816,-0.566,0.148,282.706,37.56,95152.432,43.918,80.786
新疆,和田地区,7.085,12.994,0.849,1.348,0.182,81.737,1.587,-0.565,275.253,33.686,74063.382,37.059,80.934
新疆,哈密市,8.214,9.56,1.4,1.945,0.211,66.985,2.748,0.907,280.4,29.599,88260.763,43.042,93.517
新疆,喀什地区,11.26,22.101,1.494,4.82,0.272,79.141,3.455,-0.656,275.873,32.024,76255.635,38.125,77.178
新疆,图木舒克市,9.547,11.722,2.993,2.032,0.172,66.68,1.175,-0.14,284.68,23.988,89365.24,39.892,79.182
新疆,塔城地区,7.831,13.724,3.433,3.653,0.285,57.438,4.801,-2.386,276.639,56.68,89605.727,45.642,84.789
新疆,巴音郭楞蒙古自治州,7.958,9.424,0.519,0.579,0.141,76.397,1.716,-0.079,277.322,30.94,79234.178,39.463,87.481
新疆,新星市,17.245,31.72,5.615,17.85,0.745,39.545,-1.465,-1.71,284.11,20.86,92729.315,42.75,93.68
新疆,昆玉市,15.54,44.16,4.057,7.047,0.493,64.92,2.903,-1.307,286.01,17.643,87124.98,37.457,79.093
新疆,昌吉回族自治州,12.83,23.416,4.198,8.608,0.316,60.041,2.342,-0.872,280.029,40.704,89917.131,44.342,88.608
新疆,石河子市,39.12,82.105,11.27,29.92,0.705,40.6,2.75,-1.17,283.475,31.895,94780.445,44.245,86.035
新疆,胡杨河市,49.136,92.534,12.228,17.806,0.776,43.332,-0.006,0.336,281.528,52.168,97994.082,44.852,84.772
新疆,铁门关市,13.653,35.52,1.707,3.457,0.21,70.267,2.447,-1.71,284.31,21.987,91740.32,41.773,85.66
新疆,阿克苏地区,14.74,25.846,1.531,3.046,0.209,66.45,1.197,-2.069,280.863,26.4,85380.856,40.965,81.578
新疆,阿勒泰地区,2.774,3.255,8.12,1.361,0.309,60.726,2.27,1.468,274.13,72.242,88368.218,46.902,88.421
新疆,阿拉尔市,26.81,61.268,2.419,9.017,0.35,54.837,-0.692,-0.928,283.182,27.918,90229.409,40.629,80.998
江苏,南京市,48.091,72.21,7.356,42.873,0.739,55.288,0.838,-0.201,290.468,68.353,101891.267,31.899,118.876
江苏,南通市,50.625,63.89,11.991,20.2,0.533,87.112,0.804,-5.085,290.957,71.234,101967.605,32.201,120.979
江苏,宿迁市,75.549,102.298,9.932,34.736,0.706,67.345,0.47,-1.021,290.685,47.341,101961.415,33.765,118.495
江苏,常州市,53.233,77.449,8.872,47.693,0.874,55.702,1.572,-1.897,290.425,70.235,101939.516,31.613,119.666
江苏,徐州市,71.877,122.576,13.173,50.052,0.778,56.599,0.418,-2.498,290.045,27.289,101736.425,34.363,117.513
江苏,扬州市,59.666,82.541,8.429,35.373,0.63,65.333,1.027,-1.134,290.714,62.797,102013.343,32.709,119.486
江苏,无锡市,57.187,82.888,9.999,51.742,0.934,53.464,1.934,-3.283,290.638,69.682,101832.403,31.546,120.066
江苏,泰州市,58.648,80.547,10.334,32.491,0.643,68.603,0.815,-2.469,290.421,63.802,101968.75,32.605,120.048
江苏,淮安市,68.954,91.309,9.439,31.391,0.624,67.454,0.638,-0.843,290.764,56.689,101953.66,33.362,118.985
江苏,盐城市,50.041,68.785,10.524,23.331,0.501,65.556,0.687,-2.383,289.849,60.124,101999.952,33.529,120.156
江苏,苏州市,57.934,76.862,9.826,46.164,0.801,66.309,1.77,-5.423,291.339,70.364,101952.087,31.374,120.661
江苏,连云港市,57.156,92.499,9.678,33.676,0.61,54.027,0.528,-1.589,289.549,40.773,101833.803,34.519,119.133
江苏,镇江市,58.375,82.127,8.813,48.048,0.794,55.537,1.445,-1.576,290.627,66.36,101909.959,32.016,119.49
江西,上饶市,27.392,39.489,10.077,14.593,0.68,39.653,-0.98,-2.138,290.293,78.743,99743.028,28.778,117.47
江西,九江市,35.113,52.514,12.332,16.903,0.747,52.886,-0.896,-2.522,290.415,71.414,99743.059,29.313,115.444
江西,南昌市,24.522,44.511,9.914,20.945,0.695,45.856,-0.76,-3.551,291.888,73.38,101608.69,28.671,116.016
江西,吉安市,30.025,51.811,14.875,16.484,0.97,38.428,-0.595,-2.179,289.611,84.102,99346.983,26.954,114.831
江西,宜春市,28.866,52.374,13.798,20.335,0.889,38.779,-1.098,-2.487,290.542,75.943,99697.692,28.29,114.974
江西,抚州市,30.0,45.519,12.093,13.963,0.707,39.339,-0.435,-2.978,289.665,84.339,99328.64,27.514,116.42
江西,新余市,31.24,54.793,17.885,26.732,1.102,28.777,-0.774,-2.011,290.971,77.383,100626.493,27.847,114.836
江西,景德镇市,21.573,33.642,9.56,12.805,0.633,42.109,-1.867,-3.1,290.619,72.315,100583.066,29.287,117.24
江西,萍乡市,35.634,63.457,15.176,22.447,1.167,26.437,-1.628,-1.122,289.53,81.629,98360.913,27.505,113.908
江西,赣州市,22.83,38.092,14.755,9.828,1.027,47.752,-1.094,-4.809,289.303,85.095,97636.062,25.692,115.279
江西,鹰潭市,33.755,42.95,9.317,16.836,0.677,38.938,-0.679,-1.835,290.306,81.927,100268.469,28.222,117.094
河北,保定市,15.635,34.492,8.509,21.961,0.32,46.845,4.803,-0.723,286.509,20.228,97977.785,39.018,115.159
河北,唐山市,18.828,43.673,9.976,33.608,0.44,36.583,5.2,-0.948,286.188,27.797,101114.023,39.731,118.354
河北,廊坊市,20.111,50.241,6.03,32.478,0.442,36.902,4.053,0.382,287.63,20.602,101736.878,39.267,116.632
河北,张家口市,12.048,20.561,6.531,12.976,0.293,51.645,7.648,-2.375,277.819,37.08,87735.715,40.877,115.042
河北,承德市,11.187,16.033,3.145,9.981,0.245,51.041,5.561,-1.734,278.897,37.583,90952.441,41.339,117.578
河北,沧州市,26.969,64.764,9.199,33.29,0.512,39.988,4.63,0.634,288.092,19.708,101851.524,38.258,116.744
河北,石家庄市,19.221,49.855,11.261,31.036,0.447,45.087,5.657,-0.129,287.89,18.493,98610.703,38.135,114.407
河北,秦皇岛市,17.208,32.522,8.719,25.504,0.442,40.401,5.597,-1.996,284.182,31.575,98751.611,40.12,119.193
河北,衡水市,23.828,67.962,10.12,31.494,0.504,44.204,4.657,0.878,288.504,17.603,101772.731,37.755,115.813
河北,邢台市,24.309,70.656,11.947,33.772,0.598,48.109,3.35,0.241,288.836,16.27,100312.123,37.195,114.815
河北,邯郸市,26.765,82.993,13.483,35.437,0.734,50.864,3.598,0.656,288.643,16.004,99891.225,36.538,114.596
河南,三门峡市,42.676,78.685,9.775,31.018,0.688,43.791,0.581,0.449,285.621,27.917,92376.474,34.362,111.101
河南,信阳市,45.73,72.065,11.753,26.561,0.6,61.743,0.769,-2.701,291.099,36.239,100837.294,32.091,114.907
河南,南阳市,37.46,71.935,10.456,34.12,0.624,50.761,-1.201,-2.173,290.483,21.386,98827.401,33.034,112.323
河南,周口市,46.231,97.133,12.052,36.955,0.737,58.153,-0.978,-3.333,290.637,19.4,101615.372,33.738,114.884
河南,商丘市,48.642,97.323,11.558,39.562,0.734,60.054,-0.509,-3.286,290.139,19.2,101681.535,34.277,115.718
河南,安阳市,30.501,84.708,13.388,34.728,0.805,54.204,3.422,-0.348,288.985,14.979,99535.079,35.888,114.318
河南,平顶山市,42.797,93.389,15.404,41.435,0.714,49.546,0.689,-2.444,289.864,18.276,99474.989,33.8,113.025
河南,开封市,37.318,92.622,11.737,36.291,0.738,57.264,-0.387,-2.248,289.875,16.573,101373.559,34.594,114.514
河南,新乡市,33.666,87.788,12.754,39.351,0.788,53.565,1.291,-0.456,289.308,15.699,100414.784,35.256,114.111
河南,洛阳市,39.565,73.995,11.362,31.436,0.692,46.214,1.599,0.097,287.1,23.522,94782.464,34.274,112.019
河南,济源市,33.584,76.593,13.461,35.182,0.97,55.266,1.543,-1.996,287.759,17.883,96604.73,35.105,112.445
河南,漯河市,40.91,99.76,15.066,40.503,0.666,56.456,-0.665,-3.698,290.783,17.025,101490.824,33.652,113.945
河南,濮阳市,31.907,95.099,12.302,34.047,0.769,54.818,1.702,-0.532,288.959,16.394,101618.114,35.809,115.283
河南,焦作市,36.544,97.613,14.57,46.794,1.026,51.567,1.988,-0.487,289.766,15.961,100229.848,35.121,113.163
河南,许昌市,40.943,105.508,15.39,44.768,0.745,51.59,-0.02,-2.63,290.263,16.956,100815.492,34.075,113.707
河南,郑州市,39.835,104.546,14.342,47.764,0.877,47.953,1.625,-0.238,289.262,17.936,99487.731,34.634,113.438
河南,驻马店市,42.927,83.238,12.177,32.001,0.619,59.611,-0.635,-4.191,291.13,21.121,101158.172,32.925,114.174
河南,鹤壁市,32.14,86.371,13.653,37.632,0.807,53.238,2.642,-0.298,289.471,14.994,100733.178,35.716,114.319
浙江,丽水市,26.0,37.951,8.639,16.351,0.627,38.273,-0.356,-3.72,287.606,88.722,94949.912,28.194,119.51
浙江,台州市,22.52,34.365,7.161,21.926,0.657,47.778,2.194,-5.95,290.186,79.945,99158.436,28.742,121.109
浙江,嘉兴市,44.557,62.855,7.557,43.297,0.814,60.581,2.513,-5.026,291.177,72.36,101949.861,30.635,120.754
浙江,宁波市,28.361,38.62,7.589,29.97,0.725,59.263,3.268,-5.662,290.836,79.956,100666.747,29.706,121.49
浙江,杭州市,25.628,41.221,6.85,22.155,0.652,51.676,0.299,-3.891,289.243,75.856,99091.53,29.891,119.464
浙江,温州市,20.962,34.072,8.572,20.497,0.642,41.524,1.63,-5.67,290.336,78.614,97959.61,27.897,120.411
浙江,湖州市,37.479,59.737,7.227,37.83,0.756,57.999,2.736,-3.076,289.326,77.47,100733.833,30.757,119.871
浙江,绍兴市,31.159,45.335,6.308,34.018,0.834,50.978,2.005,-4.154,289.471,81.496,99892.565,29.709,120.64
浙江,舟山市,19.758,28.167,8.418,13.77,0.532,68.802,4.382,-6.608,292.08,83.255,101613.995,30.038,122.23
浙江,衢州市,23.66,34.232,9.024,16.456,0.653,37.55,-1.698,-2.406,289.54,79.96,98323.444,28.912,118.675
浙江,金华市,26.024,38.695,6.586,26.56,0.724,37.502,-0.199,-3.769,288.962,82.775,98561.288,29.109,119.967
海南,万宁市,12.819,19.286,3.08,1.972,0.229,86.992,-4.62,-2.712,297.807,88.044,100182.577,18.842,110.294
海南,三亚市,13.421,19.023,2.924,3.509,0.401,58.021,-6.827,-1.601,297.826,79.074,98908.647,18.413,109.407
海南,东方市,13.884,17.791,2.652,2.784,0.212,74.124,-1.753,0.455,298.896,73.008,99531.337,18.971,108.838
海南,临高县,14.269,25.566,5.981,6.929,0.379,61.21,-5.607,-0.36,297.819,86.079,100773.364,19.821,109.733
海南,乐东黎族自治县,13.934,18.059,2.304,2.817,0.258,67.217,-4.568,-0.728,297.818,75.032,98023.743,18.659,109.072
海南,五指山市,13.63,18.206,2.566,2.48,0.226,73.718,-5.902,-0.414,295.324,84.044,94856.6,18.81,109.518
海南,儋州市,14.803,23.114,4.784,4.417,0.302,69.954,-5.307,0.349,297.829,84.55,100411.467,19.568,109.399
海南,定安县,11.562,20.162,3.38,4.493,0.353,66.702,-4.752,-1.062,297.898,85.632,100475.518,19.47,110.28
海南,屯昌县,12.354,20.558,3.376,4.064,0.32,68.216,-4.13,-0.338,297.292,87.58,99692.142,19.342,110.076
海南,文昌市,12.242,20.676,3.955,2.311,0.295,75.753,-5.584,-1.926,298.299,86.039,101257.592,19.707,110.773
海南,昌江黎族自治县,13.966,18.558,3.157,2.706,0.223,74.116,-5.142,-0.004,297.92,77.093,98531.756,19.233,109.016
海南,海口市,11.303,21.671,4.333,5.638,0.384,61.767,-5.445,-1.396,298.031,86.402,101062.879,19.842,110.393
海南,澄迈县,12.273,22.624,4.633,6.75,0.407,60.374,-5.063,-0.594,297.879,85.534,100603.066,19.676,109.989
海南,琼中黎族苗族自治县,13.794,20.335,2.95,2.94,0.256,70.67,-4.151,-0.263,295.829,91.057,97510.923,19.087,109.847
海南,琼海市,11.528,18.735,3.097,2.212,0.255,78.91,-4.48,-1.688,298.288,85.968,101021.883,19.22,110.43
海南,白沙黎族自治县,13.305,18.376,2.756,2.261,0.228,74.286,-5.084,0.659,296.191,86.215,97209.035,19.2,109.388
海南,陵水黎族自治县,13.487,19.279,2.636,2.431,0.276,73.447,-4.849,-3.304,297.546,85.75,99494.267,18.581,109.913
湖北,仙桃市,38.772,65.798,11.751,27.018,0.765,61.984,-0.347,-1.64,291.84,50.815,101850.498,30.284,113.417
湖北,十堰市,35.775,57.288,10.938,14.277,0.498,54.072,-1.16,-0.047,287.972,36.092,93938.924,32.462,110.476
湖北,咸宁市,34.641,58.77,11.084,18.594,0.731,62.085,-0.438,-1.39,290.682,65.3,99969.879,29.621,114.178
湖北,天门市,40.643,69.78,13.508,30.142,0.806,61.008,-0.829,-1.631,292.054,43.514,101807.732,30.633,113.053
湖北,孝感市,44.252,71.934,12.52,25.126,0.74,63.201,-0.479,-2.597,291.639,40.15,101206.803,31.116,113.869
湖北,宜昌市,31.045,52.934,12.394,22.275,0.628,49.717,-1.1,-0.968,288.764,45.386,94754.508,30.746,111.129
湖北,恩施土家族苗族自治州,28.629,48.513,14.086,8.077,0.585,41.43,-2.263,1.497,285.928,63.9,90187.189,30.195,109.552
湖北,武汉市,46.447,75.467,12.739,42.518,0.934,47.704,-0.269,-1.43,291.767,55.171,101736.398,30.606,114.349
湖北,潜江市,39.449,68.45,14.308,35.11,0.957,56.428,-0.512,-1.813,292.077,47.241,101815.708,30.33,112.77
湖北,神农架林区,38.852,53.359,10.857,5.453,0.376,63.503,-1.157,1.544,281.935,54.802,83566.835,31.592,110.49
湖北,荆州市,36.305,62.891,15.796,27.362,0.927,59.471,-0.123,-2.07,291.95,49.777,101583.396,30.01,112.512
湖北,荆门市,37.889,66.551,14.825,34.04,0.759,55.905,-0.462,-2.608,292.046,36.996,100796.505,31.059,112.616
湖北,襄阳市,34.984,65.763,11.639,30.257,0.661,51.924,-0.419,-1.287,290.391,31.665,98082.742,31.919,111.96
湖北,鄂州市,47.123,74.541,12.831,40.246,1.226,43.083,-0.34,-0.803,291.629,66.163,101779.97,30.337,114.794
湖北,随州市,38.38,65.432,11.058,24.595,0.629,59.56,-1.316,-3.001,291.441,28.589,100090.215,31.809,113.43
湖北,黄冈市,48.511,67.6,13.746,20.039,0.846,62.176,-0.471,-1.377,290.784,59.275,100029.786,30.702,115.358
湖北,黄石市,44.251,69.277,11.192,29.728,1.098,49.338,0.113,-0.713,290.999,70.215,100797.638,29.925,115.034
湖南,娄底市,34.34,58.398,9.867,18.338,0.942,44.476,-1.998,-2.25,289.572,67.695,97799.387,27.715,111.632
湖南,岳阳市,35.693,57.054,11.943,16.426,0.766,60.222,-1.481,-1.922,291.15,63.794,100677.985,29.081,113.275
湖南,常德市,25.843,48.03,12.817,17.362,0.846,57.496,-0.312,-1.726,290.71,55.192,99899.322,29.271,111.524
湖南,张家界市,18.442,37.396,10.872,11.498,0.658,47.041,-1.934,-1.064,288.684,59.343,95959.189,29.379,110.526
湖南,怀化市,28.082,50.398,10.706,12.171,0.75,40.37,-1.843,-1.445,288.797,71.059,96880.549,27.535,110.071
湖南,株洲市,37.115,61.318,12.547,20.303,0.958,33.132,-1.513,-1.669,289.54,80.388,98487.245,27.109,113.513
湖南,永州市,41.362,55.748,11.358,14.27,0.65,43.747,-2.218,-2.761,288.251,82.393,97081.504,25.748,111.723
湖南,湘潭市,41.191,61.359,8.937,34.479,0.954,38.5,-0.674,-3.558,291.046,68.378,100786.735,27.744,112.619
湖南,湘西土家族苗族自治州,20.338,38.965,7.403,9.38,0.706,40.093,-2.412,-0.609,288.74,67.385,95876.982,28.708,109.718
湖南,益阳市,31.195,56.706,10.688,13.833,0.933,59.773,-0.592,-1.979,290.183,63.398,99391.411,28.525,111.919
湖南,衡阳市,41.154,60.287,11.065,25.794,0.873,33.344,-0.342,-2.222,290.001,77.606,100302.481,26.781,112.565
湖南,邵阳市,40.564,57.283,12.297,16.13,0.741,41.398,-2.484,-1.454,287.994,77.0,95556.33,26.893,110.881
湖南,郴州市,35.517,54.084,9.794,15.46,0.883,39.431,-0.827,-3.044,287.968,86.381,96232.775,25.769,113.109
湖南,长沙市,35.58,57.657,11.124,24.423,0.901,41.613,-1.402,-2.894,290.862,69.377,100186.35,28.235,113.159
甘肃,临夏回族自治州,42.391,89.929,4.585,15.767,0.649,55.7,-0.706,1.031,279.652,47.99,77697.489,35.617,103.291
甘肃,兰州市,41.435,95.809,8.14,26.691,0.588,48.552,-0.049,0.827,280.261,39.315,79339.9,36.359,103.633
甘肃,嘉峪关市,26.963,111.932,12.39,42.598,0.528,58.517,1.878,0.67,280.972,17.615,81780.622,39.798,98.145
甘肃,天水市,37.09,62.325,7.207,11.21,0.318,53.218,-0.214,5.038,280.81,55.669,83078.701,34.645,105.739
甘肃,定西市,38.785,68.654,5.314,8.987,0.365,59.421,-0.99,4.643,278.345,62.611,77524.731,35.124,104.432
甘肃,平凉市,32.399,68.327,6.681,22.705,0.402,48.332,0.649,4.618,281.392,44.236,84934.325,35.304,106.644
甘肃,庆阳市,26.373,48.688,6.61,16.203,0.345,56.569,1.047,3.682,281.586,38.118,86208.835,36.149,107.596
甘肃,张掖市,7.566,15.791,1.879,6.743,0.218,73.429,1.45,1.381,276.102,30.005,74774.701,38.94,99.855
甘肃,武威市,18.95,30.786,3.475,8.893,0.387,64.382,0.986,1.162,279.958,32.734,81593.866,38.163,103.073
甘肃,甘南藏族自治州,22.668,28.7,3.264,2.228,0.241,77.39,-0.318,2.094,272.103,79.866,67836.796,34.331,102.768
甘肃,白银市,37.283,76.726,7.539,20.04,0.434,50.386,0.271,4.06,281.105,42.81,81748.514,36.59,104.646
甘肃,酒泉市,6.427,10.319,1.062,2.342,0.151,74.146,3.897,0.584,277.756,23.558,79186.442,40.236,96.062
甘肃,金昌市,15.059,36.692,4.664,16.596,0.468,62.594,1.162,0.78,280.346,27.312,80790.854,38.44,102.048
甘肃,陇南市,35.429,52.051,7.226,6.092,0.289,54.952,0.52,3.32,279.767,71.624,82655.3,33.599,105.224
福建,三明市,19.546,34.851,12.999,10.618,0.73,34.877,0.087,-3.194,288.676,88.279,95554.218,26.29,117.395
福建,南平市,20.26,31.546,10.454,8.891,0.598,44.207,0.064,-3.004,289.331,83.753,96327.468,27.324,118.143
福建,厦门市,31.157,47.74,9.045,23.995,0.665,55.49,-2.462,-4.298,295.032,72.302,100585.415,24.642,118.11
福建,宁德市,19.457,29.65,9.89,10.354,0.552,54.592,-0.081,-3.985,290.087,80.396,95587.964,26.968,119.474
福建,泉州市,25.259,38.014,8.792,14.202,0.593,57.601,-0.583,-3.627,291.996,80.697,96868.353,25.201,118.249
福建,漳州市,26.944,41.676,10.156,14.168,0.64,57.799,-1.376,-3.101,293.885,75.824,98432.353,24.372,117.444
福建,福州市,19.234,31.331,7.339,13.597,0.572,60.32,-0.411,-3.593,291.96,80.136,97657.873,26.083,119.206
福建,莆田市,22.765,33.731,8.441,12.676,0.561,63.868,-0.977,-4.515,293.021,77.846,98385.651,25.445,118.864
福建,龙岩市,18.375,34.139,13.551,10.001,0.706,43.517,-0.711,-4.085,290.11,82.174,95490.048,25.256,116.739
西藏,山南市,10.565,12.079,0.914,1.248,0.17,95.694,4.539,2.659,275.272,58.034,66282.843,28.295,92.274
西藏,拉萨市,10.931,12.837,0.37,1.19,0.136,93.233,9.075,4.257,269.571,30.228,56537.319,30.043,91.093
西藏,日喀则市,4.222,4.928,0.492,0.458,0.129,93.135,8.85,3.325,265.718,36.601,55289.825,29.483,86.493
西藏,昌都市,4.453,5.874,0.301,0.752,0.151,92.213,6.495,6.818,270.073,55.498,59134.341,30.753,97.044
西藏,林芝市,7.415,7.903,0.607,1.33,0.154,93.597,1.082,4.043,274.383,69.511,66575.586,29.184,95.25
西藏,玉树藏族自治州,2.663,2.976,0.213,0.436,0.126,85.348,0.418,2.035,265.378,75.805,57224.258,34.196,94.317
西藏,那曲市,2.39,2.716,0.215,0.187,0.126,91.803,3.978,1.574,265.628,58.218,55301.423,32.709,89.262
西藏,阿里地区,2.064,2.384,0.359,0.503,0.132,100.368,4.758,-0.737,262.568,53.14,54713.007,33.013,82.553
贵州,六盘水市,13.533,26.134,9.918,12.301,0.693,40.773,-2.065,1.743,283.87,96.495,83591.85,26.106,104.896
贵州,安顺市,21.304,34.496,10.312,8.483,0.48,50.275,-2.754,0.382,285.817,89.792,88701.39,25.986,105.978
贵州,毕节市,16.455,28.533,9.659,12.753,0.657,42.034,-1.894,2.095,283.859,92.439,83927.317,27.063,105.211
贵州,贵阳市,18.925,31.555,7.769,15.095,0.532,42.419,-2.42,1.131,285.577,84.051,88750.647,26.845,106.71
贵州,遵义市,28.604,39.15,14.26,8.427,0.514,54.333,-2.594,2.018,286.35,80.687,90961.407,28.167,107.102
贵州,铜仁市,20.941,44.647,13.426,8.628,0.689,48.247,-2.065,0.468,287.332,74.954,93361.102,27.937,108.534
贵州,黔东南苗族侗族自治州,27.542,44.823,17.627,7.523,0.601,50.73,-1.77,-1.974,286.075,83.284,93240.993,26.495,108.574
贵州,黔南布依族苗族自治州,24.362,34.582,13.356,5.86,0.474,51.531,-2.609,-1.341,285.596,87.696,90930.812,26.0,107.265
贵州,黔西南布依族苗族自治州,21.095,34.684,12.447,5.808,0.527,52.514,-2.35,-0.322,286.245,94.002,89077.715,25.256,105.467
辽宁,丹东市,20.128,31.35,10.139,15.385,0.574,55.1,3.536,1.295,283.677,67.481,98458.015,40.554,124.376
辽宁,大连市,20.832,33.386,7.463,15.844,0.421,53.114,5.493,-1.039,286.156,52.095,100787.833,39.591,122.22
辽宁,抚顺市,19.709,31.975,10.178,17.071,0.553,51.046,4.187,3.753,282.126,64.779,96652.702,41.841,124.65
辽宁,朝阳市,13.192,23.941,5.856,11.669,0.387,47.346,5.862,-2.523,282.455,33.744,96304.665,41.545,120.053
辽宁,本溪市,19.243,31.602,9.764,16.287,0.626,52.072,3.629,2.708,281.694,67.278,96051.593,41.232,124.544
辽宁,沈阳市,15.552,26.09,6.277,13.761,0.412,47.116,4.925,-0.028,284.786,39.085,100768.437,42.081,123.159
辽宁,盘锦市,16.647,29.255,7.234,16.067,0.465,50.607,4.803,-1.136,285.977,32.034,101507.75,41.13,122.01
辽宁,营口市,20.844,34.12,7.235,16.777,0.501,52.529,4.814,-0.249,284.373,46.054,99348.203,40.395,122.478
辽宁,葫芦岛市,13.745,26.196,6.277,14.85,0.415,45.947,5.596,-2.56,284.704,29.499,99092.155,40.66,120.215
辽宁,辽阳市,19.055,35.329,9.886,22.231,0.727,47.724,4.392,1.591,283.864,47.706,99490.666,41.153,123.261
辽宁,铁岭市,17.374,27.281,6.21,14.088,0.39,48.853,5.034,2.52,283.409,49.923,99158.325,42.653,124.158
辽宁,锦州市,14.237,26.087,6.301,13.274,0.371,48.338,4.837,-2.272,285.326,30.981,100672.363,41.502,121.659
辽宁,阜新市,11.063,16.607,3.388,7.043,0.239,48.207,5.983,-2.38,283.687,35.01,99136.972,42.289,121.968
辽宁,鞍山市,19.993,34.016,8.226,18.139,0.6,50.511,4.791,0.061,284.262,46.146,99583.178,40.731,123.007
重庆,重庆城区,34.278,50.231,12.206,22.28,0.676,35.463,-1.537,0.452,289.511,67.915,95496.228,29.824,107.125
重庆,重庆郊县,33.293,51.061,15.496,8.541,0.524,50.082,-2.159,1.29,287.327,61.58,91707.939,30.334,108.755
陕西,咸阳市,35.689,78.717,7.536,38.38,0.63,43.088,-1.688,-0.364,285.313,27.311,91974.138,34.779,108.367
陕西,商洛市,39.847,62.09,7.307,16.697,0.433,45.526,0.045,0.44,285.048,33.153,89930.176,33.64,109.889
陕西,安康市,37.488,53.303,9.721,9.687,0.42,45.96,-0.922,0.446,285.726,43.177,90476.829,32.735,108.932
陕西,宝鸡市,35.993,70.454,6.029,22.949,0.414,46.045,-0.366,2.836,283.005,43.751,86835.728,34.386,107.193
陕西,延安市,26.455,46.792,9.65,23.524,0.637,47.96,1.915,2.173,281.934,33.155,88007.682,36.432,109.316
陕西,榆林市,21.775,43.587,12.211,29.73,0.771,43.342,2.868,2.621,281.311,33.027,88279.094,38.041,109.581
陕西,汉中市,36.385,53.295,9.035,8.657,0.42,42.398,-1.194,1.367,285.104,51.517,89510.283,33.088,107.098
陕西,渭南市,38.594,82.313,12.371,39.776,0.724,42.247,-0.635,-0.47,286.623,27.475,94358.144,34.919,109.855
陕西,西安市,39.741,83.249,7.643,32.754,0.623,41.309,0.505,1.89,285.588,35.009,91052.065,34.12,108.77
陕西,铜川市,31.192,57.617,10.237,30.126,0.523,49.308,0.086,0.027,283.667,27.104,89682.761,35.198,109.058
青海,保亭黎族苗族自治县,14.002,19.45,2.8,3.626,0.348,62.18,-5.524,-2.234,296.402,85.216,97351.366,18.566,109.618
青海,吐鲁番市,14.207,21.036,2.505,4.236,0.245,61.701,2.138,-0.539,281.672,26.119,90322.86,42.386,89.851
青海,果洛藏族自治州,4.817,5.231,0.483,0.784,0.132,84.702,-0.312,1.938,266.682,82.78,60041.658,34.127,99.404
青海,海东市,30.849,44.643,7.214,10.686,0.423,62.677,0.088,0.38,276.08,41.46,72981.317,36.347,102.34
青海,海北藏族自治州,6.691,8.412,1.438,2.074,0.157,83.323,2.599,0.403,269.613,44.206,65464.792,37.775,100.288
青海,海南藏族自治州,3.803,4.227,0.508,0.901,0.134,85.269,0.597,0.736,272.137,42.556,66650.966,35.89,100.272
青海,海西蒙古族藏族自治州,2.373,2.548,0.333,0.43,0.125,82.97,0.546,0.506,270.043,41.877,64569.641,36.677,94.519
青海,西宁市,25.83,51.88,6.409,11.977,0.561,66.034,1.154,0.325,273.276,43.841,69755.117,36.842,101.423
青海,黄南藏族自治州,9.952,10.887,1.379,1.175,0.154,82.087,0.322,1.807,271.667,62.742,65987.902,35.022,101.631
香港,香港特别行政区,27.89,43.2,8.63,29.365,0.68,56.93,-3.28,-4.26,296.415,72.985,101155.215,22.45,114.22
黑龙江,七台河市,18.198,33.847,8.217,13.922,0.41,53.855,0.409,6.171,282.476,75.415,97922.574,45.87,130.943
黑龙江,伊春市,29.498,44.011,12.814,9.41,0.428,49.3,-0.565,4.758,279.72,86.689,96243.859,47.772,129.184
黑龙江,佳木斯市,15.826,27.648,6.689,8.227,0.339,54.665,-2.088,6.827,283.218,75.793,99957.508,47.207,132.11
黑龙江,双鸭山市,12.221,18.326,5.231,4.989,0.283,61.94,-2.293,7.174,283.498,77.48,99583.485,46.722,132.643
黑龙江,哈尔滨市,30.297,44.906,12.038,13.457,0.484,45.514,2.087,5.363,282.001,75.984,98098.155,45.634,127.964
黑龙江,大兴安岭地区,65.933,71.825,18.603,8.808,0.464,27.832,1.093,2.39,275.296,90.707,93976.55,52.286,124.212
黑龙江,大庆市,25.991,46.594,5.671,9.595,0.362,37.455,4.958,2.23,281.683,46.215,99260.547,46.327,124.687
黑龙江,牡丹江市,26.484,43.984,9.208,14.363,0.501,43.34,2.048,5.729,280.541,79.713,95175.667,44.592,129.883
黑龙江,绥化市,35.423,54.317,10.903,13.566,0.477,40.06,1.615,4.846,281.649,67.744,98458.047,46.89,126.634
黑龙江,鸡西市,12.685,19.25,4.71,6.499,0.289,60.252,-1.068,6.232,283.765,78.273,99312.635,45.626,132.289
黑龙江,鹤岗市,21.883,42.919,10.639,14.723,0.474,45.625,-1.537,5.501,281.939,77.718,98801.824,47.661,130.778
黑龙江,黑河市,46.831,65.921,15.916,9.201,0.47,39.081,-0.308,5.134,279.32,78.063,96421.976,49.268,127.004
黑龙江,齐齐哈尔市,38.333,53.726,8.786,8.311,0.359,33.235,3.552,2.202,280.372,53.796,98328.89,47.715,124.57
