province,city,PM2.5,PM10,SO2,NO2,CO,O3,U,V,TEMP,RH,PSFC,lat,lon
上海,上海市,42.432,60.466,9.51,52.505,0.654,77.634,0.88,-4.978,290.521,66.93,101837.679,31.173,121.42
云南,临沧市,13.182,18.237,3.005,3.438,0.282,54.545,3.769,0.263,289.686,72.643,83970.744,23.935,99.686
云南,丽江市,11.327,15.008,3.04,4.287,0.496,65.061,4.004,0.791,284.27,56.881,74611.221,26.96,100.515
云南,保山市,12.402,19.005,3.579,4.688,0.333,42.718,3.713,-0.387,287.67,66.96,81938.211,24.953,98.962
云南,大理白族自治州,10.458,15.746,2.937,4.223,0.377,58.918,5.194,0.548,285.999,61.195,78128.456,25.726,100.053
云南,德宏傣族景颇族自治州,15.14,19.609,4.451,3.761,0.259,41.375,1.94,-1.099,289.906,71.694,86147.813,24.535,98.052
云南,怒江傈僳族自治州,12.328,15.202,1.426,1.271,0.233,61.393,3.059,-0.798,280.485,82.318,72847.991,26.916,98.885
云南,文山壮族苗族自治州,21.546,36.982,11.705,4.435,0.47,54.672,-1.117,1.754,288.189,92.854,86631.974,23.696,104.735
云南,昆明市,15.639,26.933,6.718,12.686,0.516,52.073,4.975,3.787,287.173,70.826,79251.74,25.384,102.863
云南,昭通市,23.286,43.141,11.475,10.573,0.673,48.155,-1.836,-0.625,285.854,83.135,84129.926,27.667,103.985
云南,普洱市,13.049,18.45,3.144,3.832,0.239,50.501,2.502,0.329,291.594,73.979,86011.23,23.159,100.718
云南,曲靖市,18.548,30.174,10.285,9.281,0.563,51.009,0.811,3.555,285.863,83.463,80054.39,25.737,103.929
云南,楚雄彝族自治州,12.728,16.079,3.774,5.267,0.362,62.825,5.035,2.834,288.595,60.233,80971.723,25.328,101.567
云南,玉溪市,14.012,20.248,4.294,5.498,0.361,59.888,2.975,2.873,290.101,74.442,83514.07,24.136,102.217
云南,红河哈尼族彝族自治州,17.261,29.617,9.298,3.846,0.385,58.638,0.159,2.982,290.098,88.01,85214.992,23.451,103.034
云南,西双版纳傣族自治州,20.429,29.158,5.932,5.047,0.316,38.139,1.488,0.624,293.785,80.07,88972.56,21.939,100.912
云南,迪庆藏族自治州,9.184,10.884,1.481,1.426,0.29,69.454,4.714,-0.079,277.946,68.487,67294.09,27.957,99.459
内蒙古,乌兰察布市,6.791,12.534,4.57,6.776,0.332,60.643,-3.502,0.581,277.599,39.499,86573.592,41.691,112.44
内蒙古,乌海市,29.498,51.589,16.119,22.41,0.615,72.023,-7.852,5.985,283.246,55.03,87814.451,39.396,106.856
内蒙古,兴安盟,5.317,7.091,3.27,4.286,0.237,50.057,2.085,-4.366,276.569,39.673,95561.887,46.244,121.341
内蒙古,包头市,15.632,27.046,8.397,16.035,0.426,57.362,-3.968,1.873,279.325,39.244,86444.919,41.549,110.276
内蒙古,呼伦贝尔市,2.87,4.372,3.296,2.944,0.203,52.609,3.262,-1.651,274.989,47.054,94275.849,49.636,121.171
内蒙古,呼和浩特市,17.784,43.497,12.497,28.514,0.72,43.426,-4.888,1.183,279.413,38.678,86837.648,40.578,111.513
内蒙古,巴彦淖尔市,22.598,33.377,13.305,16.042,0.364,54.866,-5.707,2.404,281.171,36.245,87696.157,41.446,107.582
内蒙古,赤峰市,5.213,11.097,3.444,5.453,0.261,54.444,1.105,-5.284,276.074,38.8,92688.283,43.226,118.892
内蒙古,通辽市,7.795,13.003,3.805,5.987,0.276,49.335,1.09,-4.694,278.159,35.695,98686.159,43.814,121.591
内蒙古,鄂尔多斯市,30.207,52.594,17.024,22.91,0.576,57.578,-5.205,3.42,281.282,51.61,87333.628,39.407,108.63
内蒙古,锡林郭勒盟,1.609,2.254,1.737,1.317,0.189,64.602,-0.744,-1.227,275.931,42.717,89841.704,44.179,115.482
内蒙古,阿拉善盟,33.006,39.227,14.52,5.179,0.282,61.12,-7.841,0.794,283.598,39.571,87543.615,40.473,102.467
北京,北京市,21.251,29.025,3.335,23.958,0.493,40.196,-1.112,-2.738,282.996,29.695,98636.618,40.158,116.395
台湾,台湾省,24.47,30.59,7.903,14.526,0.262,69.442,-0.324,-4.384,292.591,84.923,92905.436,23.757,120.975
吉林,吉林市,16.255,29.137,5.72,10.923,0.448,44.9,0.81,-3.169,276.671,57.059,97706.086,43.573,126.859
吉林,四平市,17.013,31.23,4.188,14.962,0.442,39.622,-0.289,-4.851,278.757,39.954,100106.75,43.472,124.386
吉林,延边朝鲜族自治州,11.991,16.271,4.317,6.318,0.295,46.463,2.504,-3.228,275.153,66.679,94569.881,43.141,129.147
吉林,松原市,13.003,24.67,3.522,9.189,0.35,44.352,0.909,-4.516,278.402,40.611,100521.965,44.785,124.496
吉林,白城市,11.151,16.653,3.854,8.219,0.301,45.394,1.366,-3.527,278.436,38.174,100708.442,45.35,123.031
吉林,白山市,15.34,25.514,7.328,10.181,0.457,46.885,-0.419,-3.632,274.411,68.994,92647.544,42.063,127.256
吉林,辽源市,22.255,40.058,5.524,21.974,0.598,31.066,-0.38,-4.35,277.514,49.585,98120.642,42.836,125.32
吉林,通化市,17.779,32.229,8.039,13.938,0.582,39.166,-1.058,-4.727,276.497,60.552,96198.111,41.939,125.927
吉林,长春市,18.327,37.253,4.497,15.638,0.501,37.963,0.849,-4.311,278.096,44.375,99993.176,44.268,125.611
四川,乐山市,44.516,60.493,7.59,16.215,0.715,40.088,-1.55,-0.442,286.317,87.973,89650.711,29.218,103.569
四川,内江市,32.105,52.388,6.174,25.941,0.825,29.168,-2.46,-0.491,290.545,74.668,96739.224,29.62,104.95
四川,凉山彝族自治州,18.162,26.214,8.557,5.728,0.495,62.241,0.504,1.718,282.562,70.434,74161.731,27.883,102.065
四川,南充市,55.209,76.727,6.644,26.54,0.775,32.058,-1.934,0.685,290.251,72.997,96844.489,31.19,106.199
四川,宜宾市,40.704,55.557,10.396,20.661,0.799,31.637,-1.213,-1.476,290.285,76.309,95045.728,28.573,104.621
四川,巴中市,46.002,62.105,9.079,13.357,0.586,47.745,-2.917,1.177,287.07,71.27,92626.904,32.033,107.031
四川,广元市,42.259,60.747,10.964,14.21,0.629,26.464,-1.956,1.963,285.945,84.504,91705.758,32.261,105.788
四川,广安市,41.716,62.509,7.949,26.089,0.789,33.66,-2.466,1.395,290.949,66.804,96857.12,30.43,106.628
四川,德阳市,48.148,73.975,6.956,29.44,0.721,25.442,-0.821,-0.415,286.948,85.095,93255.114,31.13,104.436
四川,成都市,40.103,64.597,7.387,30.532,0.674,32.277,-1.118,-0.808,287.474,84.257,93388.074,30.64,103.929
四川,攀枝花市,20.043,30.106,15.451,18.128,0.938,51.039,0.342,2.016,288.927,55.689,81401.469,26.791,101.734
四川,泸州市,26.65,40.024,10.807,16.858,0.568,38.893,-3.473,2.86,289.633,69.271,93458.972,28.424,105.675
四川,甘孜藏族自治州,4.21,4.852,0.608,1.315,0.127,82.555,4.073,1.01,273.985,48.791,61239.776,30.936,100.009
四川,眉山市,30.61,50.574,6.84,22.302,0.68,37.502,-1.553,-0.813,288.2,84.453,93822.355,29.912,103.766
四川,绵阳市,46.784,66.136,8.514,17.85,0.615,31.79,-0.483,1.336,283.938,89.789,88060.049,31.86,104.704
四川,自贡市,39.979,54.109,6.771,24.962,0.844,29.055,-2.313,-0.971,290.708,74.835,96697.058,29.307,104.659
四川,资阳市,30.405,59.284,7.071,25.576,0.792,31.737,-2.679,-0.17,290.408,74.917,97011.438,30.102,105.149
四川,达州市,48.043,65.504,9.701,19.205,0.647,57.437,-3.192,2.088,288.924,63.348,94223.887,31.335,107.636
四川,遂宁市,44.128,72.457,7.433,28.301,0.78,32.378,-2.296,0.335,290.414,74.411,97272.015,30.642,105.457
四川,阿坝藏族羌族自治州,12.138,15.75,3.057,3.044,0.205,75.028,3.106,1.226,275.341,61.543,65480.8,32.406,102.61
四川,雅安市,31.082,44.892,8.513,10.232,0.473,60.42,-0.797,-0.355,280.969,91.018,80115.082,29.932,102.689
天津,天津市,32.131,54.194,15.692,47.859,1.237,25.184,-2.865,-2.981,284.712,32.483,102357.227,39.315,117.308
宁夏,中卫市,32.624,47.431,13.479,8.616,0.505,62.919,-0.706,7.736,283.511,65.041,83457.194,37.018,105.509
宁夏,吴忠市,37.482,53.994,16.039,9.916,0.455,66.776,-3.056,8.08,283.225,64.915,85126.874,37.454,106.577
宁夏,固原市,41.346,57.533,11.08,18.529,0.517,53.983,-0.835,8.342,279.551,83.756,81021.546,35.905,106.183
宁夏,石嘴山市,30.778,51.296,17.773,21.407,0.736,72.483,-4.086,2.952,283.044,60.049,86875.041,39.013,106.499
宁夏,银川市,32.664,52.758,13.913,17.519,0.609,69.264,-4.4,3.04,284.188,60.533,87099.732,38.287,106.342
安徽,亳州市,92.092,120.926,10.697,31.694,0.936,85.519,-1.978,-4.98,289.482,55.008,101808.689,33.44,116.162
安徽,六安市,54.242,77.318,8.541,24.718,0.59,79.887,-0.901,-2.343,289.261,57.872,99245.161,31.617,116.209
安徽,合肥市,59.876,81.247,8.365,37.094,0.669,76.828,-0.734,-2.167,290.598,60.042,101590.962,31.766,117.359
安徽,安庆市,54.31,63.476,9.144,18.274,0.611,83.521,-3.395,-4.175,289.864,63.857,99633.297,30.557,116.473
安徽,宣城市,35.738,58.818,10.285,25.223,0.682,68.835,-1.594,-1.817,288.451,69.362,99547.217,30.676,118.846
安徽,宿州市,93.775,130.084,13.342,39.759,0.924,73.683,-1.774,-4.281,289.009,54.598,101746.58,33.844,117.23
安徽,池州市,39.52,57.513,10.594,16.048,0.617,71.689,-3.478,-2.76,289.446,68.261,99776.133,30.296,117.379
安徽,淮北市,101.577,136.707,13.801,41.898,1.008,73.362,-1.853,-4.794,289.142,55.155,101803.043,33.722,116.747
安徽,淮南市,69.073,101.352,10.296,37.852,0.732,81.18,-1.307,-3.05,290.811,54.227,101784.478,32.463,116.746
安徽,滁州市,57.96,82.592,8.852,26.478,0.59,86.839,-0.99,-2.783,290.091,59.181,101489.533,32.55,118.076
安徽,芜湖市,53.046,74.214,10.648,40.342,0.811,69.453,-1.194,-1.081,290.132,67.687,101742.289,31.167,118.162
安徽,蚌埠市,82.446,114.547,11.809,33.851,0.797,90.027,-1.393,-3.606,289.863,52.703,101783.178,33.121,117.263
安徽,铜陵市,61.719,76.669,10.512,33.717,0.768,73.165,-2.178,-2.126,290.326,67.519,101597.75,30.883,117.531
安徽,阜阳市,80.513,108.495,10.464,28.678,0.856,87.26,-2.053,-4.882,289.994,52.809,101772.488,32.937,115.723
安徽,马鞍山市,50.77,74.388,10.305,41.192,0.778,69.211,-0.941,-1.769,290.287,64.552,101746.023,31.622,118.386
安徽,黄山市,27.405,45.947,10.767,11.706,0.568,62.082,-3.508,-3.027,288.126,68.245,97532.645,29.869,118.09
山东,东营市,8.789,19.278,6.459,13.636,0.316,65.214,-3.241,-5.426,287.396,46.104,102300.378,37.57,118.572
山东,临沂市,50.979,85.706,9.375,27.073,0.574,63.884,-3.634,-5.182,287.038,55.44,100334.634,35.289,118.27
山东,威海市,10.27,26.232,8.281,14.911,0.376,67.756,0.661,-8.07,285.737,45.092,101434.155,37.148,122.028
山东,德州市,29.925,50.467,7.764,30.279,0.541,50.529,-3.253,-3.873,287.252,56.163,102186.343,37.233,116.679
山东,日照市,34.18,60.542,6.715,22.357,0.47,62.006,-2.509,-6.64,286.447,57.322,100449.361,35.566,119.108
山东,枣庄市,73.96,126.48,16.724,37.962,0.756,59.712,-3.497,-4.613,288.171,53.823,101055.742,34.925,117.383
山东,泰安市,51.218,90.416,10.901,36.33,0.739,52.316,-3.376,-4.959,286.836,58.032,100299.163,35.993,117.04
山东,济南市,36.564,68.719,10.318,35.802,0.625,51.32,-3.659,-4.335,286.325,58.303,100328.137,36.639,117.254
山东,济宁市,62.113,106.151,14.467,37.503,0.861,52.106,-2.628,-4.949,287.827,57.875,101561.515,35.375,116.697
山东,淄博市,34.237,64.318,11.289,33.195,0.595,53.413,-3.616,-4.333,285.812,58.223,99696.887,36.623,118.062
山东,滨州市,15.317,28.756,7.492,20.571,0.397,59.153,-3.674,-4.409,287.352,48.279,102257.617,37.516,117.852
山东,潍坊市,22.38,42.942,6.984,21.361,0.43,58.778,-2.456,-5.415,286.254,58.411,101113.842,36.53,119.092
山东,烟台市,9.63,27.329,7.15,13.244,0.349,67.097,-1.134,-7.116,285.487,50.197,101036.319,37.25,120.789
山东,聊城市,42.41,69.441,9.371,35.596,0.685,52.182,-2.708,-4.184,287.373,60.042,101941.111,36.458,115.863
山东,菏泽市,66.118,92.596,11.057,33.401,0.892,61.58,-2.41,-5.299,287.981,59.153,101745.53,35.134,115.69
山东,青岛市,17.396,38.725,6.915,19.919,0.416,61.517,-1.646,-6.713,286.475,52.446,101606.18,36.46,120.172
山西,临汾市,68.549,109.564,19.641,40.997,1.147,65.858,-3.224,3.4,283.321,62.612,90525.491,36.227,111.398
山西,吕梁市,53.214,86.572,19.758,41.757,0.899,51.305,-3.136,2.496,281.877,53.988,88112.917,37.663,111.27
山西,大同市,19.231,35.596,8.286,15.838,0.774,50.532,-2.301,-1.304,278.741,39.392,87839.669,39.911,113.713
山西,太原市,47.218,90.085,14.402,42.856,0.827,51.396,-2.86,0.466,280.258,62.903,88090.513,37.967,112.321
山西,忻州市,37.809,64.667,14.64,26.155,0.674,53.145,-2.336,1.822,279.383,56.331,86597.335,38.877,112.391
山西,晋中市,61.331,88.446,11.536,32.452,0.847,65.512,-2.583,1.966,280.631,66.445,89034.525,37.328,112.997
山西,晋城市,75.609,115.906,12.35,35.59,1.258,78.138,-3.201,0.881,282.282,62.069,90995.09,35.625,112.752
山西,朔州市,26.085,60.846,16.834,27.112,0.943,42.572,-2.921,0.071,278.803,43.721,87131.025,39.619,112.655
山西,运城市,76.777,112.026,13.385,28.839,0.995,83.47,-6.2,3.468,286.365,57.915,94681.818,35.205,111.071
山西,长治市,70.022,103.418,10.317,33.441,1.253,74.013,-2.817,0.743,280.421,70.109,89344.704,36.48,112.915
山西,阳泉市,64.769,97.899,12.413,43.833,0.912,47.891,-2.531,1.323,280.426,73.318,90995.877,38.031,113.512
广东,东莞市,15.708,22.81,6.488,26.119,0.798,21.488,-3.039,-5.002,295.926,68.736,101174.607,22.931,113.81
广东,中山市,18.529,28.111,5.96,38.578,0.907,14.863,-2.762,-5.166,296.487,71.161,101163.093,22.5,113.383
广东,云浮市,16.518,28.345,9.419,14.644,0.78,32.622,-3.613,-3.717,294.499,75.019,99208.993,22.776,111.818
广东,佛山市,15.571,25.473,6.795,31.843,0.847,21.205,-2.473,-5.859,295.654,68.82,101246.007,23.035,112.979
广东,广州市,15.908,23.974,7.081,20.584,0.744,28.905,-2.762,-5.444,294.941,69.971,100346.963,23.339,113.525
广东,惠州市,15.479,23.022,8.613,10.391,0.636,38.36,-2.633,-6.084,294.253,73.346,99357.677,23.244,114.485
广东,揭阳市,16.439,25.226,10.693,18.599,0.926,32.697,-2.322,-4.578,295.002,79.033,99922.907,23.323,116.123
广东,梅州市,14.706,23.115,9.661,10.942,0.687,35.657,-0.927,-4.526,292.88,78.564,97958.687,24.169,116.07
广东,汕头市,14.656,27.679,10.407,19.972,0.835,44.782,-3.569,-4.791,295.579,82.797,101034.276,23.339,116.614
广东,汕尾市,13.928,22.545,10.736,10.508,0.716,38.865,-2.134,-4.892,295.365,75.522,99638.696,23.024,115.527
广东,江门市,21.975,33.598,10.003,32.542,0.853,20.05,-2.695,-5.863,295.901,73.453,100605.926,22.289,112.676
广东,河源市,17.631,25.601,11.752,8.703,0.622,43.892,-1.525,-6.52,292.413,76.824,98174.945,24.021,114.969
广东,深圳市,16.358,25.924,6.648,27.321,0.773,22.511,-2.827,-6.266,295.698,71.496,100669.784,22.667,114.143
广东,清远市,20.127,33.05,13.058,12.144,0.714,41.022,-2.874,-5.574,291.784,75.244,97741.348,24.295,112.871
广东,湛江市,17.028,30.375,12.545,11.023,0.782,31.379,-3.647,-3.327,297.48,80.759,100965.075,21.091,110.163
广东,潮州市,13.637,24.833,8.505,15.816,0.812,38.984,-2.801,-3.978,294.315,82.872,99381.468,23.755,116.754
广东,珠海市,22.048,33.437,11.63,35.248,0.825,22.643,-2.842,-5.543,296.76,73.903,101219.377,22.095,113.317
广东,肇庆市,15.04,27.088,10.374,12.541,0.744,37.627,-3.568,-4.474,294.121,70.654,99335.823,23.505,112.199
广东,茂名市,18.781,31.725,12.665,11.664,0.812,29.121,-3.816,-3.454,295.889,77.356,99217.339,22.013,110.952
广东,阳江市,21.866,33.562,13.09,15.985,0.774,29.569,-3.567,-5.397,295.564,74.902,99762.895,22.042,111.786
广东,韶关市,21.816,31.843,11.684,9.746,0.79,44.609,-2.727,-5.04,290.745,77.929,96981.92,24.785,113.819
广西,北海市,15.33,25.295,13.341,10.551,0.95,40.728,-2.579,-5.653,295.842,74.199,101065.282,21.674,109.37
广西,南宁市,21.545,30.067,8.458,10.905,0.673,49.261,-2.574,-4.594,293.15,69.492,99337.073,23.051,108.469
广西,崇左市,19.617,30.978,11.197,7.447,0.574,54.268,-2.633,-3.636,291.671,75.263,98053.402,22.483,107.291
广西,来宾市,26.326,36.075,8.832,7.571,0.626,55.988,-2.462,-4.58,292.785,67.927,98175.688,23.859,109.417
广西,柳州市,28.367,39.909,11.7,6.758,0.56,62.532,-2.561,-4.467,291.273,68.429,97630.987,24.956,109.372
广西,桂林市,35.205,47.256,10.23,9.98,0.607,62.644,-4.299,-4.024,289.753,74.771,96021.823,25.353,110.513
广西,梧州市,17.701,30.146,9.992,9.728,0.831,41.234,-3.536,-3.826,294.038,69.548,98964.095,23.484,110.996
广西,河池市,27.019,38.912,13.201,3.993,0.491,57.298,-2.966,-2.441,289.914,71.959,95289.7,24.628,107.843
广西,玉林市,16.308,28.878,10.615,10.5,0.922,38.455,-3.304,-4.821,294.799,75.553,99321.719,22.452,110.164
广西,百色市,25.768,38.356,13.601,4.605,0.49,60.693,-2.633,-0.471,289.682,78.821,93170.965,23.981,106.292
广西,贵港市,18.655,28.17,8.383,7.99,0.753,49.025,-3.615,-4.121,294.403,66.757,99808.101,23.322,110.021
广西,贺州市,22.943,37.116,13.337,10.205,0.764,49.773,-3.485,-5.159,291.637,72.105,97194.666,24.364,111.394
广西,钦州市,17.466,24.184,9.386,10.515,0.842,44.715,-2.358,-5.732,294.261,73.674,100402.041,22.173,109.01
广西,防城港市,22.1,30.915,9.767,10.833,0.717,47.068,-1.345,-5.913,292.528,78.291,98833.8,21.88,108.002
新疆,乌鲁木齐市,18.606,26.833,3.988,10.664,0.256,50.157,1.668,-0.481,277.197,53.407,83925.012,43.746,87.818
新疆,五家渠市,22.383,30.257,5.177,10.87,0.26,39.243,7.283,-2.593,281.697,58.677,96369.083,44.363,87.517
新疆,伊犁哈萨克自治州,4.471,5.169,3.015,3.157,0.26,60.379,3.721,-0.635,268.145,85.631,80208.121,43.438,82.146
新疆,克孜勒苏柯尔克孜自治州,10.57,14.402,0.342,2.942,0.178,81.806,9.428,-7.314,264.75,46.898,69846.86,39.661,75.949
新疆,克拉玛依市,4.038,11.359,3.566,5.107,0.298,50.148,5.879,-5.467,281.382,55.175,97269.628,45.457,85.207
新疆,北屯市,0.788,5.402,4.222,9.494,0.396,47.984,5.75,-8.472,278.544,68.268,95309.986,47.27,87.868
新疆,博尔塔拉蒙古自治州,2.816,3.774,1.688,2.001,0.208,58.825,2.298,-1.582,272.196,77.566,86133.626,44.714,82.114
新疆,双河市,1.586,2.794,1.752,2.138,0.214,56.518,2.182,-4.68,279.072,63.04,98118.162,44.87,82.474
新疆,可克达拉市,3.534,3.75,5.078,4.878,0.34,55.482,9.078,0.812,274.262,84.118,95209.16,43.918,80.786
新疆,和田地区,144.625,152.544,1.184,0.738,0.161,77.318,9.528,0.045,275.847,33.934,73595.121,37.059,80.934
新疆,哈密市,69.331,105.933,7.676,2.804,0.283,56.223,-8.779,4.325,285.945,24.697,87800.713,43.042,93.517
新疆,喀什地区,50.869,63.507,1.438,6.719,0.188,80.563,11.747,-1.426,274.088,37.619,75709.805,38.125,77.178
新疆,图木舒克市,32.243,33.035,1.648,1.378,0.16,65.83,6.41,-1.347,284.135,29.33,88668.798,39.892,79.182
新疆,塔城地区,4.522,6.109,2.098,1.685,0.205,56.018,3.396,-3.735,275.621,71.761,89445.616,45.642,84.789
新疆,巴音郭楞蒙古自治州,113.266,117.126,2.577,0.612,0.151,71.03,1.515,1.043,281.596,25.869,78522.147,39.463,87.481
新疆,新星市,49.615,137.715,7.86,5.925,0.615,36.625,-14.405,5.615,291.085,17.2,91994.945,42.75,93.68
新疆,昆玉市,172.097,201.127,1.737,1.737,0.177,63.793,5.387,-4.76,283.193,25.94,86726.183,37.457,79.093
新疆,昌吉回族自治州,34.949,40.785,5.38,6.808,0.219,48.133,1.935,-0.072,280.012,53.103,89593.131,44.342,88.608
新疆,石河子市,9.25,18.145,6.48,11.025,0.27,45.38,6.855,-2.215,278.95,67.725,94615.14,44.245,86.035
新疆,胡杨河市,2.412,5.064,1.44,1.398,0.228,52.758,6.612,-1.03,280.268,65.114,97875.88,44.852,84.772
新疆,铁门关市,22.667,89.993,7.227,7.37,0.327,98.467,-9.957,-1.6,290.32,15.13,90704.007,41.773,85.66
新疆,阿克苏地区,84.79,91.875,2.236,1.473,0.163,68.909,1.126,-3.076,281.092,35.436,84527.087,40.965,81.578
新疆,阿勒泰地区,54.1,62.449,4.601,2.495,0.29,51.86,-0.935,0.15,278.724,51.251,88256.693,46.902,88.421
新疆,阿拉尔市,39.273,53.281,1.998,1.868,0.172,68.927,2.78,-3.312,285.399,31.512,89346.87,40.629,80.998
江苏,南京市,48.16,74.072,8.951,39.797,0.733,69.965,-0.57,-2.266,290.073,64.103,101793.808,31.899,118.876
江苏,南通市,48.035,63.64,15.866,21.915,0.558,94.316,1.388,-4.695,290.136,66.924,101866.678,32.201,120.979
江苏,宿迁市,68.106,92.926,9.819,31.727,0.69,73.568,-1.787,-2.908,289.261,58.094,101958.058,33.765,118.495
江苏,常州市,49.4,73.096,10.741,46.567,0.818,70.53,-0.083,-3.021,290.252,64.881,101825.237,31.613,119.666
江苏,徐州市,82.545,127.368,14.77,42.135,0.871,61.325,-2.25,-4.267,288.58,54.839,101757.979,34.363,117.513
江苏,扬州市,53.476,72.006,9.069,29.041,0.606,75.66,-0.116,-3.382,289.847,64.181,101943.993,32.709,119.486
江苏,无锡市,49.696,74.332,11.466,52.378,0.854,68.686,0.366,-3.456,290.288,65.195,101717.872,31.546,120.066
江苏,泰州市,53.275,70.792,11.23,28.127,0.624,79.746,0.496,-4.239,289.676,66.344,101887.014,32.605,120.048
江苏,淮安市,60.935,80.252,9.025,28.579,0.594,72.548,-1.042,-2.859,289.588,61.779,101926.705,33.362,118.985
江苏,盐城市,51.872,66.448,11.527,19.998,0.509,78.43,0.179,-4.674,289.157,66.404,101955.514,33.529,120.156
江苏,苏州市,47.63,69.494,11.644,52.486,0.751,78.996,0.782,-4.379,290.651,65.267,101845.895,31.374,120.661
江苏,连云港市,53.275,70.271,8.805,26.061,0.539,65.199,-2.224,-4.473,288.343,60.001,101870.448,34.519,119.133
江苏,镇江市,51.632,74.691,9.488,41.356,0.746,69.298,-0.026,-3.242,289.958,64.391,101813.984,32.016,119.49
江西,上饶市,25.278,41.233,13.41,12.445,0.606,68.741,-4.12,-3.238,290.067,67.697,99541.819,28.778,117.47
江西,九江市,32.116,51.537,10.943,13.932,0.601,75.689,-3.894,-3.811,290.244,67.906,99552.098,29.313,115.444
江西,南昌市,28.277,50.628,9.931,15.578,0.641,74.356,-3.389,-4.171,292.102,65.1,101388.237,28.671,116.016
江西,吉安市,28.585,44.952,13.782,13.713,0.731,54.154,-1.859,-4.452,290.325,76.578,99066.992,26.954,114.831
江西,宜春市,27.825,49.256,10.674,15.33,0.658,61.732,-3.394,-3.974,290.469,69.55,99467.929,28.29,114.974
江西,抚州市,25.648,40.381,13.257,9.486,0.555,68.276,-2.516,-3.977,290.253,75.419,99057.71,27.514,116.42
江西,新余市,27.736,49.628,13.03,20.632,0.755,52.157,-2.648,-4.304,290.978,69.831,100382.147,27.847,114.836
江西,景德镇市,24.708,41.155,12.16,9.75,0.57,64.337,-3.718,-3.287,290.66,63.55,100400.887,29.287,117.24
江西,萍乡市,25.39,43.769,10.788,17.126,0.719,49.416,-3.733,-2.751,289.801,75.216,98108.663,27.505,113.908
江西,赣州市,25.496,36.953,12.23,7.377,0.829,57.108,-1.241,-5.418,290.053,81.864,97330.83,25.692,115.279
江西,鹰潭市,25.908,40.309,15.417,13.011,0.609,69.132,-4.788,-2.629,290.469,69.879,100039.455,28.222,117.094
河北,保定市,53.191,73.979,9.289,36.566,0.816,39.663,-1.702,-2.146,283.592,45.845,98574.522,39.018,115.159
河北,唐山市,26.38,49.416,15.834,40.587,1.141,28.695,-2.256,-4.751,283.73,26.643,101841.402,39.731,118.354
河北,廊坊市,41.425,62.881,10.859,46.58,1.084,24.503,-2.074,-2.507,284.536,39.258,102410.59,39.267,116.632
河北,张家口市,9.456,12.739,3.638,9.01,0.315,57.154,-1.701,-2.666,277.421,33.113,88356.331,40.877,115.042
河北,承德市,7.541,13.04,3.534,10.343,0.309,52.732,-0.998,-4.861,277.326,31.962,91721.763,41.339,117.578
河北,沧州市,34.823,54.376,10.993,40.3,0.861,39.682,-2.79,-3.77,286.363,48.762,102360.167,38.258,116.744
河北,石家庄市,68.628,99.672,10.996,47.694,0.975,43.03,-1.239,-1.498,284.452,61.666,99094.283,38.135,114.407
河北,秦皇岛市,15.369,27.37,7.733,23.455,0.471,40.126,-1.46,-5.898,281.759,28.445,99503.529,40.12,119.193
河北,衡水市,49.183,73.274,9.317,43.656,0.952,39.945,-1.918,-3.939,286.001,59.408,102216.487,37.755,115.813
河北,邢台市,58.27,85.821,7.919,40.246,0.872,50.419,-1.094,-3.359,285.825,61.877,100699.814,37.195,114.815
河北,邯郸市,60.487,88.523,9.269,37.532,0.997,55.264,-1.598,-3.372,286.091,61.123,100191.032,36.538,114.596
河南,三门峡市,77.98,104.171,13.07,21.669,0.817,77.878,-4.545,3.888,285.017,65.935,92283.289,34.362,111.101
河南,信阳市,65.756,89.188,10.798,24.275,0.688,86.965,-2.094,-3.715,290.058,52.988,100785.802,32.091,114.907
河南,南阳市,63.792,92.776,9.426,26.765,0.814,91.998,-4.779,-2.287,289.02,54.815,98771.405,33.034,112.323
河南,周口市,81.169,109.006,10.392,31.541,0.932,82.561,-3.029,-5.439,289.218,56.599,101633.035,33.738,114.884
河南,商丘市,88.293,113.437,10.34,33.393,0.987,73.715,-2.492,-5.42,288.615,58.091,101715.774,34.277,115.718
河南,安阳市,67.175,93.302,11.995,36.505,1.179,63.512,-1.483,-4.257,286.392,59.182,99770.302,35.888,114.318
河南,平顶山市,76.136,104.656,14.438,35.056,0.949,85.858,-4.049,-2.763,288.346,53.332,99484.314,33.8,113.025
河南,开封市,66.83,88.237,10.977,31.926,0.935,79.338,-3.393,-5.438,288.37,57.016,101443.933,34.594,114.514
河南,新乡市,62.789,85.844,11.749,34.487,1.061,74.576,-3.8,-5.236,287.712,54.792,100551.666,35.256,114.111
河南,洛阳市,77.127,105.898,13.378,27.072,0.892,85.116,-4.33,0.707,285.631,62.29,94777.072,34.274,112.019
河南,济源市,78.635,126.51,14.186,39.575,1.234,69.9,-4.332,-0.168,285.856,54.889,96695.313,35.105,112.445
河南,漯河市,75.539,106.791,12.804,35.545,0.908,83.72,-3.848,-4.884,289.4,53.701,101497.587,33.652,113.945
河南,濮阳市,55.724,78.549,10.863,32.116,0.818,61.826,-2.422,-4.667,287.565,59.56,101792.101,35.809,115.283
河南,焦作市,65.091,98.759,10.696,39.174,1.137,73.206,-4.993,-1.399,288.331,49.392,100348.291,35.121,113.163
河南,许昌市,67.514,96.047,13.401,36.363,0.972,81.949,-4.243,-4.808,288.694,54.328,100848.307,34.075,113.707
河南,郑州市,62.137,90.819,11.234,37.933,1.042,75.274,-5.123,-3.242,287.576,55.741,99561.319,34.634,113.438
河南,驻马店市,76.618,105.136,9.3,31.866,0.811,84.308,-3.265,-4.639,289.8,52.782,101134.453,32.925,114.174
河南,鹤壁市,67.761,93.36,13.883,38.204,1.228,61.046,-1.761,-5.061,287.249,57.142,100948.978,35.716,114.319
浙江,丽水市,29.03,43.173,9.649,18.735,0.589,63.574,-2.556,-4.011,286.055,84.515,94751.653,28.194,119.51
浙江,台州市,25.456,37.951,9.07,24.101,0.546,67.679,-0.49,-6.72,289.128,76.899,98997.978,28.742,121.109
浙江,嘉兴市,39.658,63.908,9.48,55.731,0.807,65.253,0.315,-4.708,290.01,66.966,101840.108,30.635,120.754
浙江,宁波市,27.514,40.62,9.31,30.175,0.572,81.7,-0.512,-6.377,290.389,72.659,100534.511,29.706,121.49
浙江,杭州市,31.571,52.584,9.454,29.476,0.73,59.604,-1.888,-4.023,288.25,72.342,98948.212,29.891,119.464
浙江,温州市,25.292,38.338,9.109,26.972,0.588,54.188,-0.562,-5.974,288.335,78.111,97788.347,27.897,120.411
浙江,湖州市,39.452,64.831,10.49,44.201,0.761,65.786,0.29,-2.819,289.245,68.319,100600.696,30.757,119.871
浙江,绍兴市,33.408,50.528,8.449,44.334,0.831,59.636,-0.538,-4.943,288.875,75.104,99741.521,29.709,120.64
浙江,舟山市,25.115,34.238,10.77,6.605,0.408,96.818,-1.585,-7.708,291.903,66.845,101501.548,30.038,122.23
浙江,衢州市,26.086,42.142,11.09,19.893,0.61,66.056,-4.365,-3.262,288.381,72.819,98143.84,28.912,118.675
浙江,金华市,31.217,47.163,8.519,34.708,0.759,55.22,-1.927,-4.496,287.833,78.282,98395.34,29.109,119.967
海南,万宁市,18.798,28.638,6.908,4.741,0.33,66.491,-2.012,-2.78,297.804,91.104,99876.347,18.842,110.294
海南,三亚市,13.31,21.617,3.963,9.274,0.403,34.75,-3.164,-0.617,298.094,84.089,98644.25,18.413,109.407
海南,东方市,23.559,31.07,6.404,3.801,0.294,74.455,-0.545,0.461,298.806,81.902,99253.485,18.971,108.838
海南,临高县,19.666,34.036,6.853,7.301,0.524,51.339,-4.27,-0.874,297.713,89.696,100471.944,19.821,109.733
海南,乐东黎族自治县,15.503,21.45,2.635,4.613,0.259,56.826,-1.149,0.237,297.689,84.502,97764.501,18.659,109.072
海南,五指山市,15.77,22.702,3.546,4.664,0.258,56.41,-2.46,0.314,295.642,89.104,94603.328,18.81,109.518
海南,儋州市,19.376,29.234,7.316,5.114,0.38,61.811,-4.236,-0.554,298.137,86.538,100108.552,19.568,109.399
海南,定安县,17.735,28.152,3.298,7.312,0.522,52.31,-2.777,-1.697,297.713,90.067,100170.043,19.47,110.28
海南,屯昌县,17.82,27.706,3.924,6.028,0.448,57.444,-2.38,-0.832,297.262,91.096,99392.368,19.342,110.076
海南,文昌市,17.003,28.234,5.747,5.556,0.495,50.885,-4.325,-3.103,298.36,89.085,100937.033,19.707,110.773
海南,昌江黎族自治县,22.558,30.657,7.263,4.319,0.313,67.818,-2.141,-0.297,297.836,85.003,98255.764,19.233,109.016
海南,海口市,15.268,26.952,4.198,7.607,0.57,45.595,-4.078,-2.266,297.973,89.603,100751.093,19.842,110.393
海南,澄迈县,17.646,29.389,4.283,8.07,0.541,49.567,-3.453,-1.257,297.646,89.927,100300.55,19.676,109.989
海南,琼中黎族苗族自治县,16.931,24.855,4.863,4.092,0.321,59.509,-2.394,-0.096,296.407,91.696,97220.624,19.087,109.847
海南,琼海市,18.013,28.577,5.34,5.5,0.425,62.098,-2.32,-2.165,298.155,89.927,100708.847,19.22,110.43
海南,白沙黎族自治县,17.114,23.958,5.299,3.821,0.292,60.879,-2.489,0.718,297.029,86.376,96923.954,19.2,109.388
海南,陵水黎族自治县,15.777,24.4,4.417,5.284,0.313,51.267,-2.429,-2.353,297.867,87.259,99200.191,18.581,109.913
湖北,仙桃市,31.117,56.502,8.292,29.335,0.713,65.164,-3.588,-2.654,291.782,60.973,101687.075,30.284,113.417
湖北,十堰市,41.671,63.939,12.257,13.407,0.636,83.334,-4.7,1.318,286.951,62.566,93779.986,32.462,110.476
湖北,咸宁市,30.026,49.489,8.296,15.752,0.668,65.459,-3.576,-1.897,290.474,67.5,99783.619,29.621,114.178
湖北,天门市,36.092,61.673,10.243,26.163,0.702,70.4,-4.324,-3.497,291.766,55.802,101661.566,30.633,113.053
湖北,孝感市,41.367,61.841,8.527,21.237,0.651,81.099,-3.743,-3.733,291.163,54.247,101090.62,31.116,113.869
湖北,宜昌市,36.403,55.526,11.317,18.615,0.657,65.886,-2.749,-1.206,287.276,67.86,94595.018,30.746,111.129
湖北,恩施土家族苗族自治州,31.95,50.066,13.0,8.135,0.563,54.131,-3.701,1.158,284.41,78.653,89978.433,30.195,109.552
湖北,武汉市,36.819,55.357,7.988,29.141,0.726,67.858,-3.173,-2.924,291.822,56.832,101592.991,30.606,114.349
湖北,潜江市,36.466,65.101,10.051,33.823,0.808,63.144,-4.068,-3.119,291.78,57.224,101651.646,30.33,112.77
湖北,神农架林区,31.228,45.488,11.988,4.858,0.436,86.008,-3.202,3.619,280.688,75.858,83374.786,31.592,110.49
湖北,荆州市,34.491,59.768,9.865,29.074,0.828,60.395,-2.61,-2.718,291.513,62.545,101408.347,30.01,112.512
湖北,荆门市,41.288,62.737,11.118,22.623,0.681,79.063,-3.498,-2.733,291.258,53.841,100667.066,31.059,112.616
湖北,襄阳市,50.963,73.856,10.816,22.176,0.732,83.923,-3.106,-0.828,289.223,57.707,97966.292,31.919,111.96
湖北,鄂州市,33.269,52.149,7.72,27.853,0.749,64.379,-2.523,-1.433,291.767,58.379,101627.72,30.337,114.794
湖北,随州市,53.35,74.57,9.911,21.997,0.648,86.91,-3.772,-3.142,290.209,53.006,100005.981,31.809,113.43
湖北,黄冈市,40.983,57.667,9.464,17.257,0.592,78.124,-3.902,-3.041,290.694,55.768,99891.908,30.702,115.358
湖北,黄石市,34.693,55.229,8.901,23.244,0.725,71.3,-3.221,-1.27,290.943,64.562,100632.568,29.925,115.034
湖南,娄底市,33.874,56.498,9.739,17.43,0.967,43.301,-1.931,-3.163,288.539,82.041,97565.16,27.715,111.632
湖南,岳阳市,31.684,49.717,9.185,13.461,0.683,60.659,-3.78,-2.602,291.184,67.17,100460.828,29.081,113.275
湖南,常德市,34.049,56.306,12.167,21.811,0.915,42.975,-1.69,-3.485,289.705,72.924,99702.932,29.271,111.524
湖南,张家界市,30.072,49.808,9.317,14.989,0.757,41.502,-3.832,-2.314,287.382,77.469,95760.73,29.379,110.526
湖南,怀化市,29.938,49.702,8.606,10.844,0.701,49.859,-2.992,-2.702,288.271,77.433,96641.222,27.535,110.071
湖南,株洲市,28.014,43.631,10.058,15.458,0.686,50.711,-2.82,-2.97,289.908,77.856,98223.99,27.109,113.513
湖南,永州市,38.454,52.97,9.615,15.467,0.704,48.344,-2.904,-4.151,288.829,83.153,96804.039,25.748,111.723
湖南,湘潭市,35.829,52.185,7.405,24.408,0.899,44.535,-0.668,-3.688,290.285,78.48,100547.04,27.744,112.619
湖南,湘西土家族苗族自治州,26.484,44.929,6.063,9.989,0.704,43.057,-3.697,-1.75,287.333,79.182,95668.287,28.708,109.718
湖南,益阳市,35.174,58.171,10.938,14.802,0.947,48.569,-1.5,-3.177,289.512,77.631,99167.851,28.525,111.919
湖南,衡阳市,33.191,47.063,8.342,20.515,0.789,42.289,-1.03,-4.224,290.254,80.481,100027.766,26.781,112.565
湖南,邵阳市,39.064,54.35,10.888,15.637,0.716,48.315,-3.159,-2.315,287.47,82.539,95307.159,26.893,110.881
湖南,郴州市,28.551,41.534,8.759,12.025,0.855,49.227,-1.692,-4.171,288.775,83.384,95942.174,25.769,113.109
湖南,长沙市,33.286,49.11,8.678,15.489,0.745,52.133,-2.41,-2.925,290.724,72.161,99950.243,28.235,113.159
甘肃,临夏回族自治州,24.323,31.392,5.753,8.967,0.586,62.962,-0.826,0.795,282.78,49.344,77304.137,35.617,103.291
甘肃,兰州市,25.702,40.434,9.11,16.82,0.585,54.952,-1.552,1.545,282.69,56.855,78931.304,36.359,103.633
甘肃,嘉峪关市,34.595,91.31,17.838,56.922,1.078,72.692,-6.998,1.66,281.14,50.155,81454.945,39.798,98.145
甘肃,天水市,32.542,53.08,13.685,8.4,0.442,53.028,-1.346,8.136,280.721,84.016,82755.358,34.645,105.739
甘肃,定西市,24.204,41.259,11.991,5.594,0.466,60.749,-2.069,5.713,279.799,73.455,77166.519,35.124,104.432
甘肃,平凉市,50.576,76.595,9.984,18.979,0.602,53.813,-1.655,6.995,281.508,77.688,84656.726,35.304,106.644
甘肃,庆阳市,48.529,76.069,11.348,19.106,0.683,65.214,-2.34,6.636,281.999,71.246,85987.887,36.149,107.596
甘肃,张掖市,19.977,30.875,7.198,6.747,0.294,80.157,-0.471,0.433,278.703,45.267,74497.706,38.94,99.855
甘肃,武威市,31.463,42.429,13.395,8.263,0.369,67.816,-2.441,-0.683,281.896,56.5,81265.16,38.163,103.073
甘肃,甘南藏族自治州,9.781,13.209,3.339,2.447,0.229,80.023,2.259,1.067,275.974,62.665,67621.323,34.331,102.768
甘肃,白银市,29.502,46.114,14.499,8.49,0.541,60.83,-2.531,7.034,282.046,71.305,81359.447,36.59,104.646
甘肃,酒泉市,43.294,49.383,8.062,2.975,0.221,71.954,-6.312,2.072,281.055,31.707,78816.209,40.236,96.062
甘肃,金昌市,32.761,53.128,9.209,11.836,0.413,73.111,-2.281,-0.401,280.633,64.124,80482.01,38.44,102.048
甘肃,陇南市,29.051,47.702,15.335,8.881,0.521,44.235,-1.517,5.39,280.037,92.941,82344.489,33.599,105.224
福建,三明市,15.086,27.051,10.976,8.21,0.507,51.892,-1.752,-3.516,288.347,86.224,95284.883,26.29,117.395
福建,南平市,18.144,30.642,13.703,9.689,0.533,61.496,-2.151,-3.156,288.162,78.824,96094.901,27.324,118.143
福建,厦门市,14.072,27.59,5.898,20.835,0.55,57.413,-4.098,-6.078,293.64,77.202,100329.962,24.642,118.11
福建,宁德市,19.488,30.824,10.087,13.115,0.501,59.38,-1.377,-4.929,287.476,82.236,95391.598,26.968,119.474
福建,泉州市,13.932,24.691,7.253,12.733,0.502,59.568,-2.251,-4.84,290.66,84.128,96614.112,25.201,118.249
福建,漳州市,14.914,28.034,7.184,15.273,0.586,48.047,-2.85,-4.142,292.656,84.448,98165.17,24.372,117.444
福建,福州市,14.401,24.467,7.246,12.646,0.488,63.993,-1.826,-5.825,289.801,80.532,97443.318,26.083,119.206
福建,莆田市,13.522,22.855,7.66,12.616,0.487,67.792,-2.435,-6.649,291.005,79.884,98151.548,25.445,118.864
福建,龙岩市,13.87,24.809,9.337,8.09,0.527,46.855,-1.473,-4.083,289.869,84.58,95205.062,25.256,116.739
西藏,山南市,19.014,21.788,1.379,1.588,0.181,92.719,4.333,0.952,278.348,59.724,66309.494,28.295,92.274
西藏,拉萨市,10.427,13.345,0.132,3.109,0.136,82.597,5.071,1.424,272.85,43.034,56707.498,30.043,91.093
西藏,日喀则市,6.598,7.623,0.28,0.537,0.125,87.515,9.229,1.215,270.574,34.169,55507.691,29.483,86.493
西藏,昌都市,3.3,4.255,0.122,0.972,0.12,81.914,4.062,1.704,272.674,46.461,59218.2,30.753,97.044
西藏,林芝市,11.392,12.135,0.76,1.356,0.142,85.643,0.76,1.27,276.523,68.46,66549.709,29.184,95.25
西藏,玉树藏族自治州,1.455,1.553,0.07,0.536,0.117,89.442,5.295,0.59,269.734,43.179,57394.243,34.196,94.317
西藏,那曲市,1.8,1.916,0.076,0.211,0.122,91.492,5.73,0.655,268.742,44.151,55534.283,32.709,89.262
西藏,阿里地区,2.133,2.364,0.264,0.333,0.135,96.728,11.151,2.296,265.816,39.369,54861.712,33.013,82.553
贵州,六盘水市,20.054,33.07,10.412,10.602,0.593,51.975,-2.139,3.009,284.736,93.089,83279.764,26.106,104.896
贵州,安顺市,26.33,37.134,8.826,5.646,0.384,65.514,-2.694,1.361,286.652,82.347,88390.457,25.986,105.978
贵州,毕节市,22.557,35.199,8.706,12.406,0.556,51.779,-2.07,2.654,285.071,85.57,83620.546,27.063,105.211
贵州,贵阳市,25.265,39.568,7.544,14.358,0.439,59.22,-3.126,1.438,285.809,78.444,88460.225,26.845,106.71
贵州,遵义市,32.669,44.206,14.39,7.856,0.466,55.864,-4.436,2.546,285.925,77.48,90687.171,28.167,107.102
贵州,铜仁市,22.806,43.603,12.401,6.901,0.584,52.363,-3.75,-0.694,286.559,78.057,93120.02,27.937,108.534
贵州,黔东南苗族侗族自治州,29.06,46.076,18.603,6.293,0.52,59.967,-2.99,-2.629,286.651,79.157,92968.448,26.495,108.574
贵州,黔南布依族苗族自治州,29.08,39.726,14.832,4.471,0.393,65.634,-3.195,-0.663,286.79,77.832,90639.11,26.0,107.265
贵州,黔西南布依族苗族自治州,21.512,32.717,11.212,3.488,0.413,63.284,-2.62,1.292,287.446,85.369,88759.532,25.256,105.467
辽宁,丹东市,14.131,23.552,7.117,10.984,0.378,47.822,-0.974,-7.561,279.85,46.696,99080.65,40.554,124.376
辽宁,大连市,14.676,29.813,9.121,15.987,0.395,52.584,-0.539,-7.526,282.47,32.065,101449.577,39.591,122.22
辽宁,抚顺市,23.96,37.18,7.327,17.609,0.52,38.587,-1.426,-4.765,277.718,50.028,97453.752,41.841,124.65
辽宁,朝阳市,15.038,31.414,6.822,17.321,0.531,42.951,0.594,-6.468,278.84,33.803,97214.04,41.545,120.053
辽宁,本溪市,20.448,32.818,7.804,15.395,0.474,41.642,-0.881,-6.119,277.517,52.245,96738.588,41.232,124.544
辽宁,沈阳市,21.875,40.043,8.1,20.535,0.496,35.746,-0.465,-5.713,280.158,35.177,101774.077,42.081,123.159
辽宁,盘锦市,18.277,38.525,9.613,21.566,0.532,39.886,-0.659,-6.483,281.079,28.644,102434.693,41.13,122.01
辽宁,营口市,24.19,49.587,13.147,27.524,0.581,38.216,-0.626,-6.172,279.842,35.412,100090.66,40.395,122.478
辽宁,葫芦岛市,14.997,30.183,7.903,19.478,0.469,42.318,0.15,-6.416,281.036,28.534,99940.662,40.66,120.215
辽宁,辽阳市,29.614,55.062,13.882,30.84,0.634,30.424,-0.503,-4.949,279.351,41.535,100314.627,41.153,123.261
辽宁,铁岭市,22.914,38.493,5.811,19.224,0.508,35.902,-0.98,-4.865,279.175,41.334,100173.512,42.653,124.158
辽宁,锦州市,16.013,31.68,7.198,18.937,0.54,41.446,0.333,-6.533,280.937,28.326,101641.259,41.502,121.659
辽宁,阜新市,12.774,22.788,4.805,12.177,0.457,45.79,0.707,-6.253,279.557,31.007,100169.453,42.289,121.968
辽宁,鞍山市,23.081,44.068,12.007,24.348,0.553,37.424,-0.052,-6.592,280.041,37.372,100349.705,40.731,123.007
重庆,重庆城区,40.044,55.527,13.405,19.22,0.682,42.808,-3.864,2.496,289.745,64.798,95198.171,29.824,107.125
重庆,重庆郊县,32.81,48.301,15.84,7.398,0.495,59.963,-4.036,1.86,286.344,70.334,91478.64,30.334,108.755
陕西,咸阳市,75.611,111.311,8.687,39.192,0.951,57.109,-4.663,2.073,286.46,56.387,91716.527,34.779,108.367
陕西,商洛市,59.094,88.821,14.016,17.304,0.737,70.658,-3.367,3.424,283.724,72.089,89789.261,33.64,109.889
陕西,安康市,40.983,59.153,13.888,9.504,0.543,75.732,-4.291,1.646,285.171,65.679,90249.065,32.735,108.932
陕西,宝鸡市,61.855,90.627,7.894,24.449,0.666,50.978,-2.307,4.282,282.778,72.74,86568.635,34.386,107.193
陕西,延安市,56.22,84.114,15.156,34.192,1.022,56.291,-2.8,5.675,282.927,64.709,87875.196,36.432,109.316
陕西,榆林市,47.109,75.311,18.643,33.167,0.919,53.818,-3.055,3.729,282.503,53.576,88246.356,38.041,109.581
陕西,汉中市,39.209,57.214,12.054,10.901,0.519,53.783,-3.291,1.526,283.96,77.248,89250.241,33.088,107.098
陕西,渭南市,76.965,113.689,11.238,31.088,1.007,67.648,-4.33,1.96,287.798,55.857,94153.744,34.919,109.855
陕西,西安市,63.939,101.086,10.027,27.934,0.87,61.124,-2.369,6.15,286.191,60.212,90786.977,34.12,108.77
陕西,铜川市,75.778,109.466,12.707,31.291,1.069,62.398,-4.762,2.727,284.407,63.926,89494.731,35.198,109.058
青海,保亭黎族苗族自治县,14.854,23.348,3.984,8.034,0.354,42.056,-2.44,-1.104,296.808,88.788,97077.132,18.566,109.618
青海,吐鲁番市,32.649,46.874,6.452,4.07,0.215,61.27,-3.016,-2.186,285.636,26.047,89563.62,42.386,89.851
青海,果洛藏族自治州,1.405,1.532,0.091,0.776,0.118,89.362,5.495,0.525,271.841,49.753,60045.36,34.127,99.404
青海,海东市,23.897,28.485,8.293,7.476,0.387,75.184,-0.695,0.597,279.529,46.832,72659.645,36.347,102.34
青海,海北藏族自治州,6.875,8.177,2.176,1.961,0.156,88.885,1.903,0.318,273.236,43.105,65281.676,37.775,100.288
青海,海南藏族自治州,2.231,2.578,0.538,0.848,0.126,89.111,1.877,0.223,276.367,37.538,66443.747,35.89,100.272
青海,海西蒙古族藏族自治州,12.649,12.816,0.391,0.435,0.122,86.008,2.952,0.317,275.029,28.094,64428.985,36.677,94.519
青海,西宁市,19.213,29.023,7.497,10.889,0.506,75.032,0.971,0.136,277.079,43.373,69482.724,36.842,101.423
青海,黄南藏族自治州,2.999,3.295,0.653,1.008,0.132,88.286,2.524,0.529,275.479,49.103,65800.207,35.022,101.631
香港,香港特别行政区,17.31,27.64,7.47,27.17,0.705,25.42,-2.61,-6.27,296.28,73.04,100833.275,22.45,114.22
黑龙江,七台河市,9.412,20.788,3.383,8.839,0.293,44.693,5.583,-2.657,275.869,62.142,98743.893,45.87,130.943
黑龙江,伊春市,7.244,12.52,1.528,4.478,0.247,51.794,4.216,-3.679,274.304,57.701,97342.778,47.772,129.184
黑龙江,佳木斯市,8.488,14.61,2.051,5.373,0.292,52.124,4.685,-2.938,276.507,57.685,100635.748,47.207,132.11
黑龙江,双鸭山市,7.758,13.049,2.634,5.958,0.283,49.945,5.526,-2.729,276.328,59.305,100178.203,46.722,132.643
黑龙江,哈尔滨市,11.762,21.088,2.853,8.158,0.347,50.821,2.414,-2.632,276.497,57.154,99265.856,45.634,127.964
黑龙江,大兴安岭地区,1.547,2.011,1.35,1.537,0.186,49.949,4.74,-1.782,274.452,49.603,95626.213,52.286,124.212
黑龙江,大庆市,12.404,22.18,3.406,11.031,0.333,42.883,1.569,-3.645,277.808,45.009,100780.658,46.327,124.687
黑龙江,牡丹江市,9.634,15.604,2.449,4.837,0.274,51.931,3.751,-2.948,275.133,67.142,95951.854,44.592,129.883
黑龙江,绥化市,13.187,21.819,1.81,7.72,0.325,47.247,2.175,-3.689,276.639,50.772,99867.522,46.89,126.634
黑龙江,鸡西市,8.004,13.64,3.344,7.239,0.265,47.391,5.46,-3.187,276.965,60.678,99948.677,45.626,132.289
黑龙江,鹤岗市,5.946,11.088,1.675,4.419,0.288,55.559,5.198,-4.571,276.111,52.565,99707.539,47.661,130.778
黑龙江,黑河市,12.384,22.304,1.618,4.558,0.29,52.049,3.271,-2.964,274.886,53.029,97850.47,49.268,127.004
黑龙江,齐齐哈尔市,11.569,17.411,2.893,6.458,0.298,48.107,2.206,-2.944,277.073,45.167,99947.133,47.715,124.57
