province,city,PM2.5,PM10,SO2,NO2,CO,O3,U,V,TEMP,RH,PSFC,lat,lon
上海,上海市,17.764,32.765,6.174,34.586,0.45,67.817,-1.635,-4.742,289.701,62.156,102648.418,31.173,121.42
云南,临沧市,21.728,37.844,12.237,4.551,0.53,39.802,-0.777,3.138,288.023,94.608,84283.919,23.935,99.686
云南,丽江市,24.884,36.089,13.097,7.26,0.607,47.338,2.303,2.744,282.58,93.254,74918.899,26.96,100.515
云南,保山市,16.427,32.666,11.038,6.88,0.449,38.762,1.192,2.294,286.911,97.367,82217.107,24.953,98.962
云南,大理白族自治州,15.271,35.204,11.288,4.348,0.444,55.079,2.295,4.288,284.858,95.391,78433.759,25.726,100.053
云南,德宏傣族景颇族自治州,28.044,36.858,12.041,5.413,0.375,42.448,-0.143,1.062,289.31,95.987,86400.863,24.535,98.052
云南,怒江傈僳族自治州,16.079,20.751,4.748,1.574,0.219,52.334,3.024,1.983,281.557,96.73,73062.815,26.916,98.885
云南,文山壮族苗族自治州,29.601,40.763,12.045,4.613,0.441,66.591,-1.898,1.228,285.686,86.394,87098.255,23.696,104.735
云南,昆明市,22.626,37.739,10.641,13.506,0.734,37.254,1.208,5.065,284.174,95.394,79617.164,25.384,102.863
云南,昭通市,45.358,67.256,17.194,12.702,0.723,41.887,-0.676,0.771,284.727,89.714,84447.285,27.667,103.985
云南,普洱市,17.35,35.28,11.643,3.886,0.427,40.613,-1.942,3.105,288.487,92.719,86408.083,23.159,100.718
云南,曲靖市,27.346,44.398,12.872,11.328,0.681,54.031,-0.342,4.842,282.965,95.448,80432.598,25.737,103.929
云南,楚雄彝族自治州,19.61,38.476,12.587,4.462,0.509,53.298,1.532,5.093,285.857,93.927,81346.292,25.328,101.567
云南,玉溪市,19.34,35.26,11.068,6.083,0.468,53.305,-0.889,4.319,286.453,93.169,83923.984,24.136,102.217
云南,红河哈尼族彝族自治州,22.493,35.709,12.338,4.284,0.43,61.038,-2.458,2.567,286.378,91.701,85661.528,23.451,103.034
云南,西双版纳傣族自治州,15.05,30.945,10.16,5.854,0.441,31.337,-3.316,1.238,290.746,85.343,89406.669,21.939,100.912
云南,迪庆藏族自治州,13.247,14.775,3.068,1.374,0.204,53.788,4.501,1.576,277.461,93.078,67512.199,27.957,99.459
内蒙古,乌兰察布市,19.988,36.562,14.112,21.456,0.48,49.51,1.347,3.046,278.531,35.605,86585.045,41.691,112.44
内蒙古,乌海市,35.2,67.952,30.281,38.926,1.085,62.73,-3.424,0.15,283.738,37.402,88048.051,39.396,106.856
内蒙古,兴安盟,3.097,6.619,2.035,4.615,0.213,52.308,5.711,0.307,282.548,47.013,95249.576,46.244,121.341
内蒙古,包头市,30.018,49.993,16.385,35.75,0.587,43.487,0.697,3.045,279.308,32.249,86511.319,41.549,110.276
内蒙古,呼伦贝尔市,2.639,4.528,2.745,2.224,0.198,47.36,5.014,2.413,280.148,64.279,93694.548,49.636,121.171
内蒙古,呼和浩特市,29.114,59.003,13.047,34.507,0.622,46.34,-0.508,2.036,279.317,37.748,86950.096,40.578,111.513
内蒙古,巴彦淖尔市,27.882,41.335,14.11,24.525,0.503,56.755,-1.723,1.929,281.147,29.243,87845.363,41.446,107.582
内蒙古,赤峰市,6.361,11.918,3.862,6.656,0.261,54.882,3.679,0.039,281.136,44.887,92611.896,43.226,118.892
内蒙古,通辽市,8.099,12.487,4.171,6.751,0.277,49.687,3.95,1.933,283.724,41.973,98560.064,43.814,121.591
内蒙古,鄂尔多斯市,29.395,49.121,17.61,21.961,0.568,61.132,-3.045,2.883,282.152,43.449,87483.948,39.407,108.63
内蒙古,锡林郭勒盟,5.466,7.047,5.147,3.35,0.21,57.862,2.896,2.657,278.985,46.323,89686.563,44.179,115.482
内蒙古,阿拉善盟,12.436,16.969,9.829,5.469,0.25,61.821,-4.105,0.878,283.249,27.985,87877.747,40.473,102.467
北京,北京市,27.95,52.073,4.662,36.279,0.457,42.552,0.997,0.24,284.803,34.958,98722.489,40.158,116.395
台湾,台湾省,8.459,12.713,4.0,9.184,0.21,75.804,-3.486,-5.033,292.825,78.13,93330.792,23.757,120.975
吉林,吉林市,14.837,25.951,7.927,17.486,0.49,40.827,2.995,4.028,279.913,57.152,97957.459,43.573,126.859
吉林,四平市,18.319,31.519,6.675,22.601,0.512,38.268,3.065,4.537,282.828,42.694,100187.607,43.472,124.386
吉林,延边朝鲜族自治州,14.136,20.246,7.121,10.546,0.326,44.403,6.23,0.19,277.908,65.737,94920.842,43.141,129.147
吉林,松原市,9.292,16.402,4.586,8.983,0.313,44.676,4.114,4.483,283.786,40.841,100395.676,44.785,124.496
吉林,白城市,6.657,11.328,3.569,6.448,0.243,46.528,4.166,2.86,284.473,41.892,100409.482,45.35,123.031
吉林,白山市,18.55,29.953,10.68,14.939,0.558,36.812,1.771,2.36,275.827,72.517,93165.58,42.063,127.256
吉林,辽源市,21.496,34.903,7.5,23.466,0.605,36.91,4.141,3.712,281.488,47.11,98379.78,42.836,125.32
吉林,通化市,19.515,33.418,9.491,16.777,0.681,34.595,1.916,2.444,279.487,55.615,96652.962,41.939,125.927
吉林,长春市,15.108,29.896,5.838,20.355,0.514,38.763,4.129,4.215,282.722,43.344,100031.515,44.268,125.611
四川,乐山市,70.858,96.905,11.298,20.608,0.776,30.093,-0.931,-2.062,285.391,89.89,89990.503,29.218,103.569
四川,内江市,60.397,95.624,8.374,32.512,0.933,17.249,-2.569,-1.366,289.945,64.018,97107.088,29.62,104.95
四川,凉山彝族自治州,32.001,42.467,14.474,8.874,0.602,40.405,1.714,3.036,281.195,91.187,74437.462,27.883,102.065
四川,南充市,51.819,78.55,8.468,28.68,0.749,23.745,-2.851,0.15,289.723,59.328,97230.854,31.19,106.199
四川,宜宾市,86.998,114.904,15.347,26.709,0.936,23.502,1.115,-2.305,289.1,76.353,95417.988,28.573,104.621
四川,巴中市,39.22,57.636,10.837,15.103,0.501,45.097,-2.384,1.911,287.42,62.049,93001.267,32.033,107.031
四川,广元市,41.268,63.147,14.007,18.902,0.593,23.889,-1.957,1.889,285.714,73.534,92077.884,32.261,105.788
四川,广安市,50.258,74.131,7.723,28.413,0.739,32.528,-2.858,2.577,291.012,48.578,97238.359,30.43,106.628
四川,德阳市,49.742,80.024,7.5,27.501,0.649,28.519,-1.153,-1.748,286.419,82.038,93624.686,31.13,104.436
四川,成都市,51.833,84.172,8.067,30.754,0.676,29.693,-1.354,-1.87,286.91,81.649,93753.864,30.64,103.929
四川,攀枝花市,42.971,62.119,37.949,26.651,1.312,23.82,-0.067,3.549,286.223,89.124,81795.381,26.791,101.734
四川,泸州市,44.545,62.951,17.222,21.941,0.57,40.845,-3.405,5.341,289.492,55.757,93824.168,28.424,105.675
四川,甘孜藏族自治州,6.947,7.712,1.151,1.092,0.133,70.177,3.871,2.87,273.263,77.727,61358.063,30.936,100.009
四川,眉山市,54.632,89.552,8.405,27.771,0.773,24.016,-1.187,-2.323,287.349,84.252,94190.54,29.912,103.766
四川,绵阳市,46.407,66.78,10.863,17.601,0.549,37.043,-0.907,0.547,283.491,84.369,88405.559,31.86,104.704
四川,自贡市,75.577,106.655,11.069,33.457,0.979,16.378,-2.027,-2.594,290.033,66.394,97056.228,29.307,104.659
四川,资阳市,46.754,85.853,7.476,28.243,0.818,21.537,-1.973,-0.738,289.86,64.511,97388.213,30.102,105.149
四川,达州市,40.611,57.221,11.168,21.358,0.498,55.174,-3.731,2.915,289.147,52.09,94608.631,31.335,107.636
四川,遂宁市,49.755,85.157,7.423,30.858,0.8,19.803,-2.588,-0.43,289.795,61.184,97648.601,30.642,105.457
四川,阿坝藏族羌族自治州,17.732,22.355,4.373,2.484,0.204,66.492,1.285,2.792,273.964,82.479,65668.38,32.406,102.61
四川,雅安市,43.205,59.13,9.518,9.678,0.455,55.119,-0.606,-0.487,279.982,93.392,80401.134,29.932,102.689
天津,天津市,45.063,75.502,10.661,58.506,0.798,42.695,0.981,2.498,286.333,30.343,102505.018,39.315,117.308
宁夏,中卫市,36.222,56.111,17.593,15.745,0.616,61.651,-0.467,3.806,283.59,58.431,83826.62,37.018,105.509
宁夏,吴忠市,36.754,52.6,18.387,9.937,0.498,66.839,-0.088,4.234,284.185,55.445,85419.096,37.454,106.577
宁夏,固原市,32.952,54.791,14.599,23.034,0.484,53.819,1.448,7.188,280.127,79.725,81325.758,35.905,106.183
宁夏,石嘴山市,36.964,72.511,35.928,39.595,1.101,63.424,-2.538,-1.964,283.357,37.682,87115.566,39.013,106.499
宁夏,银川市,34.802,59.197,22.271,22.232,0.752,69.549,-1.271,-0.93,284.675,40.742,87374.611,38.287,106.342
安徽,亳州市,41.983,83.911,15.166,31.759,0.523,95.954,-3.817,3.34,289.523,31.967,102401.387,33.44,116.162
安徽,六安市,38.221,64.697,11.639,21.95,0.498,97.624,-4.77,1.546,288.186,38.902,99869.611,31.617,116.209
安徽,合肥市,37.059,67.223,11.057,38.132,0.554,85.922,-4.899,0.123,289.349,38.817,102302.143,31.766,117.359
安徽,安庆市,41.99,62.052,12.445,19.619,0.548,96.194,-5.113,-2.7,288.384,44.285,100281.562,30.557,116.473
安徽,宣城市,31.652,47.484,9.802,26.471,0.527,76.855,-4.673,-1.044,287.693,54.152,100243.76,30.676,118.846
安徽,宿州市,46.166,84.727,13.46,34.384,0.532,88.478,-3.322,2.536,288.967,33.235,102393.302,33.844,117.23
安徽,池州市,31.206,46.236,11.373,15.788,0.484,85.177,-5.522,-1.467,288.435,47.666,100430.003,30.296,117.379
安徽,淮北市,45.408,86.911,15.18,37.646,0.532,91.742,-3.666,3.077,289.114,31.734,102426.578,33.722,116.747
安徽,淮南市,37.525,73.285,13.524,31.876,0.528,96.231,-4.836,1.65,289.951,34.807,102464.875,32.463,116.746
安徽,滁州市,34.321,59.086,10.673,28.933,0.444,88.149,-3.956,-0.122,288.885,34.383,102225.394,32.55,118.076
安徽,芜湖市,38.589,61.014,11.232,29.855,0.591,87.467,-4.716,-1.126,289.076,46.368,102466.482,31.167,118.162
安徽,蚌埠市,39.468,72.15,13.463,27.517,0.487,97.354,-4.144,1.672,289.125,33.168,102473.559,33.121,117.263
安徽,铜陵市,41.811,63.223,12.517,24.344,0.581,91.666,-5.296,-1.213,289.155,44.904,102296.178,30.883,117.531
安徽,阜阳市,41.27,83.852,15.323,28.457,0.538,98.852,-3.955,3.171,289.819,35.173,102361.661,32.937,115.723
安徽,马鞍山市,37.149,63.714,10.469,38.169,0.58,82.996,-4.276,-1.224,288.941,41.547,102489.121,31.622,118.386
安徽,黄山市,25.75,42.583,11.673,16.333,0.487,72.53,-5.736,-1.577,286.772,56.635,98179.856,29.869,118.09
山东,东营市,37.219,69.946,15.91,43.386,0.75,63.882,-0.364,2.013,286.738,32.405,102694.492,37.57,118.572
山东,临沂市,51.235,105.345,16.307,44.611,0.7,72.241,-1.04,0.51,286.781,32.938,100939.351,35.289,118.27
山东,威海市,14.308,30.702,7.148,19.096,0.505,58.719,1.331,-0.806,286.636,54.674,102071.273,37.148,122.028
山东,德州市,47.789,102.901,13.963,54.811,0.669,60.335,-0.738,3.718,287.762,30.239,102497.582,37.233,116.679
山东,日照市,41.297,85.237,12.151,43.529,0.64,67.895,-0.048,0.009,286.772,34.349,101051.906,35.566,119.108
山东,枣庄市,55.329,119.34,18.962,48.794,0.633,76.619,-2.762,2.086,287.996,34.024,101657.437,34.925,117.383
山东,泰安市,49.769,108.822,19.548,49.872,0.826,61.901,-2.1,2.26,287.11,33.56,100783.566,35.993,117.04
山东,济南市,48.058,107.858,17.69,56.505,0.823,57.629,-0.624,3.065,287.522,30.391,100738.72,36.639,117.254
山东,济宁市,49.548,107.663,19.864,47.55,0.704,74.657,-2.424,3.457,288.332,33.918,102066.057,35.375,116.697
山东,淄博市,52.466,107.378,25.195,53.058,1.038,60.796,0.259,1.658,286.703,30.044,100147.529,36.623,118.062
山东,滨州市,45.963,82.485,18.04,51.068,0.868,63.101,-0.573,2.183,287.201,28.186,102616.623,37.516,117.852
山东,潍坊市,41.405,82.921,14.061,44.752,0.702,61.565,-0.007,0.873,286.496,33.446,101621.779,36.53,119.092
山东,烟台市,23.907,45.41,7.832,28.603,0.629,53.478,1.085,0.384,286.124,51.311,101577.921,37.25,120.789
山东,聊城市,52.606,114.961,19.646,50.797,0.792,68.393,-1.579,4.983,288.312,32.829,102259.816,36.458,115.863
山东,菏泽市,50.679,108.469,17.345,43.405,0.689,85.926,-1.662,4.534,288.889,33.625,102172.965,35.134,115.69
山东,青岛市,29.086,58.45,9.211,36.713,0.574,58.954,0.459,-0.25,286.218,43.573,102193.021,36.46,120.172
山西,临汾市,44.744,86.885,24.873,41.021,0.884,68.28,-1.333,5.525,284.565,38.538,90746.169,36.227,111.398
山西,吕梁市,36.124,67.408,18.144,40.659,0.718,44.418,-1.856,3.925,282.126,43.584,88320.793,37.663,111.27
山西,大同市,26.72,54.916,13.485,24.168,0.674,47.018,1.111,2.157,279.429,40.919,87962.802,39.911,113.713
山西,太原市,37.586,77.644,11.516,50.767,0.716,29.775,-0.718,-0.044,280.074,47.731,88298.968,37.967,112.321
山西,忻州市,26.929,46.885,10.869,21.35,0.434,51.952,-0.245,2.954,279.137,49.871,86787.893,38.877,112.391
山西,晋中市,46.552,89.586,15.478,50.075,0.9,45.781,0.229,2.774,281.949,40.524,89238.203,37.328,112.997
山西,晋城市,49.487,99.619,14.749,41.442,0.996,78.91,-1.06,5.086,283.998,37.806,91251.344,35.625,112.752
山西,朔州市,31.784,72.482,18.56,27.282,0.623,45.185,0.464,3.41,279.333,46.001,87262.794,39.619,112.655
山西,运城市,45.187,84.812,18.55,32.778,0.725,81.673,-3.973,3.998,287.778,33.777,94909.784,35.205,111.071
山西,长治市,46.776,92.045,13.796,37.973,0.954,71.233,1.492,4.742,282.976,38.285,89545.976,36.48,112.915
山西,阳泉市,42.446,77.728,15.31,51.149,0.754,30.954,0.317,0.263,281.982,40.573,91159.852,38.031,113.512
广东,东莞市,32.294,43.759,8.791,23.868,0.696,65.071,-3.196,-3.726,295.193,64.077,101681.001,22.931,113.81
广东,中山市,36.077,52.282,8.781,32.18,0.75,73.527,-2.86,-4.261,295.172,67.569,101676.624,22.5,113.383
广东,云浮市,35.36,48.151,11.571,17.978,0.665,71.23,-3.295,-3.402,292.521,63.682,99715.542,22.776,111.818
广东,佛山市,34.373,52.169,9.737,37.247,0.768,65.109,-1.963,-4.528,294.349,60.349,101759.038,23.035,112.979
广东,广州市,30.782,40.491,9.28,20.963,0.605,67.722,-2.712,-4.041,294.192,62.804,100849.122,23.339,113.525
广东,惠州市,27.382,35.401,9.69,10.025,0.536,69.296,-3.522,-4.063,293.952,68.186,99850.803,23.244,114.485
广东,揭阳市,19.816,35.604,11.878,19.152,0.806,67.249,-5.215,-4.73,294.144,69.015,100450.704,23.323,116.123
广东,梅州市,19.01,29.909,10.479,13.907,0.676,63.16,-3.433,-3.316,292.656,70.634,98457.401,24.169,116.07
广东,汕头市,14.619,28.11,10.526,16.863,0.633,76.952,-6.384,-6.516,294.841,69.586,101566.22,23.339,116.614
广东,汕尾市,21.255,33.314,10.329,12.12,0.616,70.741,-5.443,-4.562,294.336,69.239,100157.146,23.024,115.527
广东,江门市,37.775,54.25,11.857,30.947,0.722,76.082,-2.93,-5.245,294.307,67.639,101113.882,22.289,112.676
广东,河源市,26.635,35.066,10.964,10.469,0.548,66.449,-2.484,-4.654,292.43,68.986,98658.792,24.021,114.969
广东,深圳市,28.712,43.487,7.676,22.194,0.681,65.828,-3.899,-3.799,295.091,69.664,101173.383,22.667,114.143
广东,清远市,29.357,37.512,10.58,11.817,0.491,72.715,-2.676,-4.456,291.355,56.398,98211.332,24.295,112.871
广东,湛江市,33.646,45.747,14.924,9.919,0.704,75.553,-4.314,-4.167,296.468,65.897,101463.552,21.091,110.163
广东,潮州市,13.932,26.034,9.114,12.892,0.613,74.601,-6.449,-5.899,293.623,68.512,99892.788,23.755,116.754
广东,珠海市,33.165,45.482,11.558,22.43,0.587,85.99,-3.985,-5.233,295.57,71.443,101726.463,22.095,113.317
广东,肇庆市,32.148,42.367,10.378,13.353,0.554,73.422,-3.61,-3.759,292.875,56.513,99830.972,23.505,112.199
广东,茂名市,33.58,45.264,14.176,11.173,0.668,68.609,-4.406,-4.423,294.184,63.415,99710.425,22.013,110.952
广东,阳江市,35.743,49.028,13.773,17.709,0.677,73.25,-3.102,-5.543,293.509,67.689,100266.51,22.042,111.786
广东,韶关市,26.858,34.04,11.076,10.877,0.582,73.129,-3.281,-3.933,290.385,61.941,97448.437,24.785,113.819
广西,北海市,38.326,55.31,14.129,10.309,0.914,76.151,-3.489,-5.141,295.879,55.987,101559.619,21.674,109.37
广西,南宁市,37.198,58.16,12.131,15.394,0.73,75.539,-2.891,-4.45,292.7,51.552,99841.124,23.051,108.469
广西,崇左市,36.303,55.603,12.734,10.993,0.595,72.999,-3.138,-4.444,292.45,57.391,98534.609,22.483,107.291
广西,来宾市,34.367,51.096,11.472,10.884,0.612,80.332,-2.907,-4.122,292.158,44.944,98672.619,23.859,109.417
广西,柳州市,30.588,44.891,12.461,9.185,0.522,82.812,-2.773,-3.514,291.099,42.95,98116.784,24.956,109.372
广西,桂林市,31.762,44.626,12.704,9.743,0.476,90.259,-4.207,-3.968,289.618,40.882,96489.626,25.353,110.513
广西,梧州市,34.685,48.846,12.007,11.789,0.706,69.315,-3.147,-3.625,292.629,49.16,99468.13,23.484,110.996
广西,河池市,30.956,44.102,11.464,6.671,0.477,60.59,-2.411,-2.407,289.385,53.685,95775.949,24.628,107.843
广西,玉林市,37.131,54.34,13.949,12.245,0.845,72.383,-4.055,-4.871,293.564,57.069,99825.122,22.452,110.164
广西,百色市,34.592,47.257,12.34,6.095,0.503,65.075,-2.005,-1.295,288.586,68.208,93670.383,23.981,106.292
广西,贵港市,37.536,56.383,11.66,10.936,0.736,77.856,-3.675,-3.926,293.058,45.779,100326.202,23.322,110.021
广西,贺州市,31.916,43.359,11.558,10.03,0.577,72.005,-2.846,-4.655,291.148,44.221,97667.629,24.364,111.394
广西,钦州市,39.815,60.63,12.36,12.921,0.914,76.451,-3.325,-5.506,294.326,53.717,100900.086,22.173,109.01
广西,防城港市,39.737,59.677,13.329,13.713,0.777,76.495,-2.84,-5.7,293.37,58.654,99313.156,21.88,108.002
新疆,乌鲁木齐市,20.434,31.46,2.492,14.249,0.263,61.172,-0.238,0.823,281.628,39.771,84450.509,43.746,87.818
新疆,五家渠市,24.953,40.563,4.46,21.617,0.377,50.16,-1.843,0.217,287.817,40.26,96666.303,44.363,87.517
新疆,伊犁哈萨克自治州,25.106,33.82,2.272,4.539,0.314,66.829,0.489,1.273,278.413,59.028,80551.738,43.438,82.146
新疆,克孜勒苏柯尔克孜自治州,14.476,20.622,0.543,3.154,0.168,75.593,3.744,-0.657,272.725,43.842,70611.528,39.661,75.949
新疆,克拉玛依市,20.568,39.098,3.986,9.747,0.346,53.704,-2.658,-2.399,288.219,38.776,97495.146,45.457,85.207
新疆,北屯市,15.174,19.216,11.302,5.99,0.8,48.718,-0.346,0.27,285.26,42.278,95708.054,47.27,87.868
新疆,博尔塔拉蒙古自治州,26.181,35.208,4.298,4.579,0.272,59.513,0.282,1.264,281.401,54.321,86354.761,44.714,82.114
新疆,双河市,27.686,41.222,7.348,7.564,0.286,44.934,-1.416,-1.1,288.246,39.892,97942.312,44.87,82.474
新疆,可克达拉市,40.602,74.02,6.214,15.24,0.812,47.17,-1.052,0.378,287.062,49.478,94897.946,43.918,80.786
新疆,和田地区,10.423,12.497,0.777,0.966,0.14,77.797,2.051,0.448,277.598,30.998,74105.114,37.059,80.934
新疆,哈密市,7.037,8.182,1.498,2.368,0.194,71.523,-0.618,-0.35,285.084,22.723,88452.333,43.042,93.517
新疆,喀什地区,18.675,27.258,1.354,5.151,0.197,69.918,3.296,0.226,277.954,34.724,76244.55,38.125,77.178
新疆,图木舒克市,29.382,32.092,2.817,2.363,0.17,57.72,-3.17,-0.785,286.662,31.225,89368.892,39.892,79.182
新疆,塔城地区,21.954,29.896,4.189,4.814,0.242,60.77,-0.652,0.959,283.557,47.364,89736.39,45.642,84.789
新疆,巴音郭楞蒙古自治州,6.957,7.979,1.002,0.58,0.14,73.855,-0.497,-0.232,280.305,28.981,79301.771,39.463,87.481
新疆,新星市,7.755,17.73,5.215,21.295,0.58,48.525,-1.39,-1.045,289.325,11.425,92799.03,42.75,93.68
新疆,昆玉市,38.487,50.23,2.197,4.17,0.197,56.997,3.067,-1.937,287.93,18.343,87057.817,37.457,79.093
新疆,昌吉回族自治州,17.447,22.855,2.318,6.548,0.208,65.788,-1.062,0.627,284.661,43.36,90060.438,44.342,88.608
新疆,石河子市,25.18,41.16,6.09,21.615,0.335,56.7,-1.985,1.315,288.07,39.07,94778.645,44.245,86.035
新疆,胡杨河市,25.002,49.372,4.944,12.472,0.42,56.122,-1.636,-1.296,288.21,42.304,97951.012,44.852,84.772
新疆,铁门关市,24.553,50.107,5.623,8.84,0.343,68.257,-1.107,-1.47,288.65,17.93,91805.437,41.773,85.66
新疆,阿克苏地区,24.588,34.314,2.166,4.543,0.222,64.623,-0.585,-0.506,283.938,30.894,85427.801,40.965,81.578
新疆,阿勒泰地区,15.293,16.752,3.869,1.691,0.289,62.804,-1.196,0.387,282.203,46.511,88725.382,46.902,88.421
新疆,阿拉尔市,30.865,56.31,2.116,11.065,0.343,56.433,-1.453,-1.638,287.607,26.766,90215.604,40.629,80.998
江苏,南京市,36.357,62.028,9.611,39.023,0.559,76.264,-3.58,-1.461,288.862,39.811,102552.115,31.899,118.876
江苏,南通市,24.902,35.765,10.2,18.535,0.412,78.931,-0.965,-3.35,289.086,56.536,102689.137,32.201,120.979
江苏,宿迁市,41.473,66.313,12.247,30.311,0.545,85.227,-2.752,0.366,288.972,34.671,102678.817,33.765,118.495
江苏,常州市,34.211,53.541,11.058,42.077,0.618,75.893,-3.433,-2.257,289.589,48.765,102595.392,31.613,119.666
江苏,徐州市,52.238,96.676,14.286,43.602,0.597,81.977,-2.539,2.163,288.43,34.828,102398.491,34.363,117.513
江苏,扬州市,35.363,56.205,10.149,28.539,0.551,79.551,-2.581,-1.284,288.787,40.303,102723.098,32.709,119.486
江苏,无锡市,29.438,49.348,11.589,43.491,0.623,72.431,-3.137,-2.794,289.531,52.311,102499.286,31.546,120.066
江苏,泰州市,36.522,56.656,11.803,29.052,0.592,78.387,-1.923,-2.444,288.679,47.408,102682.061,32.605,120.048
江苏,淮安市,34.256,56.326,10.971,25.754,0.512,83.344,-2.537,-0.468,288.76,36.171,102675.675,33.362,118.985
江苏,盐城市,31.587,49.691,12.25,23.768,0.511,80.652,-0.415,-2.018,288.611,46.184,102732.3,33.529,120.156
江苏,苏州市,23.599,40.452,9.348,39.232,0.496,74.251,-2.406,-4.05,289.728,57.336,102644.302,31.374,120.661
江苏,连云港市,43.89,72.981,12.513,35.556,0.595,76.544,-0.805,-0.416,287.914,36.981,102570.214,34.519,119.133
江苏,镇江市,38.992,62.069,10.41,39.821,0.622,74.978,-3.096,-2.202,288.852,44.439,102590.555,32.016,119.49
江西,上饶市,23.87,42.901,16.22,17.381,0.488,82.642,-6.153,-2.871,288.987,55.32,100159.463,28.778,117.47
江西,九江市,26.057,46.735,12.696,15.6,0.472,99.442,-5.828,-2.113,289.349,51.636,100140.095,29.313,115.444
江西,南昌市,23.696,48.513,13.928,21.061,0.496,91.984,-5.728,-3.172,290.997,51.137,101998.739,28.671,116.016
江西,吉安市,24.763,41.098,15.455,14.316,0.495,86.524,-3.188,-3.688,289.487,58.066,99581.31,26.954,114.831
江西,宜春市,24.759,48.344,15.343,20.006,0.517,85.568,-5.41,-3.133,289.292,55.668,100027.617,28.29,114.974
江西,抚州市,22.027,33.721,13.866,12.391,0.387,92.451,-3.925,-3.548,289.738,57.814,99609.206,27.514,116.42
江西,新余市,26.817,54.399,20.054,25.123,0.605,80.754,-4.581,-3.743,289.894,54.197,100936.792,27.847,114.836
江西,景德镇市,23.713,42.466,14.519,16.128,0.483,76.956,-5.866,-2.536,289.321,51.575,101043.456,29.287,117.24
江西,萍乡市,26.449,48.711,17.096,21.447,0.586,80.033,-6.521,-2.365,289.225,57.424,98592.669,27.505,113.908
江西,赣州市,22.581,31.318,11.817,8.728,0.575,84.652,-1.808,-4.313,289.609,65.469,97818.971,25.692,115.279
江西,鹰潭市,25.339,44.145,18.926,18.543,0.463,91.431,-6.196,-2.907,289.655,55.187,100628.215,28.222,117.094
河北,保定市,45.513,82.234,10.429,44.124,0.588,44.422,1.035,0.404,284.906,31.867,98701.762,39.018,115.159
河北,唐山市,35.976,66.993,15.142,52.538,0.756,42.416,1.979,1.345,285.396,35.336,101999.728,39.731,118.354
河北,廊坊市,52.315,90.62,11.249,56.816,0.756,40.514,0.778,2.042,286.287,29.618,102531.21,39.267,116.632
河北,张家口市,16.142,29.027,5.58,13.911,0.339,57.064,0.72,1.281,279.042,41.475,88441.631,40.877,115.042
河北,承德市,11.035,21.341,4.36,18.42,0.367,47.511,2.599,-0.18,280.301,45.644,91806.278,41.339,117.578
河北,沧州市,48.878,85.084,14.277,52.43,0.687,57.171,-0.064,2.887,287.172,28.594,102583.757,38.258,116.744
河北,石家庄市,51.923,99.523,13.535,59.157,0.803,30.44,0.258,-0.008,285.266,33.512,99241.607,38.135,114.407
河北,秦皇岛市,34.402,62.826,16.521,46.715,0.936,41.838,3.782,0.834,284.388,37.205,99669.118,40.12,119.193
河北,衡水市,54.161,105.396,14.9,53.66,0.665,56.341,-0.137,2.728,287.116,31.101,102423.776,37.755,115.813
河北,邢台市,62.717,128.257,20.856,60.493,0.889,47.064,-0.152,1.536,286.916,32.86,100884.941,37.195,114.815
河北,邯郸市,61.785,127.621,20.977,55.82,1.024,59.707,-0.133,3.1,287.592,33.13,100393.545,36.538,114.596
河南,三门峡市,44.768,73.432,16.98,24.73,0.555,76.71,-1.668,6.297,286.182,36.676,92540.623,34.362,111.101
河南,信阳市,33.293,62.37,13.412,20.459,0.436,96.102,-4.581,2.352,290.119,32.226,101332.805,32.091,114.907
河南,南阳市,36.75,71.665,11.611,28.367,0.603,91.795,-2.498,3.261,289.325,32.759,99143.69,33.034,112.323
河南,周口市,44.603,94.518,16.225,33.038,0.608,98.489,-2.442,4.552,289.955,32.328,102101.049,33.738,114.884
河南,商丘市,47.125,98.646,16.293,39.194,0.592,92.478,-2.333,4.25,289.363,32.372,102216.189,34.277,115.718
河南,安阳市,55.567,108.725,15.481,47.294,0.892,73.922,0.432,4.045,288.219,32.33,99991.554,35.888,114.318
河南,平顶山市,43.512,85.392,16.994,42.859,0.612,81.331,-1.329,3.939,289.417,31.288,99800.404,33.8,113.025
河南,开封市,53.961,101.301,17.121,41.893,0.638,90.053,-0.841,4.73,289.515,32.767,101810.601,34.594,114.514
河南,新乡市,51.784,101.256,15.459,49.538,0.756,79.474,-0.395,3.307,288.902,32.302,100842.057,35.256,114.111
河南,洛阳市,47.848,82.515,16.291,31.634,0.602,81.292,-1.023,4.588,287.13,34.46,95020.817,34.274,112.019
河南,济源市,53.173,108.198,16.859,49.385,1.024,65.195,-3.303,0.97,287.521,33.21,96931.56,35.105,112.445
河南,漯河市,40.674,86.228,15.878,35.409,0.556,92.584,-2.137,4.543,290.194,30.918,101894.122,33.652,113.945
河南,濮阳市,56.794,114.104,18.096,48.034,0.826,78.203,-1.408,4.953,288.687,33.83,102111.396,35.809,115.283
河南,焦作市,48.5,106.226,14.697,51.269,1.008,67.351,-2.112,0.639,289.474,30.787,100608.329,35.121,113.163
河南,许昌市,46.625,97.45,20.44,49.575,0.668,77.27,-1.591,3.893,289.611,31.593,101197.934,34.075,113.707
河南,郑州市,47.88,98.856,18.714,53.89,0.727,68.657,-1.254,4.187,289.13,31.803,99843.515,34.634,113.438
河南,驻马店市,35.621,72.573,13.139,25.83,0.469,97.005,-3.184,4.04,290.264,30.98,101601.273,32.925,114.174
河南,鹤壁市,54.891,108.494,15.503,50.83,0.884,71.922,0.24,2.844,288.549,32.178,101187.457,35.716,114.319
浙江,丽水市,17.95,27.365,8.724,14.023,0.373,72.391,-4.424,-2.952,285.389,73.259,95371.93,28.194,119.51
浙江,台州市,13.609,21.922,6.861,17.213,0.346,69.635,-2.61,-6.205,288.6,72.165,99711.277,28.742,121.109
浙江,嘉兴市,22.867,41.034,7.306,38.705,0.545,63.263,-2.592,-4.637,289.153,62.301,102618.608,30.635,120.754
浙江,宁波市,13.299,21.372,6.501,20.692,0.379,71.304,-2.564,-5.157,289.708,67.97,101290.604,29.706,121.49
浙江,杭州市,27.06,47.679,9.919,30.742,0.607,64.681,-4.066,-3.127,286.969,65.794,99651.049,29.891,119.464
浙江,温州市,14.944,24.245,8.783,17.853,0.338,67.6,-2.818,-6.212,287.818,72.348,98461.1,27.897,120.411
浙江,湖州市,26.97,42.981,8.665,38.617,0.533,69.359,-3.465,-2.328,288.653,58.305,101342.206,30.757,119.871
浙江,绍兴市,23.05,38.574,8.479,34.392,0.6,60.785,-2.816,-4.151,287.876,72.512,100473.537,29.709,120.64
浙江,舟山市,7.27,10.108,3.412,2.54,0.232,84.678,-3.98,-6.252,291.288,62.048,102295.278,30.038,122.23
浙江,衢州市,22.518,40.854,13.663,22.639,0.512,73.854,-6.282,-2.966,287.257,63.785,98788.751,28.912,118.675
浙江,金华市,22.867,38.988,9.633,29.634,0.555,63.868,-3.725,-3.856,286.846,72.176,99083.437,29.109,119.967
海南,万宁市,30.168,43.089,9.613,3.354,0.448,99.177,-4.407,-6.791,296.951,88.174,100289.242,18.842,110.294
海南,三亚市,32.533,43.803,7.843,4.539,0.624,101.167,-6.716,-5.034,298.054,71.883,98985.181,18.413,109.407
海南,东方市,40.361,48.828,15.235,3.476,0.456,100.094,-5.334,-3.819,298.0,73.188,99655.63,18.971,108.838
海南,临高县,33.126,48.239,11.047,6.0,0.614,94.711,-5.587,-3.67,297.029,83.71,100945.849,19.821,109.733
海南,乐东黎族自治县,37.11,46.088,12.031,3.289,0.499,99.567,-5.166,-3.986,297.291,74.209,98119.102,18.659,109.072
海南,五指山市,38.124,48.384,12.406,3.54,0.5,98.05,-6.112,-5.152,294.36,86.35,94952.944,18.81,109.518
海南,儋州市,38.654,53.092,14.036,5.536,0.557,94.051,-5.523,-3.021,296.849,84.024,100584.735,19.568,109.399
海南,定安县,29.445,45.002,6.818,6.13,0.675,91.847,-4.255,-4.343,296.852,85.235,100623.388,19.47,110.28
海南,屯昌县,32.928,48.394,9.118,6.25,0.644,91.536,-3.74,-3.908,296.164,87.888,99839.91,19.342,110.076
海南,文昌市,26.43,41.009,7.323,4.404,0.561,96.159,-6.03,-5.783,297.569,84.426,101392.066,19.707,110.773
海南,昌江黎族自治县,42.389,52.818,15.809,4.018,0.489,100.758,-6.796,-4.039,296.16,83.739,98681.99,19.233,109.016
海南,海口市,27.804,43.532,6.871,6.504,0.681,93.314,-5.611,-4.865,297.177,84.41,101217.371,19.842,110.393
海南,澄迈县,31.459,47.867,8.5,7.38,0.711,90.679,-4.891,-3.813,296.816,85.039,100766.81,19.676,109.989
海南,琼中黎族苗族自治县,38.189,52.085,11.768,4.941,0.555,92.179,-3.685,-3.961,294.773,92.102,97641.525,19.087,109.847
海南,琼海市,27.537,41.265,8.4,3.987,0.522,98.645,-4.218,-5.082,297.593,83.67,101148.005,19.22,110.43
海南,白沙黎族自治县,41.972,54.642,14.491,4.548,0.539,96.181,-5.235,-2.885,294.735,91.02,97355.51,19.2,109.388
海南,陵水黎族自治县,32.676,43.911,9.776,3.61,0.509,99.4,-5.07,-7.096,297.146,81.556,99578.617,18.581,109.913
湖北,仙桃市,30.779,57.108,13.166,27.518,0.593,94.894,-5.139,0.62,291.425,40.216,102243.145,30.284,113.417
湖北,十堰市,25.717,44.858,13.368,13.146,0.496,79.095,-2.845,2.26,287.589,40.732,94095.781,32.462,110.476
湖北,咸宁市,26.735,46.734,12.554,16.728,0.497,103.651,-6.105,0.098,289.848,47.032,100328.189,29.621,114.178
湖北,天门市,35.655,72.712,16.219,45.825,0.833,84.032,-4.424,0.893,291.175,38.149,102206.417,30.633,113.053
湖北,孝感市,33.113,62.962,10.857,34.445,0.643,94.634,-3.966,1.506,290.553,34.844,101641.616,31.116,113.869
湖北,宜昌市,27.136,49.271,13.124,21.731,0.563,82.926,-1.817,1.431,286.953,41.433,95040.128,30.746,111.129
湖北,恩施土家族苗族自治州,25.595,39.468,11.37,8.983,0.412,64.366,-3.468,2.428,284.526,49.707,90384.305,30.195,109.552
湖北,武汉市,32.496,58.506,12.094,32.147,0.641,102.119,-5.245,1.34,291.174,38.021,102174.517,30.606,114.349
湖北,潜江市,33.63,66.049,16.456,38.2,0.767,79.163,-4.678,0.493,291.339,38.096,102191.423,30.33,112.77
湖北,神农架林区,22.907,34.509,10.278,6.105,0.362,85.083,-0.39,5.332,280.813,51.742,83716.801,31.592,110.49
湖北,荆州市,29.12,55.309,14.771,26.908,0.675,84.585,-4.029,0.165,291.477,38.497,101936.106,30.01,112.512
湖北,荆门市,34.45,69.692,16.506,44.474,0.804,85.134,-3.138,1.989,290.724,35.642,101177.334,31.059,112.616
湖北,襄阳市,27.394,52.522,12.753,22.554,0.569,94.51,-1.673,4.833,289.227,34.444,98370.726,31.919,111.96
湖北,鄂州市,31.184,56.877,13.909,26.231,0.593,112.54,-5.717,0.957,290.957,38.126,102227.586,30.337,114.794
湖北,随州市,29.287,57.822,11.167,26.216,0.525,95.288,-3.163,3.019,289.796,33.292,100502.629,31.809,113.43
湖北,黄冈市,32.432,55.527,11.921,18.122,0.5,103.628,-5.625,-0.01,289.685,36.781,100492.277,30.702,115.358
湖北,黄石市,29.55,53.738,13.468,20.022,0.537,113.569,-6.493,-0.055,290.23,45.452,101222.087,29.925,115.034
湖南,娄底市,28.246,53.805,11.965,26.307,0.733,77.245,-3.179,-2.215,288.66,44.734,98042.425,27.715,111.632
湖南,岳阳市,25.665,44.948,12.123,18.213,0.524,83.49,-5.204,-0.661,290.598,45.397,100987.982,29.081,113.275
湖南,常德市,26.997,51.035,14.165,21.05,0.689,79.938,-2.06,-0.911,289.459,43.08,100203.772,29.271,111.524
湖南,张家界市,23.598,42.723,12.544,14.848,0.536,73.267,-3.501,-1.686,287.182,47.087,96223.643,29.379,110.526
湖南,怀化市,24.809,45.756,12.552,15.042,0.57,78.454,-3.587,-1.656,288.995,44.655,97087.012,27.535,110.071
湖南,株洲市,25.678,43.899,14.233,19.303,0.521,79.508,-5.434,-2.101,289.758,55.332,98687.754,27.109,113.513
湖南,永州市,31.837,46.149,12.978,15.179,0.491,80.556,-2.943,-3.924,289.119,45.055,97254.054,25.748,111.723
湖南,湘潭市,27.805,56.188,11.09,39.409,0.721,73.465,-2.85,-3.149,290.069,48.105,101048.955,27.744,112.619
湖南,湘西土家族苗族自治州,22.942,41.197,10.358,13.212,0.54,64.827,-4.082,-1.37,287.615,47.79,96109.094,28.708,109.718
湖南,益阳市,26.493,49.675,10.756,19.702,0.68,81.78,-2.941,-0.933,289.452,45.358,99667.136,28.525,111.919
湖南,衡阳市,30.746,50.929,14.011,25.177,0.602,77.349,-2.229,-4.017,290.472,46.795,100491.388,26.781,112.565
湖南,邵阳市,33.92,53.52,14.284,19.5,0.579,80.902,-3.961,-2.323,287.907,44.559,95760.223,26.893,110.881
湖南,郴州市,25.907,39.197,11.532,14.143,0.533,77.228,-2.032,-3.039,289.123,54.972,96378.558,25.769,113.109
湖南,长沙市,25.067,49.043,11.367,26.964,0.62,76.526,-4.427,-1.66,290.008,50.224,100466.533,28.235,113.159
甘肃,临夏回族自治州,26.066,42.482,5.647,12.352,0.577,67.918,-0.702,0.543,281.795,49.028,77662.347,35.617,103.291
甘肃,兰州市,29.399,51.718,11.62,21.134,0.563,61.482,-1.828,1.05,282.426,50.747,79305.793,36.359,103.633
甘肃,嘉峪关市,23.512,79.038,18.123,71.257,0.897,56.76,-3.352,0.783,281.915,25.978,81870.14,39.798,98.145
甘肃,天水市,32.521,54.535,15.846,13.284,0.405,56.942,-0.31,7.47,280.596,83.533,83075.523,34.645,105.739
甘肃,定西市,27.591,46.496,11.883,7.507,0.38,66.621,-1.951,4.261,279.749,71.194,77492.326,35.124,104.432
甘肃,平凉市,35.771,59.768,13.742,20.555,0.48,56.473,0.222,6.727,282.409,71.449,84948.024,35.304,106.644
甘肃,庆阳市,31.338,53.844,15.111,19.047,0.502,65.912,0.088,6.308,283.517,58.282,86237.713,36.149,107.596
甘肃,张掖市,15.822,24.17,5.622,7.402,0.249,78.06,-0.201,0.219,278.296,36.821,74845.719,38.94,99.855
甘肃,武威市,20.974,30.128,12.258,9.687,0.319,67.718,-2.773,-0.076,280.901,40.53,81665.878,38.163,103.073
甘肃,甘南藏族自治州,13.078,16.857,3.351,2.588,0.215,77.292,0.39,1.432,274.964,71.347,67848.983,34.331,102.768
甘肃,白银市,33.403,54.787,17.463,12.736,0.538,62.097,-2.491,4.972,282.091,66.59,81736.527,36.59,104.646
甘肃,酒泉市,9.215,12.794,3.746,3.746,0.178,73.502,-2.305,0.509,280.53,20.513,79300.701,40.236,96.062
甘肃,金昌市,23.471,42.324,13.944,14.796,0.394,74.671,-2.837,1.365,280.382,42.714,80862.786,38.44,102.048
甘肃,陇南市,33.043,52.836,15.665,12.139,0.448,51.939,-0.951,5.475,279.611,91.436,82654.347,33.599,105.224
福建,三明市,15.777,21.902,9.581,8.696,0.391,71.576,-4.311,-2.581,288.571,69.082,95803.347,26.29,117.395
福建,南平市,15.449,21.564,9.922,7.84,0.353,80.667,-3.879,-2.572,288.313,61.441,96652.567,27.324,118.143
福建,厦门市,12.895,29.105,9.248,15.798,0.435,78.025,-6.102,-9.453,292.99,70.502,100858.563,24.642,118.11
福建,宁德市,13.78,20.193,7.528,9.15,0.322,72.571,-3.848,-5.255,287.249,73.245,95991.684,26.968,119.474
福建,泉州市,12.657,24.41,7.577,10.679,0.387,80.053,-5.222,-6.623,290.034,76.426,97138.84,25.201,118.249
福建,漳州市,12.937,25.46,8.833,12.905,0.463,74.653,-5.272,-6.083,291.875,73.163,98685.023,24.372,117.444
福建,福州市,12.579,22.293,6.922,10.579,0.352,77.466,-4.801,-7.308,289.522,75.905,98018.23,26.083,119.206
福建,莆田市,12.295,23.513,7.166,10.298,0.361,82.901,-5.179,-9.148,290.634,76.955,98691.83,25.445,118.864
福建,龙岩市,14.508,22.382,9.886,9.428,0.433,72.715,-3.85,-2.999,290.092,71.616,95689.186,25.256,116.739
西藏,山南市,8.94,9.944,0.834,1.606,0.135,69.451,3.806,1.866,277.816,67.847,66449.083,28.295,92.274
西藏,拉萨市,8.135,10.56,0.149,2.524,0.132,85.351,9.7,2.565,273.97,29.9,56815.448,30.043,91.093
西藏,日喀则市,5.986,6.794,0.292,0.503,0.122,86.429,7.629,2.298,270.475,37.869,55605.308,29.483,86.493
西藏,昌都市,4.179,5.181,0.385,0.869,0.124,71.615,5.493,4.0,273.231,64.441,59311.141,30.753,97.044
西藏,林芝市,9.259,9.592,0.967,1.579,0.128,66.968,1.22,2.178,276.461,83.111,66699.707,29.184,95.25
西藏,玉树藏族自治州,1.874,2.1,0.129,0.341,0.12,84.379,3.718,1.566,269.69,67.245,57426.27,34.196,94.317
西藏,那曲市,3.053,3.154,0.167,0.188,0.127,89.752,6.622,0.16,269.111,51.392,55629.325,32.709,89.262
西藏,阿里地区,3.244,3.568,0.382,0.323,0.133,91.501,7.277,0.046,265.893,46.028,55029.207,33.013,82.553
贵州,六盘水市,25.683,44.636,8.531,12.453,0.619,59.732,-1.669,4.027,282.396,94.542,83688.957,26.106,104.896
贵州,安顺市,26.578,42.584,9.093,9.22,0.39,66.538,-2.201,1.899,283.958,77.286,88868.861,25.986,105.978
贵州,毕节市,31.275,50.698,11.184,17.427,0.549,55.062,-0.681,6.09,283.27,84.167,83983.88,27.063,105.211
贵州,贵阳市,29.086,57.056,8.629,30.199,0.494,54.798,-1.905,3.734,284.663,63.072,88893.484,26.845,106.71
贵州,遵义市,30.538,44.757,12.396,12.272,0.41,59.298,-4.58,4.174,286.138,53.263,91085.327,28.167,107.102
贵州,铜仁市,21.481,41.673,12.724,10.098,0.473,65.362,-4.075,0.424,287.027,49.302,93542.916,27.937,108.534
贵州,黔东南苗族侗族自治州,25.867,41.941,15.796,8.936,0.445,69.875,-3.041,-1.572,287.168,52.691,93407.311,26.495,108.574
贵州,黔南布依族苗族自治州,28.414,41.888,13.897,8.503,0.379,67.767,-2.244,-0.062,286.162,59.868,91094.312,26.0,107.265
贵州,黔西南布依族苗族自治州,23.562,38.132,10.513,5.302,0.449,67.793,-1.74,1.088,285.049,85.257,89245.895,25.256,105.467
辽宁,丹东市,22.627,33.814,9.575,16.044,0.622,40.776,1.18,0.574,282.163,54.24,99636.649,40.554,124.376
辽宁,大连市,17.217,30.86,7.609,18.838,0.469,55.038,2.078,2.658,285.8,51.878,101868.055,39.591,122.22
辽宁,抚顺市,23.658,36.248,8.938,19.346,0.65,37.649,2.048,2.988,281.312,48.595,97829.093,41.841,124.65
辽宁,朝阳市,24.157,44.402,10.425,23.152,0.693,44.387,2.93,1.292,283.502,38.172,97245.702,41.545,120.053
辽宁,本溪市,21.59,33.233,8.934,16.851,0.658,39.964,1.913,1.71,281.348,50.936,97199.402,41.232,124.544
辽宁,沈阳市,27.74,49.662,12.832,29.576,0.741,36.905,1.49,3.689,283.854,41.78,101935.615,42.081,123.159
辽宁,盘锦市,24.768,47.485,14.851,31.161,0.774,46.932,1.889,2.724,285.293,43.121,102592.654,41.13,122.01
辽宁,营口市,19.603,37.374,7.884,22.028,0.549,53.285,2.384,3.444,285.107,50.718,100420.635,40.395,122.478
辽宁,葫芦岛市,28.245,50.76,11.821,30.411,0.812,46.718,4.505,1.193,285.114,35.055,100043.47,40.66,120.215
辽宁,辽阳市,24.168,46.115,12.784,27.322,0.862,41.039,2.383,3.449,284.358,45.592,100617.588,41.153,123.261
辽宁,铁岭市,26.317,45.402,9.95,31.252,0.7,32.935,1.863,4.669,282.603,43.778,100366.789,42.653,124.158
辽宁,锦州市,28.986,51.473,13.141,28.495,0.75,44.128,1.807,2.155,285.032,37.203,101735.788,41.502,121.659
辽宁,阜新市,20.021,32.98,7.712,17.501,0.504,46.327,2.391,2.315,284.301,37.725,100214.689,42.289,121.968
辽宁,鞍山市,20.137,37.94,9.164,21.683,0.649,48.329,2.31,2.476,284.371,47.993,100696.804,40.731,123.007
重庆,重庆城区,40.76,57.426,11.723,21.931,0.562,44.807,-4.303,3.862,290.185,45.064,95581.331,29.824,107.125
重庆,重庆郊县,27.508,39.692,14.23,8.903,0.398,62.55,-4.322,2.666,286.444,49.422,91874.224,30.334,108.755
陕西,咸阳市,50.443,88.447,11.767,43.179,0.879,57.596,-3.065,1.98,287.225,44.449,91988.65,34.779,108.367
陕西,商洛市,40.82,68.24,15.692,22.551,0.597,63.067,-2.626,3.484,284.038,47.845,90089.385,33.64,109.889
陕西,安康市,29.83,48.068,14.261,12.006,0.462,61.826,-1.724,1.824,285.289,59.166,90587.27,32.735,108.932
陕西,宝鸡市,40.373,64.074,9.794,24.149,0.533,55.731,0.106,4.489,283.396,67.475,86865.22,34.386,107.193
陕西,延安市,33.28,62.886,19.61,38.04,0.849,56.201,-0.314,6.214,284.028,46.631,88087.634,36.432,109.316
陕西,榆林市,31.146,53.527,19.21,32.626,0.707,57.843,-1.284,5.24,283.144,47.466,88426.469,38.041,109.581
陕西,汉中市,34.016,50.932,12.235,12.903,0.448,47.907,-1.947,2.101,284.137,72.76,89596.892,33.088,107.098
陕西,渭南市,44.538,83.457,15.004,38.649,0.775,64.633,-2.169,2.301,288.534,37.18,94410.993,34.919,109.855
陕西,西安市,47.641,81.56,11.117,34.68,0.768,54.807,-0.32,5.475,286.904,51.442,91079.896,34.12,108.77
陕西,铜川市,41.399,75.296,13.514,37.229,0.843,63.054,-2.459,3.893,285.272,45.799,89742.03,35.198,109.058
青海,保亭黎族苗族自治县,33.792,44.426,9.466,4.27,0.576,100.056,-6.022,-5.882,296.334,79.46,97428.322,18.566,109.618
青海,吐鲁番市,10.069,16.036,2.133,3.421,0.198,75.209,-0.249,-0.45,286.529,22.549,90427.411,42.386,89.851
青海,果洛藏族自治州,2.911,3.078,0.179,0.696,0.114,79.697,2.136,2.395,270.471,80.273,60146.532,34.127,99.404
青海,海东市,23.043,28.586,8.144,7.76,0.349,76.633,-1.854,0.731,278.496,42.536,72986.273,36.347,102.34
青海,海北藏族自治州,10.347,11.911,2.609,2.299,0.162,87.555,-0.159,0.464,272.226,47.41,65553.109,37.775,100.288
青海,海南藏族自治州,6.056,6.584,0.839,1.109,0.135,85.527,-0.77,0.927,274.922,44.605,66671.444,35.89,100.272
青海,海西蒙古族藏族自治州,5.057,5.269,0.435,0.447,0.122,87.236,1.329,-0.378,273.534,33.011,64664.468,36.677,94.519
青海,西宁市,21.07,30.762,7.464,10.491,0.469,74.644,-1.286,0.757,275.906,41.306,69785.176,36.842,101.423
青海,黄南藏族自治州,5.996,6.426,0.865,1.132,0.135,86.268,-0.093,0.86,274.083,58.334,66017.015,35.022,101.631
香港,香港特别行政区,23.505,33.565,7.625,15.405,0.49,72.65,-5.675,-4.485,295.61,72.085,101342.23,22.45,114.22
黑龙江,七台河市,13.057,27.117,4.828,13.977,0.372,43.281,6.279,-0.727,280.569,57.445,98777.322,45.87,130.943
黑龙江,伊春市,10.748,19.263,3.925,6.532,0.267,47.989,3.544,1.34,279.992,58.772,97223.416,47.772,129.184
黑龙江,佳木斯市,11.25,20.637,3.21,7.367,0.341,50.127,3.621,-0.439,280.555,55.551,100646.476,47.207,132.11
黑龙江,双鸭山市,9.979,17.121,3.395,7.593,0.362,49.85,4.288,-0.652,280.059,54.611,100221.483,46.722,132.643
黑龙江,哈尔滨市,15.368,27.706,6.802,15.105,0.375,43.295,4.281,3.549,281.453,53.577,99243.54,45.634,127.964
黑龙江,大兴安岭地区,3.076,4.204,2.021,1.61,0.185,49.892,3.029,0.862,278.795,74.103,94974.423,52.286,124.212
黑龙江,大庆市,9.434,18.971,4.805,9.187,0.32,44.34,4.286,3.889,283.968,44.852,100447.304,46.327,124.687
黑龙江,牡丹江市,13.363,21.824,4.731,10.416,0.327,44.416,6.453,0.405,279.116,63.078,96124.747,44.592,129.883
黑龙江,绥化市,15.028,26.019,5.802,11.447,0.331,42.165,3.807,3.195,282.593,50.296,99611.194,46.89,126.634
黑龙江,鸡西市,9.562,15.574,3.842,9.488,0.291,48.204,5.331,-1.581,280.728,55.729,100013.958,45.626,132.289
黑龙江,鹤岗市,9.494,19.532,3.551,7.052,0.343,51.596,3.494,-0.707,280.801,54.853,99642.123,47.661,130.778
黑龙江,黑河市,11.219,20.545,3.198,4.79,0.287,45.651,3.205,3.107,280.706,63.828,97444.103,49.268,127.004
黑龙江,齐齐哈尔市,8.922,17.82,4.936,6.968,0.314,44.29,4.063,2.499,283.725,49.452,99477.24,47.715,124.57
