province,city,PM2.5,PM10,SO2,NO2,CO,O3,U,V,TEMP,RH,PSFC,lat,lon
上海,上海市,31.639,83.001,13.225,52.288,0.645,41.197,4.943,-5.625,288.348,24.283,102250.953,31.173,121.42
云南,临沧市,22.796,31.207,9.456,4.096,0.388,43.414,-1.148,2.077,289.902,85.526,84465.438,23.935,99.686
云南,丽江市,11.904,16.521,3.713,6.159,0.435,63.689,4.489,1.864,283.86,62.737,75180.039,26.96,100.515
云南,保山市,19.915,30.647,9.766,6.977,0.4,45.562,0.134,0.879,288.204,81.061,82445.497,24.953,98.962
云南,大理白族自治州,15.932,25.786,5.787,5.172,0.394,59.008,2.822,2.575,286.112,78.827,78683.801,25.726,100.053
云南,德宏傣族景颇族自治州,23.976,28.621,15.432,6.237,0.31,45.51,-1.568,0.148,291.069,79.339,86599.336,24.535,98.052
云南,怒江傈僳族自治州,10.659,15.515,1.498,1.967,0.221,65.952,2.697,1.771,281.401,75.969,73346.537,26.916,98.885
云南,文山壮族苗族自治州,27.486,42.195,14.936,4.867,0.482,51.393,-2.588,-0.736,287.279,92.537,87237.309,23.696,104.735
云南,昆明市,26.652,46.148,12.322,13.819,0.676,45.783,-0.411,4.363,284.988,93.325,79844.829,25.384,102.863
云南,昭通市,27.359,46.432,12.556,11.069,0.604,46.141,-0.448,0.641,285.461,83.771,84701.863,27.667,103.985
云南,普洱市,19.26,35.327,11.334,3.318,0.397,43.21,-2.095,2.447,290.563,90.649,86538.068,23.159,100.718
云南,曲靖市,27.921,47.389,13.0,10.581,0.663,52.388,0.302,4.289,284.318,91.639,80644.521,25.737,103.929
云南,楚雄彝族自治州,25.2,39.202,12.791,7.673,0.536,53.866,0.884,4.24,287.502,85.283,81568.036,25.328,101.567
云南,玉溪市,23.691,39.47,14.08,6.482,0.452,53.32,-2.868,3.5,287.989,91.562,84088.843,24.136,102.217
云南,红河哈尼族彝族自治州,23.634,37.465,16.158,4.387,0.448,54.376,-3.959,1.889,288.018,92.54,85796.716,23.451,103.034
云南,西双版纳傣族自治州,16.966,35.436,9.59,4.087,0.411,38.21,-3.46,1.038,292.434,89.345,89492.504,21.939,100.912
云南,迪庆藏族自治州,6.346,7.399,1.179,1.914,0.195,76.855,6.123,1.908,277.125,60.632,67771.142,27.957,99.459
内蒙古,乌兰察布市,4.193,7.237,1.829,2.651,0.254,59.723,8.15,-5.812,273.269,52.845,86296.256,41.691,112.44
内蒙古,乌海市,27.415,54.076,30.586,37.711,0.861,40.4,3.519,-2.323,279.929,23.515,88490.968,39.396,106.856
内蒙古,兴安盟,1.564,1.969,1.736,0.939,0.197,63.483,9.805,-9.46,271.115,53.834,93633.681,46.244,121.341
内蒙古,包头市,4.891,8.101,3.156,5.39,0.266,56.337,6.044,-5.362,274.856,47.529,86485.452,41.549,110.276
内蒙古,呼伦贝尔市,1.539,1.779,1.696,0.88,0.193,62.928,5.91,-8.923,267.43,72.347,92410.196,49.636,121.171
内蒙古,呼和浩特市,20.809,43.827,10.237,24.394,0.646,45.163,5.513,-4.437,275.159,46.868,86791.458,40.578,111.513
内蒙古,巴彦淖尔市,2.895,3.795,1.374,2.185,0.184,57.978,3.452,-2.944,277.218,33.373,88072.761,41.446,107.582
内蒙古,赤峰市,1.471,2.329,1.679,1.228,0.195,67.545,11.094,-7.926,272.432,51.569,91422.814,43.226,118.892
内蒙古,通辽市,2.067,3.513,2.292,1.525,0.196,62.968,10.73,-7.026,275.333,43.42,97074.439,43.814,121.591
内蒙古,鄂尔多斯市,13.507,23.174,13.304,18.862,0.423,49.204,4.663,-2.803,278.5,29.167,87735.019,39.407,108.63
内蒙古,锡林郭勒盟,1.53,2.105,1.266,0.558,0.186,64.504,8.902,-6.09,271.105,62.288,88941.475,44.179,115.482
内蒙古,阿拉善盟,3.363,4.437,1.501,1.898,0.174,72.001,1.983,-1.134,280.335,22.24,88405.825,40.473,102.467
北京,北京市,6.771,14.169,2.561,11.905,0.241,54.928,5.809,-4.66,281.789,26.424,97984.792,40.158,116.395
台湾,台湾省,33.236,38.15,12.077,13.818,0.306,66.614,-2.235,-6.063,291.726,70.57,93298.917,23.757,120.975
吉林,吉林市,5.96,12.267,4.722,5.117,0.27,51.728,9.267,2.349,273.502,58.591,95857.872,43.573,126.859
吉林,四平市,3.583,7.172,3.205,3.385,0.229,56.548,10.17,-1.88,275.914,40.81,98343.836,43.472,124.386
吉林,延边朝鲜族自治州,6.707,11.565,5.046,5.897,0.257,49.345,10.915,2.222,271.932,67.395,92726.296,43.141,129.147
吉林,松原市,3.654,5.941,2.942,2.973,0.236,54.901,9.635,-3.213,274.748,50.92,98463.872,44.785,124.496
吉林,白城市,2.478,3.346,2.254,1.716,0.212,59.424,8.76,-6.992,275.042,44.426,98674.126,45.35,123.031
吉林,白山市,6.852,13.771,6.962,6.816,0.374,52.625,8.827,2.96,270.176,72.17,91178.511,42.063,127.256
吉林,辽源市,4.642,9.943,3.874,4.66,0.25,55.214,10.645,0.354,274.481,46.636,96481.666,42.836,125.32
吉林,通化市,6.125,14.683,6.524,6.368,0.357,52.438,8.658,1.349,273.062,54.737,94809.296,41.939,125.927
吉林,长春市,5.154,10.52,3.179,3.985,0.269,51.752,9.877,-0.317,274.765,50.806,97997.908,44.268,125.611
四川,乐山市,38.184,62.913,9.855,22.463,0.672,25.711,-0.59,-1.265,285.953,74.037,90261.846,29.218,103.569
四川,内江市,52.795,87.935,6.254,33.256,0.965,18.321,-0.891,-1.289,289.212,82.72,97407.06,29.62,104.95
四川,凉山彝族自治州,17.03,24.141,8.317,6.883,0.476,62.487,4.06,3.531,282.465,65.855,74671.2,27.883,102.065
四川,南充市,47.256,74.959,6.862,23.082,0.742,27.557,-1.809,0.659,290.155,67.358,97476.016,31.19,106.199
四川,宜宾市,48.121,68.956,13.007,23.849,0.824,23.039,0.552,-1.91,289.021,76.057,95727.031,28.573,104.621
四川,巴中市,35.696,58.969,5.541,14.44,0.492,42.109,-1.222,0.105,288.016,50.559,93209.501,32.033,107.031
四川,广元市,31.541,54.084,7.686,15.259,0.463,39.656,-0.607,0.371,287.029,64.699,92317.53,32.261,105.788
四川,广安市,37.162,61.473,7.103,24.751,0.779,22.437,-2.141,0.443,289.927,70.894,97487.101,30.43,106.628
四川,德阳市,40.41,74.387,6.379,26.574,0.64,34.418,-1.453,-0.978,287.803,72.633,93870.299,31.13,104.436
四川,成都市,40.118,75.904,8.13,31.62,0.678,32.484,-1.088,-1.366,288.05,66.73,94006.707,30.64,103.929
四川,攀枝花市,29.119,44.438,22.44,25.231,1.121,49.033,1.337,3.592,288.361,67.246,82033.52,26.791,101.734
四川,泸州市,37.854,57.17,12.778,21.738,0.609,34.779,-1.85,0.856,289.379,72.608,94090.96,28.424,105.675
四川,甘孜藏族自治州,4.045,4.393,0.449,0.993,0.123,83.227,6.287,2.363,272.241,45.488,61571.239,30.936,100.009
四川,眉山市,38.715,73.404,8.224,28.385,0.753,25.372,-0.686,-0.864,288.098,69.545,94456.431,29.912,103.766
四川,绵阳市,31.366,50.261,5.683,12.74,0.435,50.136,-0.588,-0.087,284.527,75.637,88660.709,31.86,104.704
四川,自贡市,63.894,92.114,8.262,33.984,1.001,16.601,-0.763,-1.531,289.629,79.095,97371.916,29.307,104.659
四川,资阳市,41.579,79.426,5.972,29.354,0.854,22.883,-1.222,-0.582,289.164,83.809,97667.793,30.102,105.149
四川,达州市,38.884,60.018,7.034,19.98,0.559,43.773,-1.473,0.974,288.976,50.751,94811.351,31.335,107.636
四川,遂宁市,44.716,78.383,7.644,28.162,0.827,23.17,-1.847,0.076,289.741,81.384,97914.358,30.642,105.457
四川,阿坝藏族羌族自治州,8.788,10.842,1.461,2.506,0.161,74.092,2.169,0.768,273.064,64.978,65900.917,32.406,102.61
四川,雅安市,23.117,34.457,6.289,9.734,0.324,54.918,-0.727,-0.511,280.355,78.674,80648.354,29.932,102.689
天津,天津市,16.23,38.716,6.103,33.055,0.445,35.996,6.867,-2.026,283.377,22.232,101782.072,39.315,117.308
宁夏,中卫市,16.197,26.744,9.775,22.517,0.353,52.233,2.421,-1.045,280.577,26.333,84376.455,37.018,105.509
宁夏,吴忠市,16.14,24.906,9.528,19.905,0.323,52.353,3.487,-1.368,280.096,24.789,85918.903,37.454,106.577
宁夏,固原市,19.447,46.567,8.324,27.593,0.535,49.71,1.609,-0.618,279.716,31.963,81734.842,35.905,106.183
宁夏,石嘴山市,27.818,55.828,22.01,34.775,0.665,43.593,3.636,-1.919,280.473,22.077,87558.287,39.013,106.499
宁夏,银川市,26.434,52.182,16.344,39.497,0.583,38.745,2.786,-1.019,281.057,22.498,87878.789,38.287,106.342
安徽,亳州市,34.294,91.309,12.865,41.564,0.541,39.839,1.432,-1.362,287.075,18.121,102090.006,33.44,116.162
安徽,六安市,23.82,59.787,8.85,25.338,0.359,46.987,3.816,-2.256,287.169,22.478,99625.354,31.617,116.209
安徽,合肥市,27.725,80.962,9.482,42.735,0.438,40.85,2.626,-1.991,288.132,25.088,101977.228,31.766,117.359
安徽,安庆市,23.109,54.205,9.142,21.782,0.377,53.35,1.132,-2.567,288.763,23.337,100051.55,30.557,116.473
安徽,宣城市,25.966,65.953,11.647,33.872,0.523,49.102,1.987,-1.329,286.815,33.394,99947.057,30.676,118.846
安徽,宿州市,40.635,110.185,15.573,53.489,0.65,34.612,3.332,-1.739,286.557,18.076,101992.835,33.844,117.23
安徽,池州市,28.298,66.459,11.494,29.878,0.475,46.096,0.264,-1.794,287.783,29.226,100216.793,30.296,117.379
安徽,淮北市,40.279,111.004,16.837,55.275,0.648,34.052,2.566,-1.517,286.72,17.537,102063.692,33.722,116.747
安徽,淮南市,34.496,94.268,11.998,39.689,0.433,44.242,1.522,-1.737,288.184,23.804,102142.3,32.463,116.746
安徽,滁州市,32.155,80.89,11.028,39.134,0.413,44.103,1.697,-1.905,287.432,23.355,101833.344,32.55,118.076
安徽,芜湖市,27.888,80.868,12.342,45.701,0.561,40.917,2.07,-1.418,288.271,32.096,102148.64,31.167,118.162
安徽,蚌埠市,40.873,102.95,13.284,48.426,0.511,39.145,1.551,-1.726,287.022,18.448,102099.25,33.121,117.263
安徽,铜陵市,28.455,71.661,11.412,37.908,0.51,43.04,1.673,-2.354,288.681,27.251,102020.619,30.883,117.531
安徽,阜阳市,35.377,87.86,12.081,35.965,0.553,41.318,1.722,-2.173,287.599,18.892,102092.508,32.937,115.723
安徽,马鞍山市,28.089,87.921,12.116,48.05,0.574,37.474,1.393,-1.715,288.008,26.71,102133.198,31.622,118.386
安徽,黄山市,23.567,51.377,10.726,20.335,0.429,49.032,0.413,-2.757,286.775,29.404,97957.073,29.869,118.09
山东,东营市,19.006,49.02,12.699,29.668,0.493,44.928,7.734,-3.137,284.442,23.063,101943.304,37.57,118.572
山东,临沂市,26.892,90.8,16.789,43.779,0.586,34.719,5.852,-2.585,284.219,19.803,100361.655,35.289,118.27
山东,威海市,10.268,26.099,8.653,13.39,0.408,61.778,9.135,-3.86,283.846,40.951,101024.878,37.148,122.028
山东,德州市,20.789,69.371,9.763,35.533,0.462,36.252,4.318,-0.543,284.452,20.038,101958.13,37.233,116.679
山东,日照市,20.073,67.963,13.017,37.671,0.512,38.518,6.561,-3.145,283.808,19.965,100400.529,35.566,119.108
山东,枣庄市,37.016,113.492,22.498,46.914,0.64,31.837,4.728,-2.088,284.962,19.056,101179.968,34.925,117.383
山东,泰安市,25.774,90.784,15.014,43.665,0.571,32.428,4.459,-1.355,283.945,21.271,100263.528,35.993,117.04
山东,济南市,22.939,85.023,13.291,41.11,0.572,33.494,4.664,-0.618,283.424,20.596,100180.698,36.639,117.254
山东,济宁市,28.789,98.034,19.06,44.533,0.6,33.571,4.178,-1.12,285.163,20.218,101623.916,35.375,116.697
山东,淄博市,26.977,90.446,18.988,44.127,0.762,33.37,6.933,-2.088,282.935,20.954,99509.705,36.623,118.062
山东,滨州市,20.991,58.499,11.743,32.897,0.542,39.96,6.464,-1.963,284.148,20.238,101952.284,37.516,117.852
山东,潍坊市,23.017,72.07,15.958,41.124,0.668,36.217,7.982,-3.589,283.669,21.038,100899.031,36.53,119.092
山东,烟台市,12.339,30.273,7.681,17.676,0.4,59.224,8.963,-4.777,283.76,37.984,100620.707,37.25,120.789
山东,聊城市,25.361,81.248,13.114,40.214,0.601,34.968,4.009,-0.388,285.645,19.89,101828.036,36.458,115.863
山东,菏泽市,25.806,90.15,16.345,42.071,0.63,37.625,3.468,-0.102,286.344,18.434,101819.034,35.134,115.69
山东,青岛市,18.688,55.227,10.631,32.689,0.538,41.984,8.851,-3.693,283.942,27.064,101367.122,36.46,120.172
山西,临汾市,18.577,44.433,12.788,29.296,0.69,44.96,3.532,-2.846,280.77,25.929,90785.662,36.227,111.398
山西,吕梁市,18.281,37.971,14.268,23.086,0.541,43.274,4.767,-2.968,278.299,29.183,88316.665,37.663,111.27
山西,大同市,12.081,26.261,10.198,14.127,0.688,49.89,8.747,-6.751,275.648,44.872,87513.908,39.911,113.713
山西,太原市,14.251,34.689,11.95,24.014,0.413,47.22,7.628,-4.77,278.775,28.764,88064.581,37.967,112.321
山西,忻州市,14.13,27.481,12.65,23.026,0.387,45.927,7.665,-5.418,276.394,36.102,86514.838,38.877,112.391
山西,晋中市,18.791,49.348,14.735,29.954,0.631,41.643,7.285,-2.531,279.255,27.398,89006.125,37.328,112.997
山西,晋城市,14.344,41.433,10.958,22.668,0.577,52.736,5.331,-5.708,281.726,22.64,91083.86,35.625,112.752
山西,朔州市,18.337,42.151,15.324,27.956,0.598,41.514,8.013,-4.944,275.911,42.689,86988.535,39.619,112.655
山西,运城市,27.752,70.492,18.794,45.294,0.806,34.969,2.737,-1.632,284.173,22.736,95058.19,35.205,111.071
山西,长治市,15.786,44.321,12.457,27.085,0.594,44.851,6.359,-3.656,280.315,23.953,89348.728,36.48,112.915
山西,阳泉市,14.317,32.516,11.599,25.421,0.374,44.209,8.338,-3.883,280.519,26.809,90811.641,38.031,113.512
广东,东莞市,22.382,45.293,9.041,26.4,0.643,77.883,-4.806,-7.17,295.708,40.049,101704.663,22.931,113.81
广东,中山市,23.729,50.848,9.953,33.802,0.706,90.618,-4.6,-7.714,296.231,44.182,101688.863,22.5,113.383
广东,云浮市,26.188,43.805,10.876,17.803,0.63,73.366,-5.35,-5.179,294.43,49.801,99747.584,22.776,111.818
广东,佛山市,23.809,50.411,9.881,35.324,0.714,73.152,-4.249,-7.419,295.779,37.358,101785.847,23.035,112.979
广东,广州市,21.978,42.768,9.136,22.878,0.571,75.892,-4.537,-7.481,294.971,36.633,100876.003,23.339,113.525
广东,惠州市,22.216,41.708,10.103,11.747,0.525,82.823,-4.228,-8.37,294.166,45.81,99862.879,23.244,114.485
广东,揭阳市,27.65,51.068,13.193,16.272,0.867,86.363,-3.723,-6.299,295.138,61.158,100420.715,23.323,116.123
广东,梅州市,24.057,40.396,10.264,11.489,0.676,75.434,-1.288,-6.407,293.015,54.186,98455.85,24.169,116.07
广东,汕头市,24.152,45.903,12.699,16.195,0.795,91.583,-5.644,-6.489,295.734,62.698,101539.176,23.339,116.614
广东,汕尾市,26.25,46.968,12.864,10.601,0.7,89.501,-4.009,-6.565,295.409,60.2,100130.818,23.024,115.527
广东,江门市,26.262,51.34,12.635,31.845,0.698,89.618,-4.886,-7.991,296.0,43.599,101124.787,22.289,112.676
广东,河源市,22.155,41.852,11.353,10.811,0.508,78.451,-2.65,-8.631,292.407,44.692,98687.539,24.021,114.969
广东,深圳市,24.557,45.483,9.51,24.32,0.644,82.682,-4.633,-8.228,295.569,48.636,101180.331,22.667,114.143
广东,清远市,23.232,39.497,11.378,13.923,0.447,72.447,-4.033,-7.195,292.306,41.841,98267.119,24.295,112.871
广东,湛江市,27.13,42.161,14.818,9.947,0.729,81.115,-6.227,-4.767,298.1,62.126,101482.225,21.091,110.163
广东,潮州市,24.299,45.942,11.208,13.254,0.809,86.41,-4.154,-6.149,294.55,60.471,99867.786,23.755,116.754
广东,珠海市,29.027,51.047,15.562,27.138,0.623,99.95,-4.872,-8.068,296.445,52.183,101732.917,22.095,113.317
广东,肇庆市,24.75,40.552,9.983,14.908,0.497,71.873,-5.302,-5.801,294.399,44.239,99865.131,23.505,112.199
广东,茂名市,26.984,41.288,13.59,11.132,0.677,75.092,-7.04,-6.226,296.028,53.444,99726.366,22.013,110.952
广东,阳江市,27.161,45.152,14.064,17.052,0.666,85.118,-5.119,-7.854,295.528,48.283,100285.668,22.042,111.786
广东,韶关市,22.744,40.394,12.216,14.101,0.575,73.867,-3.808,-6.667,290.915,39.735,97511.981,24.785,113.819
广西,北海市,29.89,47.602,14.339,10.171,0.948,65.069,-5.154,-5.822,297.619,59.944,101576.424,21.674,109.37
广西,南宁市,26.223,44.475,10.158,13.929,0.702,60.337,-4.027,-5.514,294.579,53.374,99880.101,23.051,108.469
广西,崇左市,26.362,43.605,12.359,9.661,0.614,57.027,-3.983,-5.397,293.987,63.034,98587.901,22.483,107.291
广西,来宾市,28.192,45.598,10.964,10.819,0.566,65.257,-4.231,-5.427,293.703,46.276,98720.477,23.859,109.417
广西,柳州市,24.519,41.028,10.708,9.755,0.431,64.694,-4.053,-4.826,292.293,39.919,98191.469,24.956,109.372
广西,桂林市,25.365,43.655,12.518,11.316,0.369,71.235,-5.705,-5.329,290.699,39.07,96574.681,25.353,110.513
广西,梧州市,29.439,46.731,12.135,12.118,0.598,65.726,-4.873,-4.956,294.341,49.819,99506.116,23.484,110.996
广西,河池市,24.953,40.222,10.262,6.295,0.475,50.69,-4.015,-3.004,291.414,55.342,95858.124,24.628,107.843
广西,玉林市,28.97,47.33,13.636,10.648,0.763,69.219,-5.717,-5.684,295.517,57.618,99848.873,22.452,110.164
广西,百色市,31.366,47.292,13.365,5.594,0.473,53.026,-2.493,-1.807,290.989,72.583,93757.973,23.981,106.292
广西,贵港市,29.276,47.584,11.695,9.639,0.632,69.623,-5.562,-5.465,294.915,47.842,100355.689,23.322,110.021
广西,贺州市,28.09,44.498,13.073,10.957,0.414,67.429,-4.72,-6.946,292.314,45.739,97728.293,24.364,111.394
广西,钦州市,28.565,48.322,12.094,11.966,0.912,63.571,-4.579,-6.39,296.058,56.596,100925.369,22.173,109.01
广西,防城港市,28.998,47.49,12.347,12.342,0.821,59.514,-3.534,-6.683,294.78,62.76,99356.61,21.88,108.002
新疆,乌鲁木齐市,18.078,32.469,3.789,16.313,0.451,63.101,-1.82,3.455,278.836,27.691,84858.972,43.746,87.818
新疆,五家渠市,18.623,39.327,3.677,19.09,0.507,55.677,-0.583,-0.653,283.033,31.733,97216.227,44.363,87.517
新疆,伊犁哈萨克自治州,7.753,16.237,1.846,6.375,0.329,71.039,-0.344,1.661,279.325,33.463,80848.481,43.438,82.146
新疆,克孜勒苏柯尔克孜自治州,5.989,11.25,0.734,2.592,0.195,72.531,3.84,-1.493,273.951,46.908,71057.102,39.661,75.949
新疆,克拉玛依市,8.504,26.221,3.671,11.038,0.409,62.256,-2.412,-3.211,282.072,30.761,98126.759,45.457,85.207
新疆,北屯市,1.97,2.596,2.014,2.196,0.574,64.984,-4.98,3.852,281.686,35.164,96297.108,47.27,87.868
新疆,博尔塔拉蒙古自治州,12.319,31.513,5.642,7.792,0.348,58.63,0.371,1.185,278.551,36.494,86812.698,44.714,82.114
新疆,双河市,19.37,53.308,10.042,11.032,0.396,46.424,0.068,-0.738,281.802,32.7,98618.468,44.87,82.474
新疆,可克达拉市,31.746,71.686,6.724,28.46,0.996,41.91,-5.6,1.432,288.174,23.764,95114.748,43.918,80.786
新疆,和田地区,8.864,10.782,0.798,1.397,0.172,76.29,0.851,-0.204,275.692,31.176,74562.217,37.059,80.934
新疆,哈密市,4.773,6.498,1.412,1.839,0.212,79.593,-0.932,1.602,281.584,20.024,89111.227,43.042,93.517
新疆,喀什地区,21.422,29.454,1.806,4.344,0.249,65.73,1.326,-0.859,276.319,37.552,76756.373,38.125,77.178
新疆,图木舒克市,41.675,44.885,3.525,2.458,0.188,48.902,-3.11,-1.462,283.76,30.948,89969.328,39.892,79.182
新疆,塔城地区,6.849,14.038,3.627,5.529,0.289,70.789,-1.497,0.384,279.937,30.766,90185.183,45.642,84.789
新疆,巴音郭楞蒙古自治州,4.974,6.423,0.649,0.636,0.141,80.182,0.278,0.383,277.52,23.634,79832.52,39.463,87.481
新疆,新星市,17.045,33.495,7.1,15.58,0.835,51.84,-1.865,0.055,284.135,15.885,93596.35,42.75,93.68
新疆,昆玉市,31.08,41.163,3.043,5.94,0.367,49.333,1.34,-0.88,285.937,20.307,87628.85,37.457,79.093
新疆,昌吉回族自治州,14.869,21.837,2.372,7.492,0.278,66.88,-1.272,1.089,281.452,28.157,90493.816,44.342,88.608
新疆,石河子市,39.805,94.695,20.46,45.225,0.93,20.975,0.04,-0.42,282.09,29.215,95321.815,44.245,86.035
新疆,胡杨河市,8.056,22.126,2.766,8.062,0.376,60.47,-3.746,-1.976,281.614,35.182,98596.596,44.852,84.772
新疆,铁门关市,32.533,60.117,1.89,4.54,0.257,63.34,0.653,-1.777,284.87,21.533,92468.69,41.773,85.66
新疆,阿克苏地区,33.564,48.909,2.183,4.107,0.221,62.699,-0.662,-0.631,280.996,30.942,85989.707,40.965,81.578
新疆,阿勒泰地区,3.529,3.891,1.08,1.206,0.271,73.311,-5.358,2.918,279.597,30.586,89209.407,46.902,88.421
新疆,阿拉尔市,58.405,102.153,3.529,9.781,0.343,47.715,-2.281,-1.552,283.53,31.22,90854.404,40.629,80.998
江苏,南京市,31.069,90.576,11.315,50.872,0.621,37.182,1.751,-1.652,287.599,26.173,102171.788,31.899,118.876
江苏,南通市,30.141,68.03,13.988,30.825,0.479,48.616,5.518,-4.323,287.307,20.718,102229.844,32.201,120.979
江苏,宿迁市,35.172,95.078,14.773,42.599,0.582,37.799,4.419,-2.506,286.573,19.736,102203.987,33.765,118.495
江苏,常州市,34.539,89.543,14.118,54.972,0.721,38.788,2.685,-2.498,287.994,28.006,102216.755,31.613,119.666
江苏,徐州市,38.648,110.51,17.997,50.195,0.676,32.957,4.431,-1.908,285.864,19.062,101950.602,34.363,117.513
江苏,扬州市,30.039,75.17,11.837,38.63,0.466,43.684,3.66,-3.177,287.461,22.358,102274.031,32.709,119.486
江苏,无锡市,36.968,97.566,15.609,57.77,0.778,38.563,3.265,-3.351,288.167,28.448,102109.574,31.546,120.066
江苏,泰州市,34.282,82.557,13.511,39.73,0.52,42.257,4.162,-3.563,287.028,20.17,102223.955,32.605,120.048
江苏,淮安市,30.587,82.446,13.392,36.132,0.491,42.138,4.22,-2.704,286.91,20.543,102203.994,33.362,118.985
江苏,盐城市,27.948,69.699,14.887,31.212,0.453,44.524,6.119,-3.16,286.34,19.863,102200.865,33.529,120.156
江苏,苏州市,34.217,89.129,14.438,53.236,0.668,45.388,3.955,-4.79,288.704,27.47,102247.27,31.374,120.661
江苏,连云港市,27.506,86.004,17.035,40.427,0.544,36.711,6.15,-2.661,285.605,18.695,102005.228,34.519,119.133
江苏,镇江市,35.964,94.974,13.272,57.485,0.664,34.451,2.484,-2.201,287.431,25.549,102188.663,32.016,119.49
江西,上饶市,26.152,54.754,12.641,18.093,0.435,53.555,-0.828,-2.667,288.861,30.799,100053.565,28.778,117.47
江西,九江市,22.84,55.102,9.356,23.127,0.424,53.979,0.844,-3.741,289.08,29.639,100070.297,29.313,115.444
江西,南昌市,21.276,60.015,11.743,21.659,0.441,59.254,-0.562,-4.518,290.911,31.936,101941.24,28.671,116.016
江西,吉安市,27.908,57.441,16.812,18.764,0.557,61.654,-1.604,-4.852,289.592,37.789,99641.285,26.954,114.831
江西,宜春市,21.843,50.708,10.914,17.99,0.444,59.112,-1.093,-4.177,289.728,30.155,100021.51,28.29,114.974
江西,抚州市,25.954,50.638,12.009,15.197,0.391,62.071,-1.401,-4.507,289.151,41.989,99613.041,27.514,116.42
江西,新余市,26.19,62.095,17.677,25.773,0.625,55.701,-0.989,-3.393,289.981,32.953,100961.003,27.847,114.836
江西,景德镇市,25.115,56.653,12.474,19.741,0.435,48.549,-0.408,-3.404,288.896,27.287,100902.925,29.287,117.24
江西,萍乡市,25.089,54.564,13.131,21.402,0.561,56.93,-3.938,-3.243,289.918,29.382,98672.141,27.505,113.908
江西,赣州市,27.591,46.797,14.093,11.984,0.687,71.728,-1.511,-6.857,289.564,45.304,97874.883,25.692,115.279
江西,鹰潭市,26.772,54.488,12.313,17.731,0.391,58.499,-2.083,-2.821,289.442,35.698,100580.468,28.222,117.094
河北,保定市,14.364,29.189,6.877,21.51,0.323,43.165,5.029,-2.936,282.917,26.483,98101.139,39.018,115.159
河北,唐山市,16.643,32.419,8.651,25.533,0.373,42.359,7.547,-3.058,282.229,23.933,101136.903,39.731,118.354
河北,廊坊市,20.325,47.139,6.714,34.462,0.455,33.238,5.061,-0.816,283.469,22.387,101878.622,39.267,116.632
河北,张家口市,3.926,5.496,2.277,3.283,0.231,63.186,9.456,-8.167,274.025,45.274,87769.148,40.877,115.042
河北,承德市,2.85,3.684,1.798,2.969,0.199,67.815,8.226,-7.093,274.372,40.884,90816.158,41.339,117.578
河北,沧州市,21.754,49.833,8.189,34.13,0.462,35.222,4.6,-0.918,284.05,21.292,101976.838,38.258,116.744
河北,石家庄市,17.264,42.395,9.986,31.128,0.424,36.829,6.311,-3.588,285.699,21.753,98772.411,38.135,114.407
河北,秦皇岛市,11.172,18.411,6.264,15.524,0.378,52.19,7.711,-3.247,279.883,27.106,98681.51,40.12,119.193
河北,衡水市,22.207,58.969,9.491,35.508,0.456,33.09,4.451,-1.802,285.506,20.904,101909.496,37.755,115.813
河北,邢台市,20.955,58.013,11.599,36.545,0.556,35.037,4.406,-3.406,286.993,18.844,100466.359,37.195,114.815
河北,邯郸市,22.264,71.462,15.404,40.688,0.754,34.067,3.811,-1.606,286.756,18.733,100047.414,36.538,114.596
河南,三门峡市,22.512,48.501,9.126,29.732,0.451,41.668,2.955,-2.023,283.396,23.057,92653.142,34.362,111.101
河南,信阳市,23.928,55.755,10.458,24.534,0.398,47.539,2.678,-2.984,288.043,19.505,101177.854,32.091,114.907
河南,南阳市,21.383,42.504,9.395,26.567,0.427,50.812,1.647,-1.69,288.337,17.769,99115.213,33.034,112.323
河南,周口市,26.615,78.146,14.221,39.242,0.606,43.788,1.971,-1.344,287.551,17.972,101875.029,33.738,114.884
河南,商丘市,27.858,89.973,15.005,44.883,0.578,38.342,2.622,-0.569,286.751,17.847,101904.931,34.277,115.718
河南,安阳市,20.388,60.891,13.646,36.462,0.663,39.26,4.606,-2.883,287.636,16.996,99684.808,35.888,114.318
河南,平顶山市,22.459,48.634,15.342,34.303,0.504,46.671,4.459,-4.141,288.289,16.964,99714.891,33.8,113.025
河南,开封市,23.479,73.752,15.019,42.256,0.663,39.253,2.43,-0.232,287.51,18.088,101569.984,34.594,114.514
河南,新乡市,21.289,62.704,13.632,39.528,0.675,40.416,2.499,-0.174,287.642,17.635,100575.426,35.256,114.111
河南,洛阳市,20.378,44.261,11.903,27.224,0.46,45.774,5.447,-2.716,285.406,19.765,95023.167,34.274,112.019
河南,济源市,13.441,35.273,11.544,21.339,0.492,55.992,4.838,-3.735,286.745,17.617,96805.345,35.105,112.445
河南,漯河市,25.443,66.985,16.275,40.383,0.578,45.06,3.153,-2.036,288.614,17.205,101747.888,33.652,113.945
河南,濮阳市,25.943,86.351,16.802,41.082,0.737,36.318,3.009,-0.043,286.557,18.705,101753.933,35.809,115.283
河南,焦作市,15.564,46.938,12.829,32.886,0.608,50.258,4.854,-2.692,288.817,15.904,100413.538,35.121,113.163
河南,许昌市,24.174,66.013,17.37,43.291,0.654,41.983,3.952,-3.044,288.776,16.656,101036.689,34.075,113.707
河南,郑州市,22.556,65.68,18.084,46.018,0.709,39.842,6.149,-2.388,287.917,18.471,99680.4,34.634,113.438
河南,驻马店市,23.846,56.858,12.203,29.631,0.453,50.499,2.461,-3.416,288.336,17.639,101462.518,32.925,114.174
河南,鹤壁市,22.671,65.292,14.308,40.298,0.7,36.896,2.423,-1.546,288.194,16.799,100890.264,35.716,114.319
浙江,丽水市,24.485,43.936,10.195,19.888,0.425,59.35,-0.09,-4.374,285.4,36.685,95190.494,28.194,119.51
浙江,台州市,24.31,53.126,12.132,31.055,0.514,61.698,1.624,-6.53,287.882,33.836,99462.798,28.742,121.109
浙江,嘉兴市,32.646,79.44,12.728,55.311,0.653,43.259,2.666,-4.249,288.549,32.011,102268.815,30.635,120.754
浙江,宁波市,27.94,62.403,12.654,42.745,0.558,55.721,3.263,-6.573,288.918,33.331,100984.216,29.706,121.49
浙江,杭州市,23.058,53.534,10.341,27.881,0.517,51.769,1.362,-3.202,287.179,30.363,99363.713,29.891,119.464
浙江,温州市,23.215,47.898,11.395,24.776,0.447,66.416,1.058,-6.48,287.726,35.745,98254.621,27.897,120.411
浙江,湖州市,26.821,65.279,12.067,41.293,0.595,47.995,3.214,-2.581,287.456,32.755,101004.239,30.757,119.871
浙江,绍兴市,29.941,66.779,10.64,42.986,0.67,51.215,2.01,-3.995,287.36,34.237,100179.332,29.709,120.64
浙江,舟山市,18.328,40.16,13.618,28.825,0.442,60.902,5.32,-8.582,290.322,34.185,101955.835,30.038,122.23
浙江,衢州市,24.248,48.176,11.578,24.582,0.47,49.906,-0.911,-2.521,287.614,28.884,98605.869,28.912,118.675
浙江,金华市,26.387,55.342,10.898,34.135,0.57,53.8,0.501,-3.409,286.778,33.206,98837.315,29.109,119.967
海南,万宁市,33.553,48.872,11.906,4.617,0.453,93.811,-3.536,-6.283,297.372,86.221,100333.666,18.842,110.294
海南,三亚市,29.714,41.759,6.136,6.87,0.566,81.33,-5.554,-4.157,298.154,72.747,99054.937,18.413,109.407
海南,东方市,31.995,40.512,11.894,3.893,0.365,86.451,-5.155,-3.355,298.564,70.929,99709.315,18.971,108.838
海南,临高县,25.356,43.357,10.381,6.839,0.581,90.45,-5.576,-3.149,297.621,80.949,100979.877,19.821,109.733
海南,乐东黎族自治县,31.648,41.787,9.542,4.137,0.429,84.631,-4.572,-3.496,297.506,74.692,98184.296,18.659,109.072
海南,五指山市,31.658,43.134,10.45,3.89,0.434,87.288,-5.982,-4.952,294.87,83.42,95005.13,18.81,109.518
海南,儋州市,29.473,44.378,11.686,6.109,0.469,84.939,-5.589,-2.484,297.489,80.239,100618.146,19.568,109.399
海南,定安县,24.358,44.408,7.54,6.83,0.672,90.923,-3.84,-4.002,297.517,82.912,100656.152,19.47,110.28
海南,屯昌县,26.588,45.244,9.208,6.656,0.602,89.198,-3.246,-3.394,296.902,84.638,99873.562,19.342,110.076
海南,文昌市,26.256,45.497,9.122,5.26,0.622,87.621,-5.646,-5.518,298.231,80.339,101429.486,19.707,110.773
海南,昌江黎族自治县,31.869,41.884,11.908,4.362,0.38,87.953,-6.759,-3.896,297.008,78.382,98723.703,19.233,109.016
海南,海口市,21.935,41.927,7.481,6.908,0.688,91.962,-5.587,-4.463,297.976,79.964,101250.305,19.842,110.393
海南,澄迈县,23.367,43.349,8.47,7.901,0.674,89.771,-4.5,-3.353,297.449,82.227,100800.211,19.676,109.989
海南,琼中黎族苗族自治县,30.737,45.412,10.246,5.082,0.467,85.854,-3.678,-3.497,295.489,88.521,97682.593,19.087,109.847
海南,琼海市,28.197,46.205,10.472,5.11,0.55,94.662,-3.447,-4.572,297.99,82.803,101186.995,19.22,110.43
海南,白沙黎族自治县,30.612,42.631,11.014,4.431,0.416,86.998,-5.352,-2.495,295.564,85.905,97397.891,19.2,109.388
海南,陵水黎族自治县,31.664,44.39,9.307,4.827,0.479,86.85,-4.824,-6.439,297.56,80.046,99630.749,18.581,109.913
湖北,仙桃市,25.018,63.11,9.989,27.525,0.502,53.421,-0.711,-2.549,289.638,19.952,102260.08,30.284,113.417
湖北,十堰市,18.52,30.886,6.108,10.573,0.323,57.613,0.502,-0.463,286.803,24.512,94239.422,32.462,110.476
湖北,咸宁市,23.919,50.769,8.105,24.24,0.455,55.642,-0.579,-2.488,288.843,28.9,100336.461,29.621,114.178
湖北,天门市,24.615,61.363,10.838,27.39,0.554,54.578,-0.391,-2.311,290.057,17.922,102213.29,30.633,113.053
湖北,孝感市,22.554,51.42,8.632,22.616,0.422,53.981,0.71,-3.86,289.137,18.533,101582.907,31.116,113.869
湖北,宜昌市,24.633,47.172,9.203,20.482,0.421,56.43,0.127,0.322,287.599,30.071,95083.636,30.746,111.129
湖北,恩施土家族苗族自治州,27.672,45.156,10.144,10.507,0.357,39.836,0.305,2.018,285.519,53.282,90492.763,30.195,109.552
湖北,武汉市,21.945,53.658,8.936,33.45,0.485,47.682,0.275,-3.431,289.48,22.492,102123.154,30.606,114.349
湖北,潜江市,29.534,75.894,11.931,34.667,0.763,51.302,-0.633,-2.011,290.087,19.243,102226.718,30.33,112.77
湖北,神农架林区,16.586,20.902,3.083,2.907,0.195,75.558,1.608,-0.078,282.076,38.258,83815.715,31.592,110.49
湖北,荆州市,27.546,66.658,12.0,29.61,0.698,52.47,-0.885,-2.304,290.325,22.398,101989.651,30.01,112.512
湖北,荆门市,22.547,52.055,11.177,26.038,0.482,53.541,-0.283,-3.345,289.716,18.046,101184.768,31.059,112.616
湖北,襄阳市,21.733,44.791,8.56,21.614,0.404,55.152,0.762,-0.878,288.308,20.434,98411.734,31.919,111.96
湖北,鄂州市,24.199,58.799,10.124,37.784,0.533,44.759,1.026,-3.403,289.379,25.961,102161.051,30.337,114.794
湖北,随州市,21.113,43.548,8.615,20.565,0.391,52.411,1.092,-3.588,288.611,17.307,100441.641,31.809,113.43
湖北,黄冈市,22.825,53.271,8.901,22.227,0.419,51.163,1.27,-4.104,288.41,21.424,100356.585,30.702,115.358
湖北,黄石市,24.045,59.792,10.685,34.443,0.557,48.886,1.783,-3.14,289.052,31.416,101154.867,29.925,115.034
湖南,娄底市,26.199,58.115,11.901,22.164,0.676,59.867,-2.581,-3.258,289.564,34.282,98140.492,27.715,111.632
湖南,岳阳市,25.776,56.311,8.36,21.277,0.566,58.831,-2.401,-3.04,290.116,27.856,101050.423,29.081,113.275
湖南,常德市,24.456,57.772,12.456,21.543,0.655,56.326,-0.796,-1.907,289.575,30.242,100283.992,29.271,111.524
湖南,张家界市,22.148,46.905,10.091,15.267,0.419,47.168,-1.979,-0.76,287.983,35.208,96314.775,29.379,110.526
湖南,怀化市,23.523,47.929,11.272,14.726,0.459,51.951,-3.784,-2.189,289.809,32.631,97203.465,27.535,110.071
湖南,株洲市,25.505,52.24,12.347,21.775,0.503,58.804,-3.967,-3.475,290.152,32.667,98789.767,27.109,113.513
湖南,永州市,30.03,51.861,12.362,18.0,0.466,63.893,-3.691,-5.224,289.78,46.027,97355.744,25.748,111.723
湖南,湘潭市,24.563,68.683,10.199,39.645,0.713,62.02,-1.458,-4.311,290.422,35.98,101137.365,27.744,112.619
湖南,湘西土家族苗族自治州,22.56,44.633,9.237,13.68,0.414,41.683,-2.919,-0.591,288.589,37.234,96225.918,28.708,109.718
湖南,益阳市,26.073,58.794,11.035,18.506,0.71,65.006,-1.492,-2.274,289.538,35.648,99758.23,28.525,111.919
湖南,衡阳市,27.178,58.861,12.345,30.734,0.615,58.684,-2.032,-4.579,290.758,40.139,100604.839,26.781,112.565
湖南,邵阳市,28.745,53.288,13.607,18.26,0.498,58.846,-4.122,-2.773,288.847,35.663,95874.345,26.893,110.881
湖南,郴州市,23.6,43.525,11.163,16.6,0.552,62.198,-2.411,-5.349,289.626,41.54,96475.738,25.769,113.109
湖南,长沙市,24.159,59.641,9.636,26.685,0.605,61.155,-2.103,-4.236,290.451,29.6,100535.821,28.235,113.159
甘肃,临夏回族自治州,41.561,76.594,8.135,26.226,0.736,57.382,-0.08,-0.216,277.939,44.073,78212.69,35.617,103.291
甘肃,兰州市,26.804,55.698,9.923,26.954,0.586,58.564,-1.024,-0.904,279.236,33.608,79865.558,36.359,103.633
甘肃,嘉峪关市,16.958,52.882,14.902,30.862,0.568,58.337,3.025,-1.252,280.402,17.842,82504.817,39.798,98.145
甘肃,天水市,25.045,46.625,5.316,16.659,0.358,53.895,-0.102,1.5,280.784,50.628,83462.148,34.645,105.739
甘肃,定西市,25.4,49.771,4.425,15.476,0.402,60.767,-0.405,0.279,277.714,55.593,77971.628,35.124,104.432
甘肃,平凉市,23.114,46.688,5.196,23.558,0.442,50.966,0.237,0.553,280.823,37.166,85329.557,35.304,106.644
甘肃,庆阳市,14.115,24.406,6.228,15.138,0.315,61.486,2.076,-1.898,280.652,26.311,86611.137,36.149,107.596
甘肃,张掖市,5.699,11.361,3.151,5.929,0.24,78.761,2.16,-0.36,274.919,31.118,75390.816,38.94,99.855
甘肃,武威市,10.801,16.823,3.957,7.917,0.414,70.427,2.214,-1.521,279.023,27.865,82198.397,38.163,103.073
甘肃,甘南藏族自治州,11.398,14.503,1.67,3.385,0.207,75.459,-0.787,-0.526,271.759,79.944,68192.583,34.331,102.768
甘肃,白银市,18.174,34.018,8.818,21.171,0.376,59.725,0.57,-1.131,279.94,29.997,82283.182,36.59,104.646
甘肃,酒泉市,2.538,4.111,1.187,1.642,0.153,83.068,0.846,-0.28,277.472,20.525,79880.185,40.236,96.062
甘肃,金昌市,10.526,23.474,5.533,11.266,0.421,68.636,3.7,-2.285,279.525,25.664,81410.98,38.44,102.048
甘肃,陇南市,22.064,34.785,5.708,9.901,0.279,55.643,-0.014,1.423,280.738,68.38,82983.069,33.599,105.224
福建,三明市,24.392,36.162,9.382,10.916,0.53,63.555,-0.954,-4.94,288.313,55.635,95780.857,26.29,117.395
福建,南平市,21.047,34.293,9.368,11.065,0.421,61.94,-0.54,-4.689,288.131,40.793,96578.901,27.324,118.143
福建,厦门市,25.245,51.615,10.785,17.933,0.67,84.865,-5.23,-8.212,293.598,54.443,100830.047,24.642,118.11
福建,宁德市,20.805,35.207,9.645,11.699,0.42,77.186,-0.467,-5.583,288.05,40.604,95840.73,26.968,119.474
福建,泉州市,23.855,44.01,8.954,11.556,0.55,84.787,-2.461,-6.711,290.73,58.466,97091.862,25.201,118.249
福建,漳州市,23.19,43.263,10.667,12.578,0.641,83.861,-3.75,-5.767,292.736,60.643,98646.955,24.372,117.444
福建,福州市,23.11,44.222,8.709,13.378,0.543,91.009,-2.181,-5.653,290.099,51.743,97927.573,26.083,119.206
福建,莆田市,24.522,47.371,9.311,12.525,0.548,95.659,-3.156,-7.576,291.231,54.576,98643.306,25.445,118.864
福建,龙岩市,22.563,34.154,9.473,8.675,0.495,71.719,-1.706,-5.913,289.951,56.141,95693.659,25.256,116.739
西藏,山南市,6.414,7.385,0.443,1.48,0.13,89.982,3.816,2.824,275.924,40.475,66598.918,28.295,92.274
西藏,拉萨市,6.55,8.9,0.202,3.686,0.123,85.987,8.1,4.613,269.556,28.016,56867.992,30.043,91.093
西藏,日喀则市,3.546,4.278,0.376,0.583,0.125,92.387,5.919,2.781,265.858,39.854,55573.505,29.483,86.493
西藏,昌都市,3.287,4.514,0.185,1.238,0.128,84.47,6.011,4.735,270.068,46.902,59501.764,30.753,97.044
西藏,林芝市,4.8,5.099,0.4,1.291,0.132,89.644,0.523,2.264,274.888,54.889,66913.098,29.184,95.25
西藏,玉树藏族自治州,1.413,1.53,0.119,0.377,0.12,88.604,1.707,0.065,264.544,68.945,57665.289,34.196,94.317
西藏,那曲市,1.359,1.549,0.099,0.189,0.122,94.212,1.351,0.459,264.845,54.787,55704.336,32.709,89.262
西藏,阿里地区,0.8,0.974,0.109,0.72,0.128,98.647,1.743,-2.066,263.29,48.459,55102.892,33.013,82.553
贵州,六盘水市,30.917,51.724,9.577,13.113,0.644,54.949,-1.11,3.715,284.708,91.735,83872.497,26.106,104.896
贵州,安顺市,31.612,44.989,9.671,7.428,0.398,62.495,-2.376,2.334,287.835,77.971,88987.938,25.986,105.978
贵州,毕节市,30.697,50.819,11.377,15.087,0.579,50.958,-0.886,4.935,285.603,83.641,84184.993,27.063,105.211
贵州,贵阳市,28.82,50.18,8.381,22.273,0.517,50.693,-3.48,3.411,287.497,63.298,89033.204,26.845,106.71
贵州,遵义市,24.877,36.547,10.069,9.434,0.393,54.598,-4.051,3.552,286.957,53.219,91260.916,28.167,107.102
贵州,铜仁市,19.883,40.926,10.229,10.951,0.412,50.63,-3.74,0.986,288.039,36.637,93683.203,27.937,108.534
贵州,黔东南苗族侗族自治州,25.223,39.635,11.525,9.619,0.377,53.954,-3.822,-2.236,288.396,40.511,93537.801,26.495,108.574
贵州,黔南布依族苗族自治州,27.764,38.699,10.231,7.934,0.353,56.692,-3.95,-0.123,288.409,57.157,91219.367,26.0,107.265
贵州,黔西南布依族苗族自治州,28.11,42.295,11.36,4.905,0.443,64.381,-1.526,1.132,288.218,79.955,89370.024,25.256,105.467
辽宁,丹东市,7.265,18.987,6.296,8.571,0.352,54.774,7.742,-1.95,275.851,41.898,98100.462,40.554,124.376
辽宁,大连市,6.047,12.89,4.094,7.765,0.267,65.482,8.328,-4.771,280.589,37.748,100622.018,39.591,122.22
辽宁,抚顺市,5.638,18.214,6.007,7.848,0.282,52.874,9.303,-0.31,274.129,47.301,96119.786,41.841,124.65
辽宁,朝阳市,4.515,9.662,3.761,5.578,0.285,62.115,8.093,-7.085,277.102,33.432,96098.112,41.545,120.053
辽宁,本溪市,6.616,21.346,6.912,9.136,0.361,52.753,8.808,-1.556,273.772,47.825,95561.928,41.232,124.544
辽宁,沈阳市,4.327,15.022,3.558,5.812,0.267,56.635,8.913,-3.366,277.95,36.178,100428.529,42.081,123.159
辽宁,盘锦市,7.323,18.758,5.408,11.91,0.357,55.399,7.069,-4.259,279.607,29.545,101340.726,41.13,122.01
辽宁,营口市,6.915,19.283,5.743,10.565,0.337,60.256,7.793,-4.692,278.187,36.488,99114.169,40.395,122.478
辽宁,葫芦岛市,7.071,12.845,3.67,8.09,0.342,59.231,6.969,-4.551,279.69,25.839,98974.923,40.66,120.215
辽宁,辽阳市,8.679,32.686,7.844,13.249,0.514,49.006,8.327,-2.355,277.041,37.362,99192.189,41.153,123.261
辽宁,铁岭市,3.896,9.501,3.525,4.378,0.227,56.942,9.682,-1.544,276.228,41.466,98643.135,42.653,124.158
辽宁,锦州市,5.842,13.189,3.688,7.965,0.298,59.243,7.631,-5.513,279.167,30.785,100473.962,41.502,121.659
辽宁,阜新市,2.352,4.765,1.843,2.124,0.21,64.217,9.631,-6.155,277.3,36.441,98816.037,42.289,121.968
辽宁,鞍山市,8.472,25.91,6.689,11.668,0.435,53.3,7.927,-3.287,277.425,35.376,99319.55,40.731,123.007
重庆,重庆城区,36.164,52.534,10.325,20.348,0.598,34.176,-2.193,1.344,289.593,59.069,95803.94,29.824,107.125
重庆,重庆郊县,26.194,38.443,10.732,9.631,0.346,52.194,-1.166,1.566,287.244,46.732,92020.436,30.334,108.755
陕西,咸阳市,28.95,58.609,6.776,39.847,0.575,41.963,0.557,-1.743,284.096,25.817,92348.294,34.779,108.367
陕西,商洛市,18.2,29.6,3.207,14.623,0.3,50.777,1.935,-1.744,283.979,26.249,90204.672,33.64,109.889
陕西,安康市,21.521,33.13,4.762,8.842,0.319,53.114,-0.132,0.011,285.005,36.686,90775.262,32.735,108.932
陕西,宝鸡市,25.635,50.862,4.249,20.151,0.399,51.18,0.641,0.603,282.406,42.975,87196.831,34.386,107.193
陕西,延安市,15.853,27.805,11.246,21.582,0.526,48.576,3.071,-2.806,280.65,25.734,88338.133,36.432,109.316
陕西,榆林市,16.099,30.951,14.443,29.175,0.649,44.016,4.384,-3.298,279.66,27.512,88647.194,38.041,109.581
陕西,汉中市,27.021,43.919,5.944,12.069,0.388,49.21,-0.912,0.069,285.063,45.7,89823.873,33.088,107.098
陕西,渭南市,28.267,55.452,11.347,42.487,0.556,35.605,1.702,-0.9,285.049,22.695,94700.895,34.919,109.855
陕西,西安市,29.37,60.778,5.911,38.6,0.562,41.231,1.232,0.454,284.295,32.593,91414.789,34.12,108.77
陕西,铜川市,19.225,32.281,8.551,27.039,0.412,50.455,2.212,-1.903,283.059,22.734,89999.589,35.198,109.058
青海,保亭黎族苗族自治县,30.69,42.744,7.86,5.866,0.522,83.192,-5.506,-5.154,296.632,78.53,97485.926,18.566,109.618
青海,吐鲁番市,10.976,16.861,2.01,3.782,0.235,71.116,0.34,0.583,282.539,21.945,91105.424,42.386,89.851
青海,果洛藏族自治州,2.333,2.478,0.182,0.596,0.116,82.703,2.029,-0.478,267.587,71.601,60397.804,34.127,99.404
青海,海东市,25.339,35.175,12.068,14.904,0.491,65.974,-0.349,-0.034,275.376,37.816,73444.923,36.347,102.34
青海,海北藏族自治州,3.681,4.749,1.421,1.97,0.162,89.932,0.876,-0.937,268.544,47.422,65918.713,37.775,100.288
青海,海南藏族自治州,3.821,4.427,1.045,1.223,0.142,81.695,0.939,-0.957,271.282,47.676,67075.146,35.89,100.272
青海,海西蒙古族藏族自治州,1.315,1.472,0.338,0.446,0.126,88.423,1.092,-0.653,268.495,39.107,65091.461,36.677,94.519
青海,西宁市,17.796,31.359,7.649,13.673,0.597,71.581,0.848,-1.31,272.775,38.999,70200.684,36.842,101.423
青海,黄南藏族自治州,6.294,6.99,1.624,1.661,0.153,75.653,-0.407,-0.92,270.775,61.526,66366.951,35.022,101.631
香港,香港特别行政区,27.095,45.09,11.005,21.595,0.59,88.995,-4.7,-7.525,296.16,56.985,101339.18,22.45,114.22
黑龙江,七台河市,10.789,19.272,6.665,8.482,0.287,40.589,8.857,2.244,274.031,71.929,96368.66,45.87,130.943
黑龙江,伊春市,13.83,21.592,6.061,4.705,0.266,42.832,4.847,1.184,272.709,83.498,94731.407,47.772,129.184
黑龙江,佳木斯市,13.196,20.086,5.886,5.875,0.287,44.929,5.475,3.509,277.113,75.887,98051.556,47.207,132.11
黑龙江,双鸭山市,13.702,19.825,6.557,6.616,0.283,44.133,6.266,3.483,276.786,75.948,97679.14,46.722,132.643
黑龙江,哈尔滨市,8.812,13.595,5.791,7.352,0.344,43.843,7.68,3.125,272.626,77.152,96952.952,45.634,127.964
黑龙江,大兴安岭地区,0.94,1.049,1.212,0.692,0.192,65.584,4.475,-8.88,266.519,81.063,93670.231,52.286,124.212
黑龙江,大庆市,5.256,8.067,2.822,3.696,0.245,52.622,7.747,-5.166,272.978,66.477,98462.256,46.327,124.687
黑龙江,牡丹江市,8.906,13.274,4.754,5.765,0.249,45.785,9.593,2.778,272.542,68.317,93808.462,44.592,129.883
黑龙江,绥化市,9.859,15.347,4.575,5.374,0.313,44.375,5.881,-0.812,272.242,80.285,97363.041,46.89,126.634
黑龙江,鸡西市,12.751,17.403,6.486,7.296,0.269,42.968,8.355,1.948,276.568,68.426,97593.408,45.626,132.289
黑龙江,鹤岗市,16.906,25.756,7.84,6.782,0.319,38.705,5.963,0.94,276.24,71.972,97060.788,47.661,130.778
黑龙江,黑河市,17.487,22.999,4.471,3.989,0.283,48.806,4.13,-3.868,270.402,91.856,95237.426,49.268,127.004
黑龙江,齐齐哈尔市,6.833,9.106,2.662,2.76,0.233,56.233,5.843,-7.079,271.726,71.574,97549.905,47.715,124.57
