province,city,PM2.5,PM10,SO2,NO2,CO,O3,U,V,TEMP,RH,PSFC,lat,lon
上海,上海市,14.534,24.981,5.212,34.891,0.411,67.067,-3.218,-1.766,291.297,70.31,102214.29,31.173,121.42
云南,临沧市,25.849,36.136,7.645,4.158,0.374,41.775,2.4,1.639,290.701,80.178,84285.108,23.935,99.686
云南,丽江市,7.494,10.767,2.023,5.478,0.427,69.737,7.177,0.969,284.859,48.187,74936.243,26.96,100.515
云南,保山市,17.37,26.021,5.082,5.655,0.353,39.877,3.013,0.87,288.945,69.233,82257.412,24.953,98.962
云南,大理白族自治州,11.163,17.808,3.469,4.861,0.391,59.092,5.772,1.43,286.758,61.138,78475.274,25.726,100.053
云南,德宏傣族景颇族自治州,21.603,29.175,6.79,5.27,0.274,43.069,0.481,0.32,291.282,70.096,86430.132,24.535,98.052
云南,怒江傈僳族自治州,7.33,9.518,0.878,1.519,0.188,70.538,3.275,0.815,281.192,69.199,73158.53,26.916,98.885
云南,文山壮族苗族自治州,22.955,36.471,9.724,4.24,0.404,56.433,1.405,4.207,291.691,86.37,86883.083,23.696,104.735
云南,昆明市,20.811,32.67,8.296,12.002,0.554,51.369,7.067,4.057,288.405,73.984,79585.117,25.384,102.863
云南,昭通市,24.241,36.428,12.25,14.004,0.787,42.105,-0.168,-1.276,283.848,87.255,84480.658,27.667,103.985
云南,普洱市,23.863,41.587,8.477,4.868,0.393,40.824,0.325,1.982,291.344,88.343,86345.769,23.159,100.718
云南,曲靖市,18.444,28.859,8.165,7.889,0.407,57.243,6.709,3.813,288.873,70.527,80332.516,25.737,103.929
云南,楚雄彝族自治州,21.333,27.847,6.266,5.703,0.515,53.624,5.76,3.64,289.541,67.984,81320.506,25.328,101.567
云南,玉溪市,24.779,35.919,7.914,5.571,0.459,58.918,2.655,3.692,290.513,82.96,83850.448,24.136,102.217
云南,红河哈尼族彝族自治州,22.034,35.332,9.45,3.935,0.4,60.978,0.967,2.991,290.83,87.911,85536.711,23.451,103.034
云南,西双版纳傣族自治州,23.358,43.067,8.662,7.62,0.411,34.236,-1.603,0.276,292.981,88.817,89300.966,21.939,100.912
云南,迪庆藏族自治州,5.94,7.294,1.655,1.927,0.226,77.587,7.097,1.28,277.489,65.583,67573.584,27.957,99.459
内蒙古,乌兰察布市,73.51,88.903,18.176,21.48,0.576,42.364,6.492,3.728,279.106,63.11,86194.264,41.691,112.44
内蒙古,乌海市,57.288,134.172,21.815,32.05,0.889,35.387,4.054,-1.797,282.175,53.071,88215.142,39.396,106.856
内蒙古,兴安盟,42.567,60.896,17.618,7.506,0.441,49.854,3.221,2.963,282.468,52.482,94751.632,46.244,121.341
内蒙古,包头市,65.401,77.591,13.041,13.32,0.432,45.017,6.902,3.741,279.03,63.48,86205.248,41.549,110.276
内蒙古,呼伦贝尔市,40.894,49.203,15.35,4.978,0.346,42.225,0.462,4.08,279.405,66.516,93324.818,49.636,121.171
内蒙古,呼和浩特市,68.021,92.223,17.007,31.178,0.803,36.632,4.043,2.652,279.0,71.217,86693.954,40.578,111.513
内蒙古,巴彦淖尔市,76.008,84.81,6.804,4.061,0.286,51.778,7.933,1.904,279.743,49.905,87682.085,41.446,107.582
内蒙古,赤峰市,53.775,73.363,21.367,14.244,0.534,60.088,5.724,2.778,282.615,51.648,92077.721,43.226,118.892
内蒙古,通辽市,67.388,90.659,22.864,19.128,0.775,63.969,2.743,4.941,284.659,42.711,98008.37,43.814,121.591
内蒙古,鄂尔多斯市,54.447,75.546,14.241,14.139,0.504,46.833,4.264,0.523,281.295,61.16,87497.44,39.407,108.63
内蒙古,锡林郭勒盟,67.795,77.92,20.275,6.64,0.383,47.174,5.169,5.02,280.11,61.567,89084.62,44.179,115.482
内蒙古,阿拉善盟,82.44,91.949,1.625,1.639,0.183,52.899,6.469,-2.766,280.157,34.114,88163.152,40.473,102.467
北京,北京市,97.1,130.248,9.685,63.548,1.078,33.53,0.677,1.524,283.781,39.13,98316.476,40.158,116.395
台湾,台湾省,12.21,15.851,5.901,16.026,0.207,72.346,-1.002,-2.473,291.965,78.973,93360.563,23.757,120.975
吉林,吉林市,33.384,57.555,10.673,28.769,0.762,54.042,0.804,6.216,282.056,47.141,97730.996,43.573,126.859
吉林,四平市,69.841,103.82,16.267,40.065,1.216,75.522,1.49,8.427,284.111,52.092,99781.863,43.472,124.386
吉林,延边朝鲜族自治州,25.291,43.609,11.892,17.992,0.456,46.474,3.297,1.644,281.438,39.549,94859.606,43.141,129.147
吉林,松原市,58.881,94.904,15.622,24.502,0.953,74.166,1.186,7.933,283.68,42.36,100027.298,44.785,124.496
吉林,白城市,47.782,79.804,16.787,15.293,0.698,62.138,0.761,5.872,283.497,34.215,99968.365,45.35,123.031
吉林,白山市,18.991,36.085,11.314,15.777,0.579,48.31,0.519,4.202,280.066,40.238,92981.411,42.063,127.256
吉林,辽源市,54.854,84.163,12.195,37.611,1.15,60.144,2.319,7.518,282.997,52.43,98059.273,42.836,125.32
吉林,通化市,35.698,68.007,14.733,27.6,0.946,41.499,0.351,5.281,281.419,47.896,96397.696,41.939,125.927
吉林,长春市,57.058,88.241,12.71,39.374,1.095,66.884,1.635,7.561,283.525,48.129,99728.477,44.268,125.611
四川,乐山市,28.062,37.367,10.713,17.342,0.681,36.077,0.11,-2.336,283.227,90.063,90093.374,29.218,103.569
四川,内江市,13.577,22.746,6.804,14.938,0.702,37.525,0.488,-3.194,287.096,78.956,97239.988,29.62,104.95
四川,凉山彝族自治州,14.427,18.871,7.131,7.389,0.521,65.374,5.069,2.649,283.672,52.396,74413.752,27.883,102.065
四川,南充市,15.63,29.068,9.846,13.527,0.573,41.882,-2.128,-2.508,287.101,74.483,97251.271,31.19,106.199
四川,宜宾市,23.232,31.315,9.908,20.506,0.823,32.224,1.243,-3.001,286.7,86.317,95582.464,28.573,104.621
四川,巴中市,23.837,37.802,9.689,10.709,0.485,39.915,-4.246,-2.533,284.307,75.054,92948.19,32.033,107.031
四川,广元市,17.699,29.282,12.035,8.833,0.459,47.487,-2.035,-2.248,284.557,73.134,92076.968,32.261,105.788
四川,广安市,18.516,33.98,8.042,18.176,0.643,34.066,-1.09,-1.871,287.527,76.131,97235.121,30.43,106.628
四川,德阳市,11.596,23.985,6.723,15.222,0.555,44.142,-1.604,-2.092,285.074,76.461,93685.828,31.13,104.436
四川,成都市,13.434,26.166,8.14,18.914,0.588,43.1,-0.719,-1.78,285.268,78.268,93841.477,30.64,103.929
四川,攀枝花市,21.008,34.804,18.486,25.733,1.171,44.12,3.96,4.04,290.504,45.119,81721.397,26.791,101.734
四川,泸州市,18.366,29.105,9.368,19.701,0.692,29.377,1.156,-2.795,286.62,87.267,93906.454,28.424,105.675
四川,甘孜藏族自治州,4.743,5.341,0.755,1.128,0.136,80.69,4.496,0.569,272.666,59.04,61450.557,30.936,100.009
四川,眉山市,17.682,27.58,9.303,17.91,0.63,39.534,0.795,-2.174,285.264,82.786,94308.723,29.912,103.766
四川,绵阳市,18.925,29.16,10.316,7.58,0.443,52.4,-1.392,-1.807,282.829,78.435,88442.3,31.86,104.704
四川,自贡市,18.941,25.456,7.405,17.723,0.737,36.539,0.758,-3.272,287.434,78.442,97223.212,29.307,104.659
四川,资阳市,12.916,24.414,7.996,11.403,0.623,41.88,-0.117,-3.224,287.134,77.298,97486.712,30.102,105.149
四川,达州市,22.639,39.647,10.929,17.786,0.514,38.611,-3.065,-1.145,285.297,80.54,94533.675,31.335,107.636
四川,遂宁市,13.644,25.501,9.503,12.225,0.596,43.329,-0.994,-2.96,287.246,75.647,97722.2,30.642,105.457
四川,阿坝藏族羌族自治州,14.49,17.584,3.39,2.162,0.211,69.058,1.926,-1.222,273.845,74.594,65767.651,32.406,102.61
四川,雅安市,24.64,33.809,13.013,9.381,0.485,53.385,-0.771,-0.512,279.194,89.84,80436.056,29.932,102.689
天津,天津市,103.911,132.39,18.032,76.083,1.327,27.761,1.64,2.898,285.984,38.261,102101.651,39.315,117.308
宁夏,中卫市,66.988,118.082,6.545,9.716,0.482,40.373,2.108,-3.447,281.249,57.383,84153.046,37.018,105.509
宁夏,吴忠市,54.508,114.805,11.601,13.478,0.409,38.571,3.076,-1.443,281.581,61.787,85675.381,37.454,106.577
宁夏,固原市,49.02,79.504,8.593,13.23,0.606,39.473,1.332,-2.062,278.979,74.644,81506.007,35.905,106.183
宁夏,石嘴山市,51.379,109.125,14.442,26.77,0.756,40.667,4.799,-2.988,282.573,48.733,87290.991,39.013,106.499
宁夏,银川市,43.469,127.693,12.87,27.062,0.62,38.107,3.034,-1.529,283.298,51.478,87615.446,38.287,106.342
安徽,亳州市,27.677,49.729,7.718,33.625,0.485,50.423,-1.771,0.835,289.696,63.792,102001.273,33.44,116.162
安徽,六安市,43.54,66.634,7.07,30.929,0.588,40.653,-1.876,-0.064,286.7,87.536,99450.884,31.617,116.209
安徽,合肥市,32.081,56.625,7.591,38.183,0.63,42.752,-3.338,-0.333,288.688,80.929,101842.591,31.766,117.359
安徽,安庆市,52.573,50.299,7.47,24.292,0.583,38.187,-2.74,-2.763,287.406,88.472,99844.951,30.557,116.473
安徽,宣城市,23.392,37.456,6.372,28.393,0.466,45.56,-3.706,0.729,287.645,85.449,99799.608,30.676,118.846
安徽,宿州市,27.533,49.319,6.607,29.868,0.47,57.883,-3.75,0.529,290.008,61.675,101967.539,33.844,117.23
安徽,池州市,31.012,35.747,7.378,18.887,0.484,36.841,-2.945,-0.689,287.587,87.043,99992.602,30.296,117.379
安徽,淮北市,26.048,46.495,7.836,37.692,0.467,53.529,-3.068,0.817,290.334,60.196,102003.795,33.722,116.747
安徽,淮南市,29.914,56.909,9.784,36.756,0.567,44.087,-3.157,0.845,289.486,72.975,102028.353,32.463,116.746
安徽,滁州市,23.999,43.421,6.788,28.544,0.432,61.914,-3.133,0.498,290.052,66.23,101759.142,32.55,118.076
安徽,芜湖市,28.439,45.345,8.545,31.855,0.562,49.401,-3.931,-0.294,288.503,85.241,101996.366,31.167,118.162
安徽,蚌埠市,24.237,40.428,7.357,28.655,0.417,59.411,-2.73,1.139,290.51,62.013,102022.109,33.121,117.263
安徽,铜陵市,36.575,49.001,8.419,29.467,0.569,40.769,-3.593,-1.294,288.147,87.225,101832.532,30.883,117.531
安徽,阜阳市,33.672,60.186,9.141,33.19,0.538,41.776,-1.806,-0.304,288.411,72.666,101979.72,32.937,115.723
安徽,马鞍山市,28.0,49.185,8.358,35.364,0.662,51.408,-3.797,0.326,289.262,77.436,102018.65,31.622,118.386
安徽,黄山市,23.96,34.33,8.012,15.746,0.495,35.514,-3.927,0.362,286.626,89.985,97761.27,29.869,118.09
山东,东营市,68.844,120.257,21.022,66.673,1.182,43.732,0.382,2.008,287.25,52.642,102313.708,37.57,118.572
山东,临沂市,38.166,75.332,9.32,35.498,0.544,55.116,-1.988,1.133,287.795,68.612,100557.453,35.289,118.27
山东,威海市,28.725,51.195,8.068,24.646,0.68,95.832,0.189,0.825,287.79,57.256,101756.428,37.148,122.028
山东,德州市,63.062,114.35,17.785,58.915,0.742,38.699,1.213,4.638,287.829,54.329,102131.397,37.233,116.679
山东,日照市,34.183,62.301,6.529,29.574,0.463,62.279,-1.442,1.243,288.057,70.46,100682.68,35.566,119.108
山东,枣庄市,36.912,82.518,15.473,44.082,0.55,47.484,-3.067,1.252,288.632,64.386,101268.424,34.925,117.383
山东,泰安市,39.205,86.724,15.214,46.082,0.756,40.131,-1.274,2.738,287.594,63.758,100423.028,35.993,117.04
山东,济南市,47.007,97.89,16.314,55.077,0.841,38.06,0.42,4.027,287.803,57.404,100379.705,36.639,117.254
山东,济宁市,33.983,76.459,15.81,43.192,0.674,44.295,-2.017,2.84,288.821,63.342,101698.436,35.375,116.697
山东,淄博市,47.253,90.3,19.117,50.531,1.086,42.13,1.011,3.226,287.51,57.824,99781.942,36.623,118.062
山东,滨州市,74.827,115.665,20.59,68.696,1.152,38.925,0.641,2.889,287.467,51.003,102237.423,37.516,117.852
山东,潍坊市,37.911,72.641,10.375,36.713,0.676,55.896,0.302,2.973,287.985,61.719,101247.944,36.53,119.092
山东,烟台市,40.29,69.193,8.122,33.681,0.667,67.234,0.868,2.154,287.345,58.686,101243.588,37.25,120.789
山东,聊城市,50.279,99.326,17.946,47.71,0.776,41.632,0.262,4.696,288.185,59.868,101924.189,36.458,115.863
山东,菏泽市,36.537,75.49,13.486,39.369,0.762,47.754,-1.222,2.531,288.752,64.56,101835.006,35.134,115.69
山东,青岛市,31.681,59.747,7.132,34.516,0.535,65.966,-0.821,1.541,288.068,61.303,101831.114,36.46,120.172
山西,临汾市,62.954,98.165,16.357,39.772,1.177,42.484,1.457,1.625,281.19,59.788,90653.997,36.227,111.398
山西,吕梁市,53.514,78.608,19.999,30.496,0.797,41.364,2.642,1.729,280.734,66.789,88201.465,37.663,111.27
山西,大同市,59.972,98.007,21.341,36.276,0.946,36.08,4.542,1.5,280.144,58.226,87633.262,39.911,113.713
山西,太原市,70.041,116.16,23.705,43.961,1.041,37.654,3.201,0.552,280.71,66.38,88052.419,37.967,112.321
山西,忻州市,56.498,81.699,20.447,25.486,0.712,47.619,3.37,0.98,279.621,67.331,86542.195,38.877,112.391
山西,晋中市,70.506,108.86,23.286,42.846,0.994,45.256,3.602,1.369,280.956,60.404,89000.558,37.328,112.997
山西,晋城市,51.99,91.737,12.617,41.789,0.882,50.711,1.903,0.501,281.857,52.195,91027.118,35.625,112.752
山西,朔州市,59.062,92.841,21.2,34.898,0.84,38.902,4.912,1.489,279.748,67.465,86994.223,39.619,112.655
山西,运城市,66.204,98.781,14.301,42.18,1.159,33.842,0.161,0.64,283.439,52.14,94894.739,35.205,111.071
山西,长治市,53.389,89.186,15.121,34.456,0.885,55.2,3.59,1.277,281.119,54.72,89318.403,36.48,112.915
山西,阳泉市,74.268,121.987,23.829,51.059,1.101,39.829,5.044,1.022,282.599,55.958,90842.811,38.031,113.512
广东,东莞市,29.283,47.534,7.028,25.136,0.574,81.797,-4.588,0.862,296.79,77.439,101539.853,22.931,113.81
广东,中山市,23.674,39.176,7.303,17.064,0.467,87.753,-5.824,0.204,297.129,82.43,101525.211,22.5,113.383
广东,云浮市,31.18,47.557,7.665,17.408,0.589,61.305,-4.657,2.834,296.287,81.783,99491.586,22.776,111.818
广东,佛山市,33.054,60.801,9.538,38.958,0.689,65.412,-4.006,1.545,297.379,77.127,101562.791,23.035,112.979
广东,广州市,36.454,57.299,7.588,32.457,0.624,73.102,-3.26,1.529,296.611,78.018,100686.327,23.339,113.525
广东,惠州市,28.159,39.891,7.224,11.936,0.489,81.393,-3.938,0.319,295.626,78.651,99733.479,23.244,114.485
广东,揭阳市,33.553,51.852,12.274,19.388,0.727,85.722,-4.715,-2.053,294.705,78.425,100374.707,23.323,116.123
广东,梅州市,32.786,46.008,9.162,15.492,0.654,70.517,-2.641,0.303,294.331,76.512,98338.754,24.169,116.07
广东,汕头市,22.187,35.525,10.373,15.416,0.527,94.358,-5.729,-3.301,295.343,78.646,101493.091,23.339,116.614
广东,汕尾市,26.951,40.137,8.594,11.702,0.52,88.115,-5.555,-2.087,295.0,78.83,100083.795,23.024,115.527
广东,江门市,23.294,36.534,6.538,13.65,0.428,81.501,-5.838,0.389,296.984,84.213,100945.931,22.289,112.676
广东,河源市,35.944,49.574,8.89,14.595,0.653,66.485,-2.013,-0.115,294.764,79.67,98518.972,24.021,114.969
广东,深圳市,23.071,38.15,6.661,19.147,0.477,90.496,-6.551,0.019,296.507,80.431,101057.046,22.667,114.143
广东,清远市,37.736,49.214,8.954,15.063,0.647,58.318,-1.759,0.157,294.58,81.515,98016.836,24.295,112.871
广东,湛江市,14.85,26.709,4.421,5.373,0.347,83.915,-7.945,2.023,298.642,84.131,101249.665,21.091,110.163
广东,潮州市,27.012,41.236,9.094,14.591,0.595,86.089,-5.267,-2.342,294.407,76.469,99817.509,23.755,116.754
广东,珠海市,15.555,24.285,5.07,6.533,0.288,98.485,-7.077,-0.355,297.333,85.485,101590.593,22.095,113.317
广东,肇庆市,36.872,56.678,8.844,25.371,0.657,55.45,-3.813,1.888,296.285,80.09,99614.254,23.505,112.199
广东,茂名市,22.645,33.395,7.051,8.508,0.421,76.915,-7.243,1.883,297.105,79.38,99518.359,22.013,110.952
广东,阳江市,24.455,35.028,6.038,10.473,0.405,77.498,-5.701,0.291,296.689,83.871,100085.955,22.042,111.786
广东,韶关市,36.355,44.446,9.635,12.355,0.858,47.389,-1.262,-0.972,293.35,82.817,97257.849,24.785,113.819
广西,北海市,20.511,35.946,6.967,9.319,0.518,70.197,-6.871,2.159,298.346,83.296,101281.114,21.674,109.37
广西,南宁市,31.004,48.48,8.997,16.354,0.822,34.816,-3.184,0.589,296.243,86.589,99485.319,23.051,108.469
广西,崇左市,24.655,40.79,8.359,10.863,0.619,45.586,-3.107,0.537,296.263,88.635,98164.025,22.483,107.291
广西,来宾市,32.99,47.651,10.207,11.331,0.781,31.915,-2.846,-0.901,294.658,86.893,98373.144,23.859,109.417
广西,柳州市,22.764,35.604,12.08,9.623,0.708,32.752,-1.868,-3.482,291.112,91.602,97843.952,24.956,109.372
广西,桂林市,21.75,32.068,10.459,10.614,0.654,36.208,-2.428,-2.04,289.833,94.017,96254.656,25.353,110.513
广西,梧州市,32.485,48.46,10.288,12.862,0.688,53.232,-4.077,1.932,296.344,79.484,99200.895,23.484,110.996
广西,河池市,27.464,43.264,12.744,7.393,0.763,35.17,-2.91,0.336,291.914,95.011,95451.295,24.628,107.843
广西,玉林市,25.619,39.393,9.836,10.457,0.599,65.303,-4.628,3.131,297.321,77.552,99565.26,22.452,110.164
广西,百色市,31.075,47.761,13.021,6.932,0.588,52.097,-1.829,2.94,293.839,90.146,93315.777,23.981,106.292
广西,贵港市,40.722,59.539,12.579,14.339,0.829,43.744,-3.306,0.204,296.993,79.396,100012.119,23.322,110.021
广西,贺州市,31.336,45.564,12.584,9.618,0.648,47.75,-2.396,-0.021,294.195,84.857,97436.636,24.364,111.394
广西,钦州市,21.002,37.929,7.437,10.744,0.655,57.987,-4.935,2.926,297.906,81.145,100581.362,22.173,109.01
广西,防城港市,19.888,34.058,7.296,10.522,0.575,54.079,-3.776,1.473,296.761,90.465,98988.466,21.88,108.002
新疆,乌鲁木齐市,9.769,18.084,2.429,11.134,0.313,61.453,1.945,-1.224,274.911,45.576,84978.183,43.746,87.818
新疆,五家渠市,25.147,50.56,6.503,28.007,0.667,35.72,-0.63,1.21,281.36,34.223,97583.64,44.363,87.517
新疆,伊犁哈萨克自治州,3.557,4.827,1.739,3.82,0.229,72.213,-0.295,1.247,271.595,73.212,81130.787,43.438,82.146
新疆,克孜勒苏柯尔克孜自治州,2.663,7.767,0.353,1.977,0.165,77.181,3.279,-1.73,271.021,46.837,70958.616,39.661,75.949
新疆,克拉玛依市,10.543,18.201,3.906,6.875,0.351,49.509,-0.112,-0.353,279.074,55.372,98423.741,45.457,85.207
新疆,北屯市,3.71,4.038,30.144,2.488,0.634,38.478,-1.106,-0.002,274.78,75.336,96518.796,47.27,87.868
新疆,博尔塔拉蒙古自治州,5.155,7.215,2.765,3.774,0.258,63.549,3.023,1.843,275.023,62.446,86938.558,44.714,82.114
新疆,双河市,7.022,10.834,3.866,6.024,0.302,49.148,-1.352,-3.19,279.63,59.798,98876.866,44.87,82.474
新疆,可克达拉市,9.75,13.908,4.786,12.696,0.448,58.624,-5.718,1.384,279.076,70.554,95935.296,43.918,80.786
新疆,和田地区,12.379,16.767,0.73,0.925,0.152,81.163,0.128,-0.545,274.626,32.698,74486.728,37.059,80.934
新疆,哈密市,17.041,18.051,1.868,2.251,0.19,65.2,3.775,-1.94,276.729,42.289,89037.014,43.042,93.517
新疆,喀什地区,8.189,17.052,1.279,3.518,0.197,73.837,1.775,-0.171,275.24,35.046,76701.462,38.125,77.178
新疆,图木舒克市,13.633,16.538,2.837,2.258,0.187,55.758,-3.357,-1.308,282.27,29.152,90032.445,39.892,79.182
新疆,塔城地区,5.436,7.707,2.696,3.393,0.245,59.337,2.124,-0.338,274.536,67.595,90375.349,45.642,84.789
新疆,巴音郭楞蒙古自治州,19.158,20.684,0.682,0.655,0.144,73.571,0.214,-0.613,276.135,30.422,79787.965,39.463,87.481
新疆,新星市,26.31,37.345,9.105,22.805,0.505,38.19,0.01,-1.87,280.81,27.41,93573.965,42.75,93.68
新疆,昆玉市,13.713,39.817,2.877,4.217,0.25,71.033,0.417,-1.143,284.73,14.6,87641.08,37.457,79.093
新疆,昌吉回族自治州,8.477,13.002,3.081,5.762,0.254,60.707,1.555,-0.206,277.01,46.739,90762.551,44.342,88.608
新疆,石河子市,13.94,22.375,7.21,15.365,0.33,53.0,-0.255,1.535,281.245,33.755,95622.12,44.245,86.035
新疆,胡杨河市,25.446,35.244,7.392,11.864,0.434,43.848,-1.74,-0.158,280.716,47.486,98889.132,44.852,84.772
新疆,铁门关市,9.333,24.963,1.367,3.217,0.21,78.787,1.597,-1.41,282.28,27.01,92519.66,41.773,85.66
新疆,阿克苏地区,19.17,30.309,1.491,3.358,0.224,66.034,-0.888,-1.047,279.407,29.769,86007.767,40.965,81.578
新疆,阿勒泰地区,2.882,3.308,7.933,1.349,0.3,56.215,0.687,0.818,271.176,75.626,89227.505,46.902,88.421
新疆,阿拉尔市,27.542,56.991,2.355,8.052,0.366,52.369,-2.957,-1.893,282.189,26.632,90907.839,40.629,80.998
江苏,南京市,28.661,50.141,8.22,36.327,0.573,54.48,-3.262,0.48,290.026,70.261,102079.681,31.899,118.876
江苏,南通市,20.619,26.888,6.299,16.555,0.343,89.692,-3.302,-0.972,291.058,62.664,102248.772,32.201,120.979
江苏,宿迁市,25.434,42.765,5.779,22.648,0.455,68.985,-3.899,0.148,290.208,62.461,102232.48,33.765,118.495
江苏,常州市,27.468,45.978,8.645,39.103,0.601,59.944,-3.124,0.487,290.671,69.874,102130.455,31.613,119.666
江苏,徐州市,33.17,63.145,9.204,37.524,0.521,53.902,-3.49,0.61,289.172,64.153,101988.206,34.363,117.513
江苏,扬州市,25.615,40.639,6.577,22.014,0.428,71.288,-3.876,-0.845,290.708,61.913,102251.738,32.709,119.486
江苏,无锡市,25.198,42.86,9.114,40.432,0.581,61.396,-3.061,-0.068,290.791,69.562,102037.549,31.546,120.066
江苏,泰州市,26.182,38.514,7.202,23.0,0.432,75.08,-3.58,-1.273,290.674,63.733,102220.382,32.605,120.048
江苏,淮安市,23.113,38.454,5.592,18.779,0.4,70.446,-4.192,-0.316,290.441,62.788,102217.436,33.362,118.985
江苏,盐城市,18.818,26.954,5.375,11.057,0.326,81.129,-3.441,-0.879,290.501,65.38,102302.281,33.529,120.156
江苏,苏州市,22.3,34.89,7.143,39.47,0.453,63.854,-3.29,-1.242,291.191,69.403,102190.786,31.374,120.661
江苏,连云港市,26.002,42.353,6.361,20.354,0.438,70.085,-3.278,0.109,289.573,63.686,102152.451,34.519,119.133
江苏,镇江市,34.199,53.39,8.838,36.725,0.58,61.388,-2.797,0.081,290.736,65.676,102115.276,32.016,119.49
江西,上饶市,31.167,37.425,10.686,16.364,0.558,37.147,-2.412,-1.163,289.002,83.91,99791.145,28.778,117.47
江西,九江市,38.972,34.121,7.924,15.243,0.535,39.011,-1.787,-2.225,288.188,89.909,99767.449,29.313,115.444
江西,南昌市,27.569,32.781,7.369,16.516,0.575,35.012,-0.924,-1.685,289.801,85.089,101640.219,28.671,116.016
江西,吉安市,22.069,33.094,10.257,14.522,0.705,28.744,-0.572,-2.144,288.53,93.725,99337.154,26.954,114.831
江西,宜春市,23.351,32.094,7.924,14.333,0.547,36.666,-1.215,-1.617,288.117,92.694,99709.649,28.29,114.974
江西,抚州市,29.421,34.955,9.127,12.149,0.516,44.512,-0.886,-1.183,289.208,89.651,99334.728,27.514,116.42
江西,新余市,18.448,30.411,10.661,21.969,0.712,25.609,-0.843,-2.088,288.328,94.07,100641.498,27.847,114.836
江西,景德镇市,27.025,33.678,10.037,14.476,0.545,31.58,-2.464,-1.347,288.692,84.56,100642.288,29.287,117.24
江西,萍乡市,16.403,28.003,10.644,19.442,0.772,26.884,-1.926,-1.096,287.768,95.677,98351.014,27.505,113.908
江西,赣州市,27.034,35.144,9.534,8.916,0.809,50.102,-0.661,-1.851,291.381,88.182,97618.226,25.692,115.279
江西,鹰潭市,37.104,40.772,11.51,19.473,0.605,40.194,-1.787,-1.086,289.534,83.651,100299.999,28.222,117.094
河北,保定市,94.73,143.061,19.701,60.638,1.043,36.62,1.328,1.16,285.101,37.076,98295.711,39.018,115.159
河北,唐山市,101.767,146.917,24.258,79.681,1.562,30.756,1.714,1.627,285.382,47.224,101600.306,39.731,118.354
河北,廊坊市,109.87,151.082,18.258,73.646,1.296,27.502,1.443,2.712,285.659,35.745,102124.446,39.267,116.632
河北,张家口市,64.159,93.801,16.768,34.085,0.691,46.079,3.381,2.388,279.773,52.205,88044.834,40.877,115.042
河北,承德市,70.901,113.807,16.12,49.966,0.909,40.986,3.098,2.803,279.931,50.05,91411.721,41.339,117.578
河北,沧州市,86.304,128.387,22.801,65.683,0.954,37.676,1.839,4.411,287.119,42.963,102193.286,38.258,116.744
河北,石家庄市,80.349,134.32,21.8,60.839,1.256,37.924,1.35,1.39,286.538,39.605,98839.839,38.135,114.407
河北,秦皇岛市,104.106,156.098,30.386,81.294,2.054,42.955,3.698,1.905,284.333,47.19,99290.16,40.12,119.193
河北,衡水市,74.28,122.083,21.727,53.78,0.927,42.696,1.807,5.302,287.555,47.056,102042.482,37.755,115.813
河北,邢台市,67.761,120.437,23.248,52.031,1.253,44.407,1.388,3.959,287.804,43.179,100523.579,37.195,114.815
河北,邯郸市,64.663,116.445,21.986,52.606,1.196,39.937,2.266,3.444,287.533,45.774,100082.089,36.538,114.596
河南,三门峡市,59.447,74.342,11.216,25.991,0.685,41.407,1.158,0.36,282.135,65.617,92470.244,34.362,111.101
河南,信阳市,47.876,72.145,10.028,29.32,0.586,36.876,-1.692,-1.396,287.36,78.818,100982.505,32.091,114.907
河南,南阳市,47.442,75.897,11.568,27.817,0.638,51.214,-0.425,-2.215,286.442,55.109,98963.648,33.034,112.323
河南,周口市,44.895,82.099,10.905,41.448,0.724,42.113,-1.454,0.198,288.188,65.664,101781.708,33.738,114.884
河南,商丘市,33.316,63.131,10.044,36.439,0.613,50.096,-2.27,1.11,289.433,61.931,101855.315,34.277,115.718
河南,安阳市,64.243,105.918,16.812,50.472,1.012,38.123,1.485,3.033,287.452,49.646,99707.428,35.888,114.318
河南,平顶山市,69.869,108.513,19.417,47.142,0.823,38.916,1.314,-2.437,286.403,48.106,99610.086,33.8,113.025
河南,开封市,56.306,86.503,13.771,42.98,0.764,47.1,-0.868,1.06,288.476,61.818,101524.176,34.594,114.514
河南,新乡市,68.137,105.643,17.084,55.246,0.968,33.885,0.809,1.715,287.587,54.724,100576.115,35.256,114.111
河南,洛阳市,64.332,88.151,14.65,33.494,0.716,42.022,1.284,0.251,283.439,59.767,94894.439,34.274,112.019
河南,济源市,61.76,99.645,14.213,50.115,0.856,34.2,1.075,-0.434,285.432,44.34,96743.662,35.105,112.445
河南,漯河市,61.388,110.187,16.958,50.527,0.752,36.14,-0.028,-0.826,287.558,58.557,101635.533,33.652,113.945
河南,濮阳市,51.942,95.13,17.914,46.613,0.943,40.721,-0.004,3.615,288.196,62.043,101800.764,35.809,115.283
河南,焦作市,71.342,114.639,16.201,59.726,1.031,29.161,1.476,0.356,287.445,43.961,100394.24,35.121,113.163
河南,许昌市,65.503,107.06,20.115,53.155,0.84,38.12,-0.428,-1.275,288.173,53.104,100950.279,34.075,113.707
河南,郑州市,82.256,119.09,20.632,63.361,1.015,27.952,0.965,-0.236,287.114,49.911,99628.326,34.634,113.438
河南,驻马店市,57.882,93.994,11.979,41.634,0.672,34.864,-0.64,-1.975,286.921,65.623,101312.824,32.925,114.174
河南,鹤壁市,68.614,110.252,17.812,57.393,1.033,32.527,1.536,2.744,287.671,50.748,100907.427,35.716,114.319
浙江,丽水市,24.754,31.277,5.525,13.901,0.389,53.447,-1.991,0.177,287.03,90.269,95056.284,28.194,119.51
浙江,台州市,20.785,29.875,5.58,22.591,0.429,51.551,-1.626,-3.175,289.622,92.058,99334.517,28.742,121.109
浙江,嘉兴市,19.473,35.335,5.562,43.821,0.542,43.197,-2.213,-2.33,289.745,81.046,102176.312,30.635,120.754
浙江,宁波市,24.743,35.889,6.021,32.33,0.553,43.828,-2.082,-2.455,290.101,87.293,100895.86,29.706,121.49
浙江,杭州市,29.468,47.04,7.315,31.743,0.62,35.471,-2.309,-1.436,287.078,91.669,99232.946,29.891,119.464
浙江,温州市,23.832,36.942,7.757,23.596,0.465,51.457,-0.669,-3.322,289.343,86.74,98124.517,27.897,120.411
浙江,湖州市,23.69,42.029,6.616,40.166,0.545,43.438,-2.404,-0.55,288.567,83.103,100903.303,30.757,119.871
浙江,绍兴市,35.324,50.533,7.591,40.89,0.756,26.037,-1.772,-1.851,288.281,90.51,100063.419,29.709,120.64
浙江,舟山市,4.612,6.522,1.702,3.468,0.202,85.438,-4.79,-2.655,292.435,73.22,101906.47,30.038,122.23
浙江,衢州市,30.02,40.561,10.133,23.863,0.54,37.37,-3.509,-1.248,287.928,87.446,98402.618,28.912,118.675
浙江,金华市,33.952,45.651,6.857,31.911,0.606,35.383,-2.484,-1.461,287.842,90.182,98690.657,29.109,119.967
海南,万宁市,10.052,19.868,1.427,1.439,0.233,84.397,-6.37,-1.24,298.567,87.927,100196.983,18.842,110.294
海南,三亚市,10.836,17.523,1.887,3.436,0.416,52.279,-6.751,-0.8,298.414,83.779,98930.427,18.413,109.407
海南,东方市,13.115,18.394,2.273,2.898,0.245,70.926,-1.587,0.288,299.057,80.15,99549.778,18.971,108.838
海南,临高县,11.836,24.629,2.88,4.403,0.366,66.354,-6.569,1.684,299.389,80.474,100753.023,19.821,109.733
海南,乐东黎族自治县,11.636,16.955,1.459,2.577,0.281,59.037,-4.924,0.688,298.308,80.81,98046.337,18.659,109.072
海南,五指山市,11.156,17.534,1.424,2.068,0.25,64.772,-6.262,0.742,295.946,87.832,94883.15,18.81,109.518
海南,儋州市,11.924,22.183,2.085,2.939,0.289,72.219,-5.597,1.723,299.276,80.719,100394.621,19.568,109.399
海南,定安县,10.462,22.903,1.87,3.15,0.368,66.577,-6.13,0.62,298.832,84.047,100480.572,19.47,110.28
海南,屯昌县,10.64,22.0,1.74,2.734,0.316,69.968,-5.498,1.006,298.35,85.462,99696.452,19.342,110.076
海南,文昌市,9.47,20.828,1.442,1.364,0.265,76.947,-7.419,-0.221,298.845,87.548,101269.028,19.707,110.773
海南,昌江黎族自治县,12.538,19.052,2.064,2.621,0.246,72.987,-3.539,0.502,298.358,82.73,98544.282,19.233,109.016
海南,海口市,10.6,23.755,2.473,3.876,0.401,66.056,-6.796,0.673,299.086,83.553,101060.698,19.842,110.393
海南,澄迈县,11.311,24.773,2.774,4.514,0.42,62.253,-6.253,1.343,299.161,81.603,100593.656,19.676,109.989
海南,琼中黎族苗族自治县,11.166,20.433,1.613,2.301,0.271,70.685,-5.414,0.904,296.865,89.761,97522.269,19.087,109.847
海南,琼海市,9.79,20.688,1.323,1.647,0.253,79.41,-5.848,-0.485,298.92,87.12,101034.46,19.22,110.43
海南,白沙黎族自治县,11.291,18.738,1.531,1.939,0.251,72.705,-5.295,1.455,297.348,84.832,97215.609,19.2,109.388
海南,陵水黎族自治县,10.44,18.227,1.25,1.836,0.283,67.783,-5.781,-1.916,298.303,87.06,99512.564,18.581,109.913
湖北,仙桃市,33.78,47.116,5.694,17.046,0.661,34.986,-1.184,-3.845,288.317,85.223,101946.442,30.284,113.417
湖北,十堰市,29.768,46.385,11.698,11.326,0.55,49.599,-0.403,-0.422,282.701,76.981,94040.789,32.462,110.476
湖北,咸宁市,35.69,40.999,6.622,16.163,0.672,39.529,-1.837,-1.784,287.721,93.291,100003.91,29.621,114.178
湖北,天门市,34.885,52.062,7.408,15.728,0.688,43.652,-0.488,-4.103,287.961,79.557,101927.393,30.633,113.053
湖北,孝感市,41.011,57.747,7.362,18.459,0.65,38.158,-0.82,-3.289,287.806,80.47,101320.765,31.116,113.869
湖北,宜昌市,28.395,36.162,10.147,12.931,0.55,56.009,-0.746,-1.748,283.833,83.742,94800.795,30.746,111.129
湖北,恩施土家族苗族自治州,25.885,39.812,12.78,9.505,0.578,42.611,-1.435,0.39,282.469,95.089,90149.17,30.195,109.552
湖北,武汉市,38.962,49.237,6.2,27.267,0.715,29.145,-1.427,-2.534,288.591,84.485,101830.394,30.606,114.349
湖北,潜江市,30.057,50.663,5.953,17.427,0.778,41.218,-0.547,-4.849,287.434,80.851,101932.432,30.33,112.77
湖北,神农架林区,28.377,35.064,11.202,3.742,0.373,61.537,-0.221,0.755,279.223,96.194,83492.762,31.592,110.49
湖北,荆州市,30.585,45.5,7.125,18.48,0.769,43.276,-0.622,-4.739,287.41,83.033,101690.728,30.01,112.512
湖北,荆门市,48.016,56.794,10.083,22.914,0.709,46.281,0.188,-4.836,286.887,72.619,100931.473,31.059,112.616
湖北,襄阳市,45.177,56.774,10.984,20.293,0.657,51.434,0.662,-2.729,285.587,65.93,98198.921,31.919,111.96
湖北,鄂州市,34.317,44.409,5.817,27.676,0.761,30.606,-1.237,-2.029,288.571,86.659,101864.514,30.337,114.794
湖北,随州市,49.71,70.004,10.318,25.611,0.649,36.923,-0.773,-3.069,287.116,71.594,100210.154,31.809,113.43
湖北,黄冈市,43.905,48.156,7.662,20.455,0.628,39.939,-1.665,-1.462,287.888,83.939,100103.204,30.702,115.358
湖北,黄石市,43.645,41.889,7.019,23.081,0.71,35.165,-1.921,-1.396,288.231,90.423,100851.995,29.925,115.034
湖南,娄底市,16.234,25.267,6.829,13.645,0.974,34.039,-0.695,-2.87,285.501,95.859,97815.02,27.715,111.632
湖南,岳阳市,27.491,36.908,6.623,11.738,0.614,46.197,-1.22,-2.759,288.065,92.619,100709.192,29.081,113.275
湖南,常德市,19.534,31.833,8.118,16.808,0.825,48.024,-0.36,-4.367,285.422,89.659,99985.127,29.271,111.524
湖南,张家界市,14.253,26.512,8.164,13.153,0.641,52.296,-2.519,-1.961,283.987,93.946,95984.049,29.379,110.526
湖南,怀化市,12.526,25.5,6.918,10.018,0.749,44.455,-1.614,-2.515,285.349,94.894,96887.471,27.535,110.071
湖南,株洲市,19.721,28.215,9.858,16.228,0.659,31.239,-0.58,-1.55,288.304,94.808,98485.865,27.109,113.513
湖南,永州市,22.026,31.369,8.107,11.971,0.644,35.612,-1.514,-2.167,288.776,94.448,97053.258,25.748,111.723
湖南,湘潭市,15.296,20.752,6.12,17.475,0.815,27.927,1.008,-3.916,287.076,95.937,100824.586,27.744,112.619
湖南,湘西土家族苗族自治州,14.799,24.676,4.834,11.635,0.706,43.715,-2.567,-1.915,284.102,94.901,95899.02,28.708,109.718
湖南,益阳市,20.581,31.888,5.884,13.604,0.951,41.22,0.738,-3.418,285.338,96.971,99437.115,28.525,111.919
湖南,衡阳市,16.471,23.412,7.979,18.108,0.712,24.964,0.204,-3.348,287.883,95.162,100306.599,26.781,112.565
湖南,邵阳市,21.583,29.44,9.889,13.106,0.746,36.208,-1.483,-1.587,285.97,96.589,95542.599,26.893,110.881
湖南,郴州市,24.24,31.999,7.518,12.586,0.793,35.464,-0.247,-1.656,289.335,94.173,96210.524,25.769,113.109
湖南,长沙市,19.981,26.457,6.731,15.242,0.652,36.76,0.434,-2.321,287.58,95.09,100211.702,28.235,113.159
甘肃,临夏回族自治州,32.218,64.996,8.417,14.274,0.724,47.248,-1.109,-0.883,278.493,74.25,77995.934,35.617,103.291
甘肃,兰州市,50.201,90.623,6.397,12.935,0.533,45.061,-1.599,-1.287,279.251,64.044,79654.473,36.359,103.633
甘肃,嘉峪关市,98.487,436.827,7.778,14.41,0.248,60.518,4.442,-2.673,277.503,23.145,82316.3,39.798,98.145
甘肃,天水市,32.163,56.137,11.417,10.814,0.417,44.022,-0.19,-0.824,279.731,79.551,83235.003,34.645,105.739
甘肃,定西市,40.727,73.061,8.864,7.227,0.444,46.415,-0.37,-1.635,277.249,79.037,77761.702,35.124,104.432
甘肃,平凉市,35.106,61.672,9.537,14.133,0.482,39.95,0.427,0.058,280.528,74.964,85091.769,35.304,106.644
甘肃,庆阳市,41.96,65.232,11.121,13.188,0.53,39.459,1.108,0.191,280.755,71.36,86369.554,36.149,107.596
甘肃,张掖市,57.04,136.151,2.045,4.192,0.167,66.481,3.547,-0.344,273.365,42.247,75173.821,38.94,99.855
甘肃,武威市,94.227,143.338,2.415,5.099,0.254,50.362,2.48,-2.712,279.046,48.283,82009.249,38.163,103.073
甘肃,甘南藏族自治州,21.398,30.892,6.332,3.555,0.333,68.915,0.837,-2.221,273.007,77.167,68033.714,34.331,102.768
甘肃,白银市,58.954,101.177,6.464,7.747,0.431,43.464,0.067,-3.105,280.023,60.222,82071.033,36.59,104.646
甘肃,酒泉市,31.032,46.896,0.817,1.057,0.143,66.118,5.408,-0.852,274.806,29.647,79710.358,40.236,96.062
甘肃,金昌市,76.522,194.449,4.023,7.443,0.257,57.309,3.07,-2.213,278.453,44.802,81226.525,38.44,102.048
甘肃,陇南市,25.166,40.848,12.56,6.838,0.397,46.793,-0.8,-1.123,279.647,81.48,82753.372,33.599,105.224
福建,三明市,27.056,32.003,9.35,12.57,0.484,56.338,-2.012,-0.032,289.549,90.499,95607.066,26.29,117.395
福建,南平市,21.397,25.742,7.038,8.655,0.382,63.179,-1.577,0.062,288.859,85.795,96410.102,27.324,118.143
福建,厦门市,20.485,38.223,8.873,18.157,0.445,81.627,-4.462,-4.887,293.86,78.942,100756.012,24.642,118.11
福建,宁德市,18.92,26.727,6.267,10.845,0.366,66.806,-1.441,-1.856,288.946,86.692,95742.857,26.968,119.474
福建,泉州市,21.194,33.131,7.046,13.445,0.409,78.844,-3.205,-2.492,291.36,85.833,97013.765,25.201,118.249
福建,漳州市,23.096,37.713,7.887,14.358,0.452,79.892,-3.581,-2.559,292.83,82.257,98587.976,24.372,117.444
福建,福州市,17.584,29.145,6.313,14.989,0.395,74.494,-2.535,-3.286,290.899,85.796,97814.993,26.083,119.206
福建,莆田市,17.882,29.401,6.975,13.335,0.385,83.24,-3.533,-4.212,292.143,84.156,98546.927,25.445,118.864
福建,龙岩市,31.128,39.457,9.254,14.597,0.508,59.864,-1.244,-0.174,291.82,85.764,95553.307,25.256,116.739
西藏,山南市,12.923,14.675,1.188,1.642,0.177,92.06,4.645,1.465,277.055,55.682,66486.391,28.295,92.274
西藏,拉萨市,9.552,12.024,0.192,3.868,0.15,82.689,7.015,2.144,271.273,34.388,56808.15,30.043,91.093
西藏,日喀则市,4.052,4.572,0.288,0.483,0.128,87.452,8.513,2.086,268.059,34.648,55575.664,29.483,86.493
西藏,昌都市,4.645,5.381,0.371,0.749,0.145,85.891,3.755,2.26,270.664,67.627,59393.447,30.753,97.044
西藏,林芝市,8.914,9.584,0.797,1.392,0.162,91.932,0.763,2.262,275.428,73.186,66756.997,29.184,95.25
西藏,玉树藏族自治州,3.121,3.302,0.267,0.331,0.129,90.394,1.501,-0.336,265.496,61.275,57639.741,34.196,94.317
西藏,那曲市,2.176,2.381,0.23,0.206,0.129,91.214,2.165,1.18,266.058,53.467,55658.287,32.709,89.262
西藏,阿里地区,2.396,2.68,0.471,0.443,0.131,95.243,5.114,0.229,263.5,46.121,54998.336,33.013,82.553
贵州,六盘水市,22.817,38.159,11.879,11.946,0.568,47.174,0.729,2.987,288.966,81.198,83507.12,26.106,104.896
贵州,安顺市,26.937,41.594,10.179,8.048,0.481,47.254,-1.866,2.24,289.903,89.185,88575.254,25.986,105.978
贵州,毕节市,16.333,29.582,9.056,13.156,0.714,38.265,0.176,-0.779,285.241,89.03,83901.765,27.063,105.211
贵州,贵阳市,25.958,40.248,7.241,15.361,0.6,26.109,-0.403,0.841,287.375,91.185,88674.988,26.845,106.71
贵州,遵义市,27.45,38.886,15.649,13.399,0.564,32.013,-1.574,-1.383,284.62,93.108,90936.375,28.167,107.102
贵州,铜仁市,17.637,32.377,12.646,8.908,0.678,41.479,-2.313,-1.277,284.347,94.274,93335.277,27.937,108.534
贵州,黔东南苗族侗族自治州,18.945,37.714,16.917,7.749,0.652,35.563,-1.798,-1.455,286.095,95.328,93180.546,26.495,108.574
贵州,黔南布依族苗族自治州,24.956,40.073,13.422,6.093,0.55,35.892,-1.395,0.744,288.978,93.015,90823.239,26.0,107.265
贵州,黔西南布依族苗族自治州,23.192,37.301,10.606,4.521,0.447,56.628,-0.234,3.988,292.015,85.387,88925.78,25.256,105.467
辽宁,丹东市,60.725,90.882,15.968,30.648,1.212,59.674,0.04,1.945,282.472,64.87,99362.829,40.554,124.376
辽宁,大连市,64.971,86.93,11.822,27.436,0.902,107.305,2.106,3.129,286.87,65.664,101527.615,39.591,122.22
辽宁,抚顺市,66.174,98.457,16.017,36.418,1.348,57.64,1.062,6.789,282.543,57.891,97515.912,41.841,124.65
辽宁,朝阳市,77.694,111.981,19.223,39.061,1.313,78.012,5.602,4.213,284.705,37.185,96798.933,41.545,120.053
辽宁,本溪市,59.88,91.658,15.704,32.351,1.341,57.088,0.981,5.434,281.974,60.773,96920.391,41.232,124.544
辽宁,沈阳市,96.15,140.061,26.051,45.802,1.591,78.842,2.201,8.215,285.699,51.986,101489.47,42.081,123.159
辽宁,盘锦市,82.328,111.855,20.173,36.709,1.408,105.556,5.385,6.773,287.679,45.884,102167.724,41.13,122.01
辽宁,营口市,64.433,92.443,11.226,26.81,0.993,114.944,3.07,5.625,286.202,62.298,100079.887,40.395,122.478
辽宁,葫芦岛市,98.666,133.24,27.25,60.945,1.886,66.955,5.883,4.128,285.835,37.293,99660.798,40.66,120.215
辽宁,辽阳市,67.767,102.545,17.395,34.423,1.403,86.138,2.049,7.3,285.481,60.727,100255.824,41.153,123.261
辽宁,铁岭市,84.469,124.974,21.568,47.768,1.447,67.217,1.366,8.481,284.399,56.207,99961.574,42.653,124.158
辽宁,锦州市,98.245,124.722,23.659,44.01,1.593,84.084,4.492,6.635,286.548,36.231,101278.89,41.502,121.659
辽宁,阜新市,99.81,125.5,24.264,39.894,1.361,72.862,2.948,6.275,285.06,37.192,99718.153,42.289,121.968
辽宁,鞍山市,67.137,99.143,14.046,31.481,1.246,94.435,2.387,5.343,285.226,62.125,100354.835,40.731,123.007
重庆,重庆城区,26.758,41.764,14.122,21.023,0.612,28.641,-1.154,-0.425,286.36,83.394,95551.144,29.824,107.125
重庆,重庆郊县,27.291,41.286,16.004,10.848,0.527,40.408,-2.463,-0.187,283.721,88.47,91702.408,30.334,108.755
陕西,咸阳市,45.953,56.396,8.313,29.819,0.731,32.493,-0.102,-0.034,282.419,67.702,92146.673,34.779,108.367
陕西,商洛市,35.62,46.697,9.627,9.23,0.457,55.287,-0.184,-0.604,281.179,75.777,89997.788,33.64,109.889
陕西,安康市,30.942,43.906,12.446,10.993,0.479,44.113,-1.224,-0.271,281.204,80.542,90539.76,32.735,108.932
陕西,宝鸡市,34.593,48.369,7.87,19.942,0.518,40.934,-0.312,-0.214,280.354,81.452,86969.848,34.386,107.193
陕西,延安市,50.489,71.062,15.197,23.429,0.88,35.995,1.475,0.964,281.048,67.462,88128.485,36.432,109.316
陕西,榆林市,53.929,71.905,16.853,26.38,0.848,42.471,2.262,1.508,281.908,66.128,88439.237,38.041,109.581
陕西,汉中市,29.436,40.888,11.702,9.915,0.439,44.92,-1.706,-0.712,281.534,77.461,89587.6,33.088,107.098
陕西,渭南市,55.883,76.531,10.341,38.611,0.951,27.542,0.547,-0.197,283.405,58.223,94510.047,34.919,109.855
陕西,西安市,45.013,55.827,7.35,28.87,0.706,35.314,0.112,-0.337,281.883,72.866,91210.894,34.12,108.77
陕西,铜川市,50.676,64.374,12.221,29.874,0.808,30.289,0.412,0.019,280.984,65.979,89795.516,35.198,109.058
青海,保亭黎族苗族自治县,11.066,17.902,1.618,3.308,0.362,54.174,-5.848,-1.106,296.844,90.172,97377.092,18.566,109.618
青海,吐鲁番市,16.184,23.876,2.389,3.504,0.224,63.845,0.321,-0.879,279.401,31.819,91130.754,42.386,89.851
青海,果洛藏族自治州,7.61,7.87,0.371,0.549,0.129,84.991,2.613,-2.536,268.38,61.167,60350.082,34.127,99.404
青海,海东市,46.556,56.527,9.352,9.633,0.396,55.668,-0.345,0.205,275.359,73.059,73242.11,36.347,102.34
青海,海北藏族自治州,18.118,20.759,0.797,1.084,0.135,80.434,4.838,-0.776,268.934,57.925,65690.999,37.775,100.288
青海,海南藏族自治州,13.165,13.862,0.94,0.868,0.137,83.453,4.708,-2.301,272.527,50.245,66924.752,35.89,100.272
青海,海西蒙古族藏族自治州,8.25,8.607,0.295,0.362,0.126,83.296,3.599,-0.606,269.767,40.155,64951.247,36.677,94.519
青海,西宁市,21.61,27.184,3.981,8.148,0.348,70.937,3.709,-1.094,273.252,62.229,69990.295,36.842,101.423
青海,黄南藏族自治州,17.364,19.712,3.31,1.901,0.185,78.617,2.77,-3.062,272.048,64.752,66232.839,35.022,101.631
香港,香港特别行政区,16.82,25.26,5.125,9.545,0.305,98.4,-7.76,-1.195,296.77,84.105,101235.025,22.45,114.22
黑龙江,七台河市,27.632,69.119,10.895,30.89,0.686,45.458,2.323,1.725,282.595,45.99,98894.581,45.87,130.943
黑龙江,伊春市,26.142,43.6,10.31,15.988,0.415,41.547,0.183,3.403,280.745,57.738,97310.498,47.772,129.184
黑龙江,佳木斯市,23.266,44.631,7.153,16.019,0.489,42.172,0.027,-0.049,280.587,62.168,100899.507,47.207,132.11
黑龙江,双鸭山市,23.455,42.521,8.774,16.221,0.554,40.598,1.362,0.531,281.725,58.482,100470.457,46.722,132.643
黑龙江,哈尔滨市,45.876,74.133,16.191,32.282,0.744,54.813,1.36,5.381,282.257,44.715,99156.873,45.634,127.964
黑龙江,大兴安岭地区,18.695,22.682,7.647,3.115,0.255,37.867,-2.7,3.713,275.736,75.548,94978.527,52.286,124.212
黑龙江,大庆市,45.253,85.635,11.974,22.417,0.787,67.243,0.778,6.895,283.346,36.105,100155.925,46.327,124.687
黑龙江,牡丹江市,31.854,67.558,10.435,27.97,0.6,40.969,3.647,2.779,281.591,42.41,96145.632,44.592,129.883
黑龙江,绥化市,52.983,84.949,14.07,28.945,0.765,54.678,-0.228,5.748,282.245,44.414,99492.291,46.89,126.634
黑龙江,鸡西市,27.416,54.779,11.822,22.502,0.516,34.983,2.785,1.178,282.599,53.265,100208.687,45.626,132.289
黑龙江,鹤岗市,20.597,45.349,6.979,10.829,0.508,41.676,-1.158,0.454,280.612,64.157,99849.064,47.661,130.778
黑龙江,黑河市,32.599,48.535,12.938,12.604,0.404,33.665,-2.008,4.276,279.841,59.372,97477.255,49.268,127.004
黑龙江,齐齐哈尔市,42.385,73.779,18.758,18.303,0.577,51.531,-0.679,5.122,282.504,40.152,99240.66,47.715,124.57
