province,city,PM2.5,PM10,SO2,NO2,CO,O3,U,V,TEMP,RH,PSFC,lat,lon
上海,上海市,7.069,21.017,5.163,11.137,0.263,27.828,-5.756,2.536,299.442,88.769,100923.65,31.173,121.42
云南,临沧市,8.044,11.72,2.559,3.635,0.402,37.759,2.64,0.989,293.45,87.044,83455.198,23.935,99.686
云南,丽江市,17.125,25.722,8.72,5.433,0.539,46.548,2.171,2.196,289.501,85.88,74388.897,26.96,100.515
云南,保山市,8.886,15.242,5.067,6.166,0.585,35.069,2.456,1.341,292.16,89.788,81468.318,24.953,98.962
云南,大理白族自治州,9.416,17.104,3.64,4.411,0.418,39.44,2.588,1.966,291.043,86.896,77779.773,25.726,100.053
云南,德宏傣族景颇族自治州,9.033,12.423,6.973,6.042,0.519,37.133,1.844,1.354,293.768,91.048,85569.055,24.535,98.052
云南,怒江傈僳族自治州,11.022,14.808,1.666,1.741,0.237,44.603,2.423,1.005,286.912,96.268,72599.804,26.916,98.885
云南,文山壮族苗族自治州,15.765,23.726,4.895,4.453,0.297,59.327,-1.345,2.464,294.333,86.248,86047.264,23.696,104.735
云南,昆明市,16.184,24.901,5.875,9.614,0.428,49.971,1.288,5.176,291.794,83.159,78909.1,25.384,102.863
云南,昭通市,17.947,27.313,7.652,7.042,0.383,60.857,1.603,5.088,295.976,73.595,83409.126,27.667,103.985
云南,普洱市,8.664,12.044,2.223,2.867,0.261,41.042,0.45,1.599,294.626,85.784,85466.709,23.159,100.718
云南,曲靖市,16.333,24.068,7.068,7.557,0.425,56.348,1.065,5.356,291.899,84.982,79677.296,25.737,103.929
云南,楚雄彝族自治州,12.081,17.064,3.523,3.501,0.371,43.533,1.52,4.766,293.199,80.82,80574.188,25.328,101.567
云南,玉溪市,11.778,18.222,3.665,4.038,0.255,54.636,-0.052,4.014,293.672,83.268,83049.178,24.136,102.217
云南,红河哈尼族彝族自治州,13.29,21.847,5.196,3.447,0.256,62.85,-1.087,2.655,293.919,86.018,84696.02,23.451,103.034
云南,西双版纳傣族自治州,7.535,12.183,2.289,3.776,0.384,31.337,0.509,0.713,295.87,85.402,88374.058,21.939,100.912
云南,迪庆藏族自治州,12.588,15.824,2.503,1.951,0.274,52.951,3.778,2.567,284.03,93.359,67213.268,27.957,99.459
内蒙古,乌兰察布市,26.791,37.486,15.329,10.439,0.435,96.692,-1.479,7.94,292.794,64.257,85672.224,41.691,112.44
内蒙古,乌海市,19.282,45.78,20.842,13.836,0.651,107.94,-2.349,7.5,295.279,60.098,86941.128,39.396,106.856
内蒙古,兴安盟,27.654,31.162,5.981,2.353,0.274,81.652,-1.56,2.419,295.07,71.699,94650.956,46.244,121.341
内蒙古,包头市,24.601,37.251,13.398,10.053,0.426,102.722,-1.017,9.135,293.157,60.183,85474.136,41.549,110.276
内蒙古,呼伦贝尔市,9.973,11.157,2.043,1.817,0.194,63.991,0.635,1.768,291.015,59.177,93411.276,49.636,121.171
内蒙古,呼和浩特市,16.741,32.84,9.885,16.498,0.68,95.205,-2.62,6.008,292.259,67.266,85997.371,40.578,111.513
内蒙古,巴彦淖尔市,29.206,38.899,11.497,4.494,0.283,104.588,-0.135,7.928,295.94,48.447,86566.974,41.446,107.582
内蒙古,赤峰市,27.052,35.7,9.335,5.222,0.317,84.524,-2.099,3.155,295.336,64.515,91758.624,43.226,118.892
内蒙古,通辽市,24.924,30.681,6.859,5.317,0.261,82.963,-2.267,3.206,297.158,68.088,97569.603,43.814,121.591
内蒙古,鄂尔多斯市,21.819,40.186,14.182,7.448,0.538,97.942,-1.847,7.063,293.496,69.591,86453.666,39.407,108.63
内蒙古,锡林郭勒盟,29.664,36.807,12.202,4.044,0.334,94.534,-1.869,7.011,295.577,52.599,88764.191,44.179,115.482
内蒙古,阿拉善盟,38.971,42.781,4.454,2.41,0.164,88.962,3.0,0.811,298.29,34.604,86597.804,40.473,102.467
北京,北京市,31.563,40.631,4.119,15.385,0.616,76.607,-2.076,1.321,295.582,79.852,97403.381,40.158,116.395
台湾,台湾省,5.768,11.065,4.007,13.023,0.106,28.22,1.129,-4.156,297.007,71.895,92060.459,23.757,120.975
吉林,吉林市,18.815,26.26,4.308,7.585,0.363,69.556,-2.181,1.762,294.498,80.571,97136.895,43.573,126.859
吉林,四平市,24.423,37.206,6.235,15.151,0.494,73.028,-2.219,2.339,296.632,72.244,99162.689,43.472,124.386
吉林,延边朝鲜族自治州,14.005,19.094,3.254,4.517,0.252,56.88,-1.627,1.559,289.238,89.591,94468.671,43.141,129.147
吉林,松原市,24.975,36.712,7.252,8.156,0.375,82.036,-0.391,3.697,297.861,68.712,99517.075,44.785,124.496
吉林,白城市,25.06,30.962,6.981,4.073,0.255,77.792,-0.76,3.486,298.795,66.11,99537.059,45.35,123.031
吉林,白山市,16.801,22.48,5.055,6.354,0.477,53.325,-2.648,1.889,290.679,89.192,92490.906,42.063,127.256
吉林,辽源市,17.667,27.079,4.568,12.418,0.496,64.732,-2.507,1.938,294.642,77.11,97408.412,42.836,125.32
吉林,通化市,14.958,23.073,5.847,8.865,0.714,44.817,-3.328,1.552,292.346,85.459,95704.098,41.939,125.927
吉林,长春市,23.184,38.059,4.959,14.216,0.479,73.429,-1.09,2.609,296.625,74.356,99146.754,44.268,125.611
四川,乐山市,25.786,39.775,7.873,11.513,0.541,60.279,-0.499,-0.794,295.58,89.932,88573.683,29.218,103.569
四川,内江市,16.826,30.527,7.904,13.443,0.649,59.65,-0.351,-0.757,300.017,82.87,95301.164,29.62,104.95
四川,凉山彝族自治州,21.556,28.694,10.765,5.68,0.568,50.804,3.36,5.048,289.669,83.008,73888.453,27.883,102.065
四川,南充市,17.283,29.039,7.861,17.488,0.603,54.019,-3.432,3.718,301.403,72.034,95414.078,31.19,106.199
四川,宜宾市,26.852,38.798,8.309,12.479,0.61,67.782,0.154,-0.574,300.001,78.837,93725.058,28.573,104.621
四川,巴中市,16.382,28.622,9.024,11.014,0.495,47.444,-4.282,4.583,298.163,79.472,91474.719,32.033,107.031
四川,广元市,15.219,27.611,12.862,14.469,0.644,29.706,-3.562,2.948,296.497,89.379,90561.775,32.261,105.788
四川,广安市,17.964,31.5,7.061,15.146,0.533,60.738,-3.383,6.235,302.494,64.461,95444.803,30.43,106.628
四川,德阳市,11.474,20.863,6.764,13.274,0.628,45.272,-0.687,-1.611,296.568,90.815,91989.7,31.13,104.436
四川,成都市,13.815,24.286,7.838,14.49,0.581,47.702,-0.873,-1.68,296.71,90.07,92117.861,30.64,103.929
四川,攀枝花市,27.031,42.459,39.663,19.272,1.433,31.205,0.728,4.334,294.537,75.366,81010.671,26.791,101.734
四川,泸州市,15.666,25.717,9.147,10.059,0.381,67.267,-0.803,5.941,300.8,68.729,92257.365,28.424,105.675
四川,甘孜藏族自治州,15.627,17.195,2.129,1.188,0.151,81.379,2.233,2.515,281.867,85.719,61258.781,30.936,100.009
四川,眉山市,18.166,32.767,8.169,14.881,0.591,53.733,0.017,-1.575,297.009,90.41,92538.53,29.912,103.766
四川,绵阳市,21.891,31.876,9.837,11.013,0.578,52.265,-1.185,0.778,294.071,93.752,87065.46,31.86,104.704
四川,自贡市,21.103,33.905,8.459,13.838,0.675,59.978,-0.252,-1.337,299.997,81.988,95268.135,29.307,104.659
四川,资阳市,18.387,31.073,6.867,12.364,0.646,61.194,-0.761,-0.059,300.182,83.059,95550.458,30.102,105.149
四川,达州市,16.992,30.254,9.773,13.65,0.415,62.862,-4.237,5.089,300.01,71.461,93017.857,31.335,107.636
四川,遂宁市,20.405,32.083,7.051,15.225,0.677,63.696,-1.917,1.034,300.831,79.15,95789.34,30.642,105.457
四川,阿坝藏族羌族自治州,28.379,35.115,8.514,2.072,0.288,62.842,-1.081,3.985,283.628,90.034,65459.094,32.406,102.61
四川,雅安市,23.501,34.776,8.851,6.454,0.376,73.489,-1.506,-0.37,290.542,93.837,79463.07,29.932,102.689
天津,天津市,23.618,35.841,7.23,20.257,0.675,77.3,-4.095,0.274,296.551,79.096,100954.154,39.315,117.308
宁夏,中卫市,22.163,36.816,8.378,5.037,0.319,82.342,1.334,3.703,292.44,71.116,83018.311,37.018,105.509
宁夏,吴忠市,25.554,42.178,11.779,6.442,0.329,82.508,-0.649,4.896,292.416,76.459,84535.777,37.454,106.577
宁夏,固原市,20.558,30.139,7.3,8.506,0.435,71.29,-1.294,3.347,289.283,92.847,80586.44,35.905,106.183
宁夏,石嘴山市,17.407,45.517,14.661,14.671,0.613,101.721,-0.811,5.066,294.531,63.642,86083.418,39.013,106.499
宁夏,银川市,21.216,46.129,10.052,14.718,0.457,91.253,-1.297,4.523,294.659,65.031,86368.328,38.287,106.342
安徽,亳州市,25.991,44.584,9.06,14.5,0.706,38.031,-2.535,-2.609,300.801,80.672,100400.376,33.44,116.162
安徽,六安市,26.565,42.393,7.051,11.699,0.49,81.209,-1.017,1.341,301.912,73.373,97997.507,31.617,116.209
安徽,合肥市,25.742,44.296,6.187,22.423,0.629,78.62,-2.352,1.875,303.249,69.514,100261.888,31.766,117.359
安徽,安庆市,23.562,41.284,6.351,11.717,0.509,77.171,-1.335,0.509,302.25,70.464,98410.348,30.557,116.473
安徽,宣城市,14.714,26.659,4.455,11.72,0.373,66.698,-4.116,2.358,301.52,70.381,98420.231,30.676,118.846
安徽,宿州市,31.951,49.656,8.021,18.066,0.723,41.486,-2.739,-1.262,300.874,80.143,100379.411,33.844,117.23
安徽,池州市,20.121,31.595,4.691,9.163,0.419,68.136,-2.684,0.733,302.613,68.711,98573.495,30.296,117.379
安徽,淮北市,26.67,44.587,9.198,22.934,0.843,28.781,-2.828,-2.721,300.587,82.006,100411.438,33.722,116.747
安徽,淮南市,42.993,67.216,11.344,16.146,0.694,65.885,-0.971,0.592,302.573,75.416,100408.21,32.463,116.746
安徽,滁州市,30.915,52.81,7.079,21.887,0.587,73.924,-2.812,3.107,302.843,72.207,100199.914,32.55,118.076
安徽,芜湖市,20.24,35.761,6.757,15.89,0.532,78.106,-3.297,1.496,303.052,69.48,100446.558,31.167,118.162
安徽,蚌埠市,42.111,63.24,9.759,16.496,0.607,54.553,-1.608,1.112,302.612,74.306,100409.635,33.121,117.263
安徽,铜陵市,23.882,40.878,8.601,21.092,0.588,77.406,-2.462,0.816,303.191,68.068,100279.846,30.883,117.531
安徽,阜阳市,26.461,49.155,10.6,11.97,0.669,42.775,-2.236,-2.138,301.277,79.606,100354.797,32.937,115.723
安徽,马鞍山市,22.695,43.851,8.112,20.124,0.628,82.364,-4.034,2.164,302.804,72.304,100470.401,31.622,118.386
安徽,黄山市,16.755,28.089,5.092,8.446,0.424,53.937,-4.25,0.234,300.753,72.489,96503.233,29.869,118.09
山东,东营市,10.584,21.99,5.59,7.643,0.268,66.289,-4.678,-2.552,296.403,83.777,100945.27,37.57,118.572
山东,临沂市,16.657,27.519,5.422,16.052,0.517,48.571,-3.211,-2.156,297.362,88.525,99083.225,35.289,118.27
山东,威海市,6.168,14.771,4.153,9.546,0.25,34.638,-0.842,2.168,296.003,97.927,100319.711,37.148,122.028
山东,德州市,22.09,34.191,5.318,10.841,0.45,68.061,-4.32,-1.882,298.991,72.175,100745.059,37.233,116.679
山东,日照市,13.6,21.251,5.242,18.897,0.449,37.987,-2.297,-1.88,296.394,94.421,99211.33,35.566,119.108
山东,枣庄市,19.322,32.768,6.832,15.634,0.597,51.864,-4.198,-1.935,298.61,82.441,99743.346,34.925,117.383
山东,泰安市,24.947,44.671,7.286,18.957,0.669,61.376,-2.882,-0.988,298.304,75.31,98996.377,35.993,117.04
山东,济南市,26.83,44.838,6.618,20.078,0.699,54.924,-3.707,-1.46,298.049,75.98,99011.549,36.639,117.254
山东,济宁市,23.008,40.153,8.764,19.043,0.682,59.428,-2.88,-1.73,299.472,73.304,100184.359,35.375,116.697
山东,淄博市,22.242,36.355,6.353,18.888,0.689,48.401,-3.573,-1.681,296.727,82.651,98448.748,36.623,118.062
山东,滨州市,13.786,24.565,5.597,9.627,0.372,63.901,-4.599,-2.164,297.622,77.396,100869.542,37.516,117.852
山东,潍坊市,15.536,24.914,5.657,17.313,0.451,43.125,-1.95,-2.437,296.616,88.233,99802.757,36.53,119.092
山东,烟台市,9.029,18.361,4.238,10.963,0.313,39.029,-2.826,-1.679,295.24,94.822,99823.215,37.25,120.789
山东,聊城市,33.493,47.734,6.111,18.764,0.659,62.519,-2.918,-1.851,299.803,69.977,100477.001,36.458,115.863
山东,菏泽市,31.66,46.981,7.521,18.222,0.809,61.351,-2.591,-2.075,299.789,72.641,100320.428,35.134,115.69
山东,青岛市,10.027,18.622,4.765,17.911,0.362,29.021,-2.619,0.559,296.847,93.692,100309.383,36.46,120.172
山西,临汾市,28.719,41.93,8.902,15.682,0.857,66.35,-3.32,2.419,292.681,86.546,89629.546,36.227,111.398
山西,吕梁市,22.769,38.459,9.401,27.961,0.763,61.733,-3.845,3.478,291.854,83.069,87320.339,37.663,111.27
山西,大同市,24.445,35.073,8.364,11.016,0.484,97.513,-3.358,3.904,291.457,78.753,87078.081,39.911,113.713
山西,太原市,24.125,39.566,5.72,30.979,0.696,56.265,-4.264,1.667,291.129,87.006,87314.569,37.967,112.321
山西,忻州市,23.3,34.196,8.605,13.497,0.49,78.799,-4.099,4.208,290.843,81.797,85881.802,38.877,112.391
山西,晋中市,25.422,37.766,5.53,16.006,0.643,78.238,-4.024,1.384,291.881,86.331,88221.182,37.328,112.997
山西,晋城市,26.36,41.918,6.057,16.03,0.967,74.292,-3.202,2.342,292.631,88.993,90077.412,35.625,112.752
山西,朔州市,16.929,29.747,8.763,11.878,0.586,97.814,-3.147,4.984,291.462,74.486,86357.828,39.619,112.655
山西,运城市,21.243,32.8,5.912,13.773,1.024,65.791,-5.877,1.964,294.833,82.935,93588.309,35.205,111.071
山西,长治市,23.519,35.612,6.249,13.795,0.887,81.396,-4.051,1.514,292.071,88.252,88495.033,36.48,112.915
山西,阳泉市,25.986,37.879,7.959,18.792,0.573,70.497,-4.916,0.074,291.774,90.692,90096.255,38.031,113.512
广东,东莞市,15.178,31.342,6.94,22.674,0.524,54.804,-4.721,-0.194,302.051,72.9,100176.591,22.931,113.81
广东,中山市,14.76,29.012,7.988,18.682,0.39,65.481,-5.94,0.332,301.77,77.023,100167.521,22.5,113.383
广东,云浮市,20.339,34.176,9.094,17.95,0.502,65.309,-5.818,-0.103,301.003,74.062,98207.993,22.776,111.818
广东,佛山市,19.601,37.957,8.184,26.273,0.589,67.344,-4.723,-0.21,302.688,68.904,100200.89,23.035,112.979
广东,广州市,13.888,27.29,5.481,19.891,0.445,52.25,-4.692,-0.162,302.204,67.518,99352.469,23.339,113.525
广东,惠州市,13.613,23.821,4.746,10.862,0.408,52.036,-4.225,-0.642,300.913,72.771,98433.38,23.244,114.485
广东,揭阳市,19.954,40.377,10.324,15.65,0.792,63.934,-3.789,-1.807,300.65,74.509,99026.075,23.323,116.123
广东,梅州市,16.792,32.892,6.642,13.006,0.734,56.268,-2.449,-0.841,300.661,68.614,97063.963,24.169,116.07
广东,汕头市,16.048,32.405,9.926,13.727,0.578,66.036,-4.33,-2.313,300.697,76.224,100114.172,23.339,116.614
广东,汕尾市,15.561,28.751,5.986,10.038,0.53,61.256,-4.554,-1.29,300.711,75.56,98756.418,23.024,115.527
广东,江门市,12.936,22.872,5.959,13.243,0.3,60.615,-6.725,-0.544,301.523,76.104,99601.09,22.289,112.676
广东,河源市,18.636,31.298,5.39,10.744,0.592,52.953,-2.564,-1.368,300.748,70.115,97254.706,24.021,114.969
广东,深圳市,13.537,27.839,7.181,19.627,0.448,53.22,-5.974,0.562,301.506,77.238,99712.417,22.667,114.143
广东,清远市,13.536,21.76,3.596,10.126,0.397,50.762,-2.911,-0.534,300.602,71.314,96790.899,24.295,112.871
广东,湛江市,8.906,15.448,4.547,7.262,0.375,37.68,-6.997,-2.402,301.721,77.57,99886.431,21.091,110.163
广东,潮州市,17.038,35.481,7.932,13.695,0.699,64.319,-3.462,-1.988,300.316,71.092,98489.141,23.755,116.754
广东,珠海市,7.092,13.58,3.502,6.043,0.152,52.448,-7.707,-0.287,301.57,79.048,100231.233,22.095,113.317
广东,肇庆市,15.441,25.657,4.874,15.343,0.418,52.65,-5.051,-0.497,301.588,70.042,98337.46,23.505,112.199
广东,茂名市,12.646,20.051,6.512,8.796,0.347,44.912,-7.705,-1.347,301.266,72.097,98210.777,22.013,110.952
广东,阳江市,11.786,18.446,5.368,9.712,0.248,48.635,-7.098,-1.652,300.993,75.816,98757.181,22.042,111.786
广东,韶关市,17.334,27.667,5.916,11.215,0.749,53.446,-2.367,-0.601,300.392,70.36,96047.269,24.785,113.819
广西,北海市,17.003,27.199,6.386,11.798,0.707,36.55,-5.658,-1.839,302.536,70.332,99958.571,21.674,109.37
广西,南宁市,18.365,33.495,7.925,12.607,0.6,54.317,-4.192,-0.821,302.016,68.737,98249.946,23.051,108.469
广西,崇左市,16.807,29.422,6.501,8.442,0.476,50.522,-3.212,-1.37,301.102,73.377,96993.174,22.483,107.291
广西,来宾市,17.701,29.868,6.442,8.117,0.385,61.209,-4.402,0.847,301.552,67.349,97154.367,23.859,109.417
广西,柳州市,16.322,26.111,6.094,7.543,0.341,59.478,-2.401,1.14,301.231,68.681,96594.784,24.956,109.372
广西,桂林市,17.746,25.233,6.477,7.128,0.343,53.092,-2.241,1.307,300.271,69.988,95055.175,25.353,110.513
广西,梧州市,16.705,29.523,8.206,12.539,0.513,51.435,-5.32,0.026,301.293,70.782,97954.893,23.484,110.996
广西,河池市,16.802,29.722,6.821,6.5,0.417,55.723,-2.751,1.372,299.482,75.299,94342.443,24.628,107.843
广西,玉林市,20.525,35.438,10.136,12.661,0.67,51.058,-5.752,-1.332,301.59,70.456,98290.916,22.452,110.164
广西,百色市,20.669,32.794,7.414,5.787,0.464,60.387,-2.3,1.632,298.214,79.065,92319.843,23.981,106.292
广西,贵港市,22.386,39.076,9.975,12.382,0.584,62.579,-5.368,-0.752,302.004,68.586,98749.754,23.322,110.021
广西,贺州市,12.54,20.545,4.716,6.568,0.363,46.342,-3.86,0.852,300.746,68.86,96235.883,24.364,111.394
广西,钦州市,18.442,33.088,7.923,12.379,0.808,44.312,-4.255,-1.515,302.3,71.24,99296.487,22.173,109.01
广西,防城港市,18.442,28.586,8.317,10.543,0.655,43.107,-3.398,-1.73,301.146,76.436,97769.866,21.88,108.002
新疆,乌鲁木齐市,24.352,29.308,2.696,5.521,0.187,83.881,4.898,-5.369,294.171,34.653,83619.205,43.746,87.818
新疆,五家渠市,38.64,44.203,4.49,9.15,0.2,82.477,4.74,-2.993,303.37,22.423,95178.7,44.363,87.517
新疆,伊犁哈萨克自治州,10.439,13.06,2.052,2.914,0.181,82.362,2.493,-0.932,291.928,41.326,80153.443,43.438,82.146
新疆,克孜勒苏柯尔克孜自治州,6.886,13.368,0.855,2.121,0.191,95.298,0.008,-1.788,289.57,39.56,70641.425,39.661,75.949
新疆,克拉玛依市,19.741,22.32,3.139,2.584,0.284,91.056,1.619,-2.481,304.155,20.841,95901.936,45.457,85.207
新疆,北屯市,16.216,17.25,4.608,2.262,0.242,69.738,1.946,-3.122,299.026,31.506,94131.348,47.27,87.868
新疆,博尔塔拉蒙古自治州,23.588,24.88,2.126,1.765,0.149,73.017,2.77,-1.139,297.021,30.892,85560.907,44.714,82.114
新疆,双河市,27.16,28.846,2.44,2.354,0.154,66.32,0.286,-4.15,305.202,20.102,96413.912,44.87,82.474
新疆,可克达拉市,15.812,24.352,3.972,8.25,0.308,86.328,-0.124,-0.19,302.368,27.574,93681.216,43.918,80.786
新疆,和田地区,9.798,13.644,0.411,0.837,0.101,82.145,-2.287,-0.664,293.186,32.3,73743.792,37.059,80.934
新疆,哈密市,24.464,25.705,1.633,2.609,0.216,77.126,3.808,-2.266,297.014,31.457,87311.973,43.042,93.517
新疆,喀什地区,10.487,17.388,0.976,3.062,0.164,81.929,-2.221,0.483,294.703,32.953,75808.35,38.125,77.178
新疆,图木舒克市,8.745,11.623,0.98,0.833,0.112,79.508,-4.72,-1.482,304.983,17.385,88253.252,39.892,79.182
新疆,塔城地区,15.537,16.334,2.14,1.344,0.232,72.572,2.532,-2.972,297.629,30.361,88652.158,45.642,84.789
新疆,巴音郭楞蒙古自治州,15.853,16.46,0.836,0.504,0.104,89.011,0.245,-1.962,294.09,31.092,78738.192,39.463,87.481
新疆,新星市,22.83,34.605,3.12,18.2,0.685,70.19,1.2,-2.75,301.615,22.42,91438.25,42.75,93.68
新疆,昆玉市,18.82,46.707,1.767,4.58,0.14,81.95,-1.33,0.03,305.593,15.613,86030.077,37.457,79.093
新疆,昌吉回族自治州,28.626,30.351,2.933,3.315,0.155,73.688,5.336,-2.316,297.794,30.314,88898.592,44.342,88.608
新疆,石河子市,20.47,23.505,4.83,7.075,0.18,77.18,5.745,-1.16,302.41,24.24,93457.67,44.245,86.035
新疆,胡杨河市,29.116,30.626,2.018,1.738,0.236,76.692,4.578,-0.918,304.89,21.77,96371.084,44.852,84.772
新疆,铁门关市,17.323,25.673,3.383,4.563,0.183,94.683,0.123,-1.203,303.57,19.347,90568.28,41.773,85.66
新疆,阿克苏地区,15.757,25.064,1.246,1.145,0.127,87.934,-1.529,-2.599,300.033,21.729,84575.241,40.965,81.578
新疆,阿勒泰地区,12.534,12.905,2.162,1.032,0.157,72.955,0.593,-2.378,294.789,33.668,87538.73,46.902,88.421
新疆,阿拉尔市,18.233,37.263,1.408,1.852,0.137,91.311,-3.788,-2.187,304.525,17.366,89076.12,40.629,80.998
江苏,南京市,22.054,42.036,7.33,23.2,0.553,79.198,-4.483,3.268,302.61,71.59,100554.242,31.899,118.876
江苏,南通市,11.578,26.319,8.392,15.112,0.304,40.961,-5.03,4.833,300.202,80.936,100897.606,32.201,120.979
江苏,宿迁市,42.116,67.602,7.846,20.275,0.702,45.377,-2.439,2.102,301.853,78.989,100634.594,33.765,118.495
江苏,常州市,17.333,35.616,6.723,22.267,0.493,70.494,-5.424,4.309,301.675,71.737,100676.36,31.613,119.666
江苏,徐州市,26.405,43.675,7.266,19.208,0.732,37.222,-3.309,-2.218,299.61,84.293,100413.304,34.363,117.513
江苏,扬州市,32.478,57.282,8.457,28.021,0.664,78.495,-4.097,4.934,302.124,74.122,100746.805,32.709,119.486
江苏,无锡市,16.525,37.265,8.0,22.968,0.506,58.694,-5.61,4.388,300.964,74.78,100628.818,31.546,120.066
江苏,泰州市,26.23,49.206,9.075,24.54,0.621,70.217,-4.542,5.278,301.425,75.073,100767.479,32.605,120.048
江苏,淮安市,40.278,64.705,7.772,23.627,0.69,57.193,-2.859,4.148,302.341,75.658,100652.663,33.362,118.985
江苏,盐城市,23.402,41.962,8.694,18.199,0.519,56.219,-3.8,5.314,300.711,81.236,100810.129,33.529,120.156
江苏,苏州市,12.623,30.878,7.886,19.946,0.402,41.174,-5.708,3.653,300.224,80.799,100835.121,31.374,120.661
江苏,连云港市,27.857,46.198,8.425,21.398,0.609,37.949,-2.879,0.396,299.549,89.108,100588.566,34.519,119.133
江苏,镇江市,23.094,45.688,7.874,26.341,0.584,75.386,-4.984,4.546,301.929,72.708,100643.954,32.016,119.49
江西,上饶市,20.379,32.318,6.656,8.085,0.544,61.613,-2.963,-0.67,302.592,65.24,98390.32,28.778,117.47
江西,九江市,18.57,33.302,5.011,8.51,0.418,71.024,-1.788,0.495,302.519,69.494,98339.511,29.313,115.444
江西,南昌市,18.056,38.88,7.446,14.765,0.582,67.265,-1.958,-0.675,303.619,67.674,100111.566,28.671,116.016
江西,吉安市,21.178,35.372,6.676,7.567,0.548,64.831,-1.291,-0.373,302.348,67.369,97931.529,26.954,114.831
江西,宜春市,19.139,37.461,7.092,10.853,0.508,66.093,-2.064,-0.375,302.631,68.927,98280.945,28.29,114.974
江西,抚州市,20.72,31.63,6.583,6.678,0.388,63.299,-2.254,-0.026,301.862,70.565,97956.535,27.514,116.42
江西,新余市,24.553,48.112,10.662,14.597,0.63,64.873,-1.784,-0.729,302.985,68.679,99148.052,27.847,114.836
江西,景德镇市,20.756,32.38,5.431,6.727,0.556,56.736,-3.24,-0.69,303.128,66.231,99191.225,29.287,117.24
江西,萍乡市,19.748,37.245,8.778,10.198,0.689,58.862,-1.757,0.436,302.212,64.967,96995.876,27.505,113.908
江西,赣州市,21.905,32.551,7.219,8.993,0.854,60.594,-1.254,-0.937,300.709,72.635,96359.232,25.692,115.279
江西,鹰潭市,20.902,31.879,7.247,8.189,0.523,62.551,-2.391,0.115,302.917,64.163,98865.694,28.222,117.094
河北,保定市,30.305,38.634,5.288,14.227,0.438,78.813,-3.631,-0.424,295.761,81.296,97313.466,39.018,115.159
河北,唐山市,29.646,46.512,11.844,21.915,0.824,77.309,-2.994,0.238,296.037,79.275,100495.594,39.731,118.354
河北,廊坊市,23.388,32.598,4.756,18.392,0.569,74.413,-3.907,-0.007,297.496,75.237,100967.338,39.267,116.632
河北,张家口市,28.092,36.971,7.899,9.368,0.386,95.32,-2.853,4.051,291.387,80.357,87600.457,40.877,115.042
河北,承德市,30.485,41.923,7.486,7.372,0.479,87.11,-0.821,2.13,292.681,80.512,90892.857,41.339,117.578
河北,沧州市,15.518,24.502,3.684,9.482,0.273,75.481,-4.906,-1.481,297.486,77.148,100937.603,38.258,116.744
河北,石家庄市,26.485,37.759,5.843,16.03,0.478,75.165,-3.582,-1.288,296.33,81.476,97772.128,38.135,114.407
河北,秦皇岛市,17.243,31.614,6.156,11.273,0.342,79.761,-2.558,0.116,294.569,82.4,98326.057,40.12,119.193
河北,衡水市,21.995,30.864,4.23,9.751,0.349,73.3,-4.088,-1.46,298.738,73.535,100747.222,37.755,115.813
河北,邢台市,23.807,38.227,4.57,11.74,0.594,80.781,-2.654,-2.034,298.204,75.599,99277.025,37.195,114.815
河北,邯郸市,27.803,44.961,5.944,18.481,0.94,69.506,-2.554,-2.336,298.364,74.626,98786.137,36.538,114.596
河南,三门峡市,22.25,33.555,5.488,10.642,0.815,63.719,-4.69,3.01,293.881,88.718,91278.335,34.362,111.101
河南,信阳市,26.828,44.417,9.435,9.372,0.553,60.091,-1.242,-0.886,300.962,80.929,99411.163,32.091,114.907
河南,南阳市,20.193,31.825,5.384,12.305,0.649,47.252,-4.054,-1.861,298.003,80.567,97451.328,33.034,112.323
河南,周口市,14.757,30.335,7.133,11.632,0.658,53.645,-3.247,-2.599,299.766,80.326,100201.767,33.738,114.884
河南,商丘市,21.786,37.206,6.665,14.065,0.733,49.668,-3.402,-2.341,299.78,78.206,100302.011,34.277,115.718
河南,安阳市,31.607,48.365,7.767,21.031,1.232,63.895,-1.678,-1.814,298.024,76.441,98392.504,35.888,114.318
河南,平顶山市,32.085,39.816,7.337,16.573,0.827,51.387,-2.671,-2.166,297.371,81.26,98140.102,33.8,113.025
河南,开封市,29.592,44.065,4.18,12.047,0.784,74.513,-2.895,-3.041,299.448,74.714,100004.949,34.594,114.514
河南,新乡市,33.373,48.293,5.927,18.108,1.112,72.827,-1.903,-2.529,297.994,78.338,99165.006,35.256,114.111
河南,洛阳市,26.516,39.449,4.671,16.742,0.956,54.231,-3.4,0.008,293.902,91.741,93668.098,34.274,112.019
河南,济源市,28.362,45.016,6.332,21.066,1.068,48.95,-3.764,-0.523,294.392,89.982,95504.852,35.105,112.445
河南,漯河市,21.541,32.951,7.662,12.723,0.689,53.836,-3.023,-2.809,299.43,77.9,100052.37,33.652,113.945
河南,濮阳市,37.383,52.792,6.779,18.908,0.933,60.891,-2.141,-1.436,299.726,71.338,100329.756,35.809,115.283
河南,焦作市,28.041,43.871,5.298,22.988,1.196,52.832,-2.974,-1.457,296.831,83.007,98988.504,35.121,113.163
河南,许昌市,29.986,40.385,6.003,15.994,0.841,60.533,-3.256,-3.045,298.704,77.257,99436.069,34.075,113.707
河南,郑州市,33.744,47.908,4.86,21.037,1.112,55.564,-2.836,-2.473,296.828,83.819,98224.528,34.634,113.438
河南,驻马店市,18.248,34.503,7.803,11.18,0.639,44.326,-2.641,-2.497,299.641,82.14,99720.072,32.925,114.174
河南,鹤壁市,33.064,49.77,8.44,22.684,1.336,61.629,-0.876,-2.313,298.701,74.962,99512.673,35.716,114.319
浙江,丽水市,9.79,16.743,3.045,7.075,0.244,48.058,-4.033,-0.97,297.72,71.503,93932.87,28.194,119.51
浙江,台州市,6.025,16.951,3.288,5.322,0.195,29.132,-4.502,-3.497,298.293,88.346,98096.175,28.742,121.109
浙江,嘉兴市,8.768,21.911,3.75,11.753,0.276,40.474,-5.749,1.549,299.691,84.711,100832.233,30.635,120.754
浙江,宁波市,5.703,16.94,3.45,6.062,0.204,30.34,-5.465,-0.693,298.971,89.176,99623.737,29.706,121.49
浙江,杭州市,15.011,28.476,5.929,14.205,0.407,64.516,-4.214,0.193,299.855,73.617,97937.81,29.891,119.464
浙江,温州市,10.521,20.446,5.263,9.98,0.279,35.832,-3.284,-4.267,297.944,84.43,96881.264,27.897,120.411
浙江,湖州市,14.245,28.863,5.377,17.453,0.419,62.959,-4.975,3.102,300.569,73.308,99538.81,30.757,119.871
浙江,绍兴市,9.401,19.427,4.577,10.067,0.304,43.731,-4.724,0.332,299.709,75.974,98761.198,29.709,120.64
浙江,舟山市,1.058,14.032,0.782,1.338,0.075,27.828,-7.152,-1.358,299.075,93.288,100634.69,30.038,122.23
浙江,衢州市,13.498,21.842,4.926,10.828,0.36,60.495,-4.312,-0.978,301.445,62.128,97098.949,28.912,118.675
浙江,金华市,9.848,18.37,3.96,10.13,0.286,49.366,-4.388,0.215,299.69,70.074,97413.488,29.109,119.967
海南,万宁市,7.351,11.133,1.989,4.224,0.212,45.862,0.19,-3.88,300.613,83.671,98791.153,18.842,110.294
海南,三亚市,10.754,16.451,2.877,8.129,0.48,32.897,0.89,-1.656,300.614,79.686,97615.921,18.413,109.407
海南,东方市,10.397,13.774,2.553,3.495,0.205,54.996,-0.688,-1.521,300.745,80.915,98243.92,18.971,108.838
海南,临高县,7.029,12.549,2.987,4.577,0.33,39.321,-3.471,-2.257,300.823,83.92,99399.04,19.821,109.733
海南,乐东黎族自治县,10.718,14.984,1.947,4.185,0.289,42.762,0.036,-2.272,300.152,80.844,96759.612,18.659,109.072
海南,五指山市,9.972,14.512,1.416,4.616,0.264,38.84,-1.024,-2.514,297.982,85.966,93650.796,18.81,109.518
海南,儋州市,8.892,13.106,2.263,4.109,0.237,43.917,-2.791,-1.536,300.552,83.218,99067.196,19.568,109.399
海南,定安县,7.378,12.723,2.713,5.432,0.435,37.14,-1.633,-2.803,300.503,85.643,99085.307,19.47,110.28
海南,屯昌县,8.138,12.788,2.692,4.922,0.354,40.648,-0.918,-2.314,299.992,86.208,98331.45,19.342,110.076
海南,文昌市,3.273,6.839,0.926,1.803,0.188,45.011,-4.747,-2.774,301.128,85.035,99829.212,19.707,110.773
海南,昌江黎族自治县,10.431,14.182,2.352,4.026,0.201,49.802,-1.937,-1.743,299.842,83.593,97261.601,19.233,109.016
海南,海口市,5.368,11.098,2.606,4.403,0.376,37.665,-3.698,-2.733,301.008,84.815,99656.291,19.842,110.393
海南,澄迈县,7.601,13.417,3.789,5.93,0.456,36.36,-2.479,-2.299,300.663,84.613,99223.423,19.676,109.989
海南,琼中黎族苗族自治县,8.593,12.402,1.686,3.71,0.235,44.324,-0.371,-2.35,299.003,86.431,96211.126,19.087,109.847
海南,琼海市,6.58,10.798,1.917,4.3,0.258,42.692,-1.107,-3.282,300.847,85.002,99605.3,19.22,110.43
海南,白沙黎族自治县,9.482,13.196,1.549,3.371,0.218,46.31,-1.339,-1.308,298.992,85.633,95945.75,19.2,109.388
海南,陵水黎族自治县,8.946,13.351,1.634,5.94,0.321,40.469,0.084,-2.23,300.74,78.996,98144.71,18.581,109.913
湖北,仙桃市,25.304,45.923,7.492,16.633,0.71,72.988,-1.414,0.303,302.797,75.323,100276.733,30.284,113.417
湖北,十堰市,18.141,28.786,8.064,6.662,0.533,55.789,-4.875,0.962,296.725,83.412,92665.032,32.462,110.476
湖北,咸宁市,19.033,30.47,4.596,8.098,0.542,71.943,-1.369,1.562,302.839,68.831,98509.678,29.621,114.178
湖北,天门市,22.429,43.212,8.366,16.552,0.802,64.618,-1.367,-0.112,302.089,78.273,100236.216,30.633,113.053
湖北,孝感市,20.38,36.14,7.962,13.606,0.635,74.468,-1.437,-0.376,301.915,77.69,99694.649,31.116,113.869
湖北,宜昌市,26.679,39.438,7.446,9.259,0.608,59.88,-1.129,1.646,297.622,85.15,93482.69,30.746,111.129
湖北,恩施土家族苗族自治州,20.135,29.097,7.833,4.757,0.472,52.838,-2.012,4.557,295.882,86.377,89095.692,30.195,109.552
湖北,武汉市,26.676,46.236,6.147,23.274,0.683,84.326,-1.482,0.789,302.959,72.125,100198.99,30.606,114.349
湖北,潜江市,28.271,49.48,6.044,18.587,0.889,64.618,-1.326,-0.327,301.984,79.209,100232.954,30.33,112.77
湖北,神农架林区,29.702,35.985,7.643,2.368,0.354,77.099,-0.208,6.04,292.008,92.754,82780.679,31.592,110.49
湖北,荆州市,24.948,42.938,6.659,13.731,0.82,68.514,-1.086,-0.037,302.262,75.982,100001.682,30.01,112.512
湖北,荆门市,20.549,37.999,7.309,13.336,0.73,54.728,-1.068,-0.032,301.104,78.829,99273.356,31.059,112.616
湖北,襄阳市,18.204,32.326,5.943,9.088,0.701,48.769,-2.451,0.368,298.616,83.648,96673.036,31.919,111.96
湖北,鄂州市,25.711,47.039,7.203,20.863,0.713,78.257,-1.2,1.386,303.479,68.837,100249.334,30.337,114.794
湖北,随州市,20.947,35.325,7.738,9.493,0.638,50.858,-2.634,-0.779,299.933,83.94,98644.793,31.809,113.43
湖北,黄冈市,22.133,40.105,7.256,9.63,0.497,77.266,-1.812,1.249,302.443,71.559,98625.422,30.702,115.358
湖北,黄石市,22.151,40.17,6.594,13.18,0.583,79.229,-1.095,1.52,303.032,67.84,99323.533,29.925,115.034
湖南,娄底市,22.069,35.669,10.493,13.519,0.822,54.283,-1.078,2.117,301.814,67.428,96394.073,27.715,111.632
湖南,岳阳市,22.062,34.403,6.12,11.128,0.584,74.37,-1.648,1.328,303.228,67.826,99151.053,29.081,113.275
湖南,常德市,20.549,35.957,9.085,8.294,0.765,63.178,-0.843,-0.389,301.149,78.407,98380.228,29.271,111.524
湖南,张家界市,17.025,31.388,7.985,5.922,0.704,52.962,-2.134,0.783,298.552,85.601,94634.751,29.379,110.526
湖南,怀化市,14.884,28.769,6.077,6.082,0.681,48.4,-0.972,2.349,300.618,72.369,95508.893,27.535,110.071
湖南,株洲市,16.213,28.066,6.893,9.509,0.537,55.129,-1.593,1.023,302.199,64.619,97102.795,27.109,113.513
湖南,永州市,14.856,21.666,5.866,7.124,0.392,47.25,-1.868,1.234,300.888,67.867,95755.328,25.748,111.723
湖南,湘潭市,19.812,33.153,9.443,15.596,0.716,61.236,-0.8,1.276,303.685,63.716,99235.523,27.744,112.619
湖南,湘西土家族苗族自治州,15.06,29.497,5.783,5.685,0.678,43.468,-2.629,2.208,299.396,78.91,94528.923,28.708,109.718
湖南,益阳市,22.012,36.707,7.142,10.199,0.764,72.674,-0.89,0.992,302.112,70.545,97898.324,28.525,111.919
湖南,衡阳市,16.567,28.886,9.403,11.85,0.607,51.374,-0.868,1.278,303.203,63.853,98782.556,26.781,112.565
湖南,邵阳市,20.162,30.473,6.781,8.289,0.529,49.444,-1.367,2.031,300.312,69.701,94273.568,26.893,110.881
湖南,郴州市,13.26,25.084,9.322,9.932,0.706,55.869,-1.71,0.878,300.236,69.613,94984.563,25.769,113.109
湖南,长沙市,21.364,37.606,7.962,14.608,0.673,69.777,-1.875,1.304,303.293,64.739,98688.51,28.235,113.159
甘肃,临夏回族自治州,29.144,40.47,7.761,10.072,0.562,60.331,-0.863,0.294,288.497,84.348,77163.787,35.617,103.291
甘肃,兰州市,20.659,35.674,7.829,16.093,0.467,66.491,-1.597,0.023,289.813,77.383,78743.768,36.359,103.633
甘肃,嘉峪关市,17.677,83.515,4.773,11.428,0.297,119.802,7.375,-5.683,295.193,30.535,81156.582,39.798,98.145
甘肃,天水市,24.523,35.722,10.582,6.688,0.391,65.977,-2.29,3.727,290.996,93.465,82190.442,34.645,105.739
甘肃,定西市,28.898,42.141,11.141,5.438,0.382,70.833,-1.428,1.914,288.044,89.011,76957.421,35.124,104.432
甘肃,平凉市,18.782,29.767,7.123,9.902,0.533,62.985,-2.196,3.674,291.019,95.009,84009.128,35.304,106.644
甘肃,庆阳市,18.53,33.761,10.123,9.232,0.622,61.238,-2.768,3.688,291.111,94.677,85275.314,36.149,107.596
甘肃,张掖市,25.534,37.753,1.422,2.715,0.118,97.442,3.975,-1.651,288.013,50.464,74479.328,38.94,99.855
甘肃,武威市,33.529,42.783,3.228,2.938,0.163,87.945,2.274,-0.416,293.777,48.495,80872.308,38.163,103.073
甘肃,甘南藏族自治州,34.18,40.754,9.238,2.792,0.305,71.687,-1.499,0.523,283.541,91.778,67651.494,34.331,102.768
甘肃,白银市,21.708,33.535,8.929,6.286,0.336,76.893,-0.095,1.956,291.037,75.026,81038.45,36.59,104.646
甘肃,酒泉市,21.676,24.757,0.87,0.93,0.107,91.524,4.969,-2.564,291.999,36.133,78695.393,40.236,96.062
甘肃,金昌市,26.736,59.379,2.163,3.697,0.142,99.731,4.526,-1.438,293.849,38.698,80155.629,38.44,102.048
甘肃,陇南市,27.38,44.066,15.372,7.118,0.451,53.906,-2.529,3.899,290.931,96.58,81714.656,33.599,105.224
福建,三明市,12.069,20.751,5.406,9.36,0.46,47.474,-2.547,-1.593,298.915,70.022,94425.263,26.29,117.395
福建,南平市,10.932,17.929,3.926,6.528,0.3,50.524,-2.529,-1.471,299.659,65.302,95188.284,27.324,118.143
福建,厦门市,11.468,29.57,7.962,15.503,0.4,45.293,-3.735,-4.788,300.528,70.333,99332.085,24.642,118.11
福建,宁德市,6.735,14.148,3.166,5.867,0.231,42.827,-2.851,-4.425,297.589,75.017,94543.263,26.968,119.474
福建,泉州市,8.756,20.582,5.028,10.112,0.329,44.538,-3.477,-4.493,298.966,69.503,95730.807,25.201,118.249
福建,漳州市,13.372,29.007,6.231,13.229,0.436,56.84,-2.861,-2.633,299.533,71.225,97267.94,24.372,117.444
福建,福州市,6.743,17.316,4.734,7.651,0.334,44.045,-3.211,-5.468,298.521,78.054,96505.409,26.083,119.206
福建,莆田市,7.583,18.728,5.676,8.285,0.316,45.255,-3.544,-6.598,299.4,73.808,97195.071,25.445,118.864
福建,龙岩市,13.468,25.186,6.047,11.539,0.449,44.999,-2.37,-2.379,299.421,68.084,94376.272,25.256,116.739
西藏,山南市,14.131,15.333,1.136,1.564,0.138,100.234,2.09,3.735,284.285,83.246,66116.767,28.295,92.274
西藏,拉萨市,9.31,11.0,0.97,1.745,0.129,134.604,3.28,3.72,280.903,74.592,56761.515,30.043,91.093
西藏,日喀则市,11.05,11.81,0.803,0.544,0.137,127.55,3.89,1.7,279.001,80.592,55557.754,29.483,86.493
西藏,昌都市,13.356,13.92,0.961,0.772,0.139,95.25,3.633,3.471,280.809,80.353,59257.437,30.753,97.044
西藏,林芝市,18.553,19.907,1.375,1.826,0.154,82.598,0.686,4.041,283.301,93.307,66396.285,29.184,95.25
西藏,玉树藏族自治州,11.928,12.053,0.219,0.341,0.101,83.702,-2.072,-4.058,276.464,73.982,57726.11,34.196,94.317
西藏,那曲市,5.083,5.507,0.199,0.269,0.108,91.917,-2.888,-2.077,278.71,66.956,55793.579,32.709,89.262
西藏,阿里地区,4.928,5.153,0.363,0.353,0.118,94.559,-1.328,-2.925,279.949,49.12,55236.818,33.013,82.553
贵州,六盘水市,13.099,22.154,6.474,7.955,0.371,57.557,-0.384,5.981,293.236,86.36,82767.993,26.106,104.896
贵州,安顺市,13.298,23.105,4.926,4.889,0.27,58.046,-1.19,5.556,295.444,85.07,87696.874,25.986,105.978
贵州,毕节市,12.975,21.924,6.463,8.1,0.304,61.457,1.337,8.617,294.368,79.698,83020.062,27.063,105.211
贵州,贵阳市,12.331,25.899,4.009,11.653,0.363,51.227,0.159,8.054,296.283,78.567,87695.579,26.845,106.71
贵州,遵义市,14.641,23.712,6.003,7.005,0.295,57.454,-1.989,7.516,298.008,74.676,89728.975,28.167,107.102
贵州,铜仁市,14.433,25.84,6.173,4.458,0.363,48.296,-1.127,4.921,298.732,75.397,92103.549,27.937,108.534
贵州,黔东南苗族侗族自治州,15.117,24.833,6.452,4.192,0.351,51.171,-0.598,4.256,298.212,77.818,92044.8,26.495,108.574
贵州,黔南布依族苗族自治州,14.568,25.304,5.49,4.92,0.3,52.391,-0.984,4.616,296.527,82.426,89849.046,26.0,107.265
贵州,黔西南布依族苗族自治州,14.21,22.233,5.321,3.564,0.317,60.131,-0.915,4.253,295.992,82.075,88066.012,25.256,105.467
辽宁,丹东市,11.424,18.678,5.272,8.861,0.46,44.056,-5.246,-0.899,291.472,95.505,98313.377,40.554,124.376
辽宁,大连市,13.133,20.568,4.93,8.674,0.427,63.5,-3.933,-2.373,293.936,86.978,100298.666,39.591,122.22
辽宁,抚顺市,13.724,22.149,4.714,7.999,0.489,55.516,-4.75,1.596,293.303,81.609,96745.495,41.841,124.65
辽宁,朝阳市,19.787,29.982,6.112,7.418,0.352,92.314,-1.667,1.54,295.026,75.789,96150.361,41.545,120.053
辽宁,本溪市,12.629,20.751,4.739,7.976,0.542,49.984,-5.001,1.318,291.557,89.864,96089.891,41.232,124.544
辽宁,沈阳市,20.954,38.932,9.91,21.089,0.64,68.164,-3.581,1.013,296.741,69.642,100632.611,42.081,123.159
辽宁,盘锦市,23.033,42.185,9.357,18.706,0.763,79.767,-3.194,-0.859,296.733,71.829,101166.69,41.13,122.01
辽宁,营口市,14.063,21.9,4.663,9.317,0.478,62.402,-4.976,-0.8,294.357,81.572,98995.848,40.395,122.478
辽宁,葫芦岛市,18.087,30.676,6.866,10.212,0.371,89.997,-1.587,-0.213,295.37,77.167,98753.998,40.66,120.215
辽宁,辽阳市,14.25,26.309,6.691,12.846,0.602,59.084,-4.831,0.737,294.661,78.186,99273.734,41.153,123.261
辽宁,铁岭市,19.272,31.234,6.166,15.231,0.492,67.568,-3.388,1.744,296.056,72.72,99220.305,42.653,124.158
辽宁,锦州市,21.275,35.042,7.937,13.774,0.547,93.212,-2.677,-0.039,296.763,71.61,100404.574,41.502,121.659
辽宁,阜新市,21.713,32.467,7.512,11.548,0.426,90.448,-2.602,1.522,296.636,70.961,99033.906,42.289,121.968
辽宁,鞍山市,15.545,26.702,6.232,12.423,0.592,58.316,-4.309,-1.03,293.743,84.284,99307.796,40.731,123.007
重庆,重庆城区,17.728,30.043,8.347,12.622,0.441,60.673,-3.157,5.869,301.261,67.732,93923.646,29.824,107.125
重庆,重庆郊县,18.653,27.917,9.316,5.46,0.349,58.313,-3.213,4.745,297.762,77.566,90475.725,30.334,108.755
陕西,咸阳市,15.707,29.456,6.482,13.262,0.95,62.072,-6.365,0.163,294.996,84.631,90723.44,34.779,108.367
陕西,商洛市,24.641,35.576,8.035,6.386,0.554,58.56,-4.157,3.318,293.386,91.967,88868.829,33.64,109.889
陕西,安康市,21.994,33.254,11.224,5.85,0.429,57.155,-4.729,2.356,295.48,85.14,89279.122,32.735,108.932
陕西,宝鸡市,18.345,27.122,5.28,11.018,0.61,57.059,-3.844,3.464,292.3,94.382,85797.324,34.386,107.193
陕西,延安市,18.983,36.531,10.905,19.437,1.15,50.352,-3.673,4.594,291.145,94.283,87081.759,36.432,109.316
陕西,榆林市,18.552,36.451,12.857,14.673,0.801,76.061,-2.338,5.562,292.367,81.401,87423.003,38.041,109.581
陕西,汉中市,21.522,30.89,9.803,6.475,0.424,49.557,-4.443,3.013,294.843,89.202,88279.386,33.088,107.098
陕西,渭南市,16.159,28.66,6.176,13.86,1.048,58.871,-5.606,-0.012,296.203,79.043,93068.423,34.919,109.855
陕西,西安市,22.359,32.905,6.425,11.172,0.838,54.174,-3.827,3.05,295.904,79.322,89825.714,34.12,108.77
陕西,铜川市,16.914,33.814,8.187,14.781,1.163,57.763,-5.746,1.333,292.407,94.293,88618.958,35.198,109.058
青海,保亭黎族苗族自治县,9.912,15.236,2.184,8.144,0.416,33.748,0.014,-2.124,299.742,80.952,96064.234,18.566,109.618
青海,吐鲁番市,21.834,23.579,1.747,1.708,0.146,83.331,3.081,-3.486,300.189,24.533,89245.078,42.386,89.851
青海,果洛藏族自治州,14.914,15.327,1.107,0.591,0.12,85.639,-1.408,-4.145,279.339,78.025,60258.376,34.127,99.404
青海,海东市,26.173,31.337,6.758,6.096,0.298,78.274,-2.147,-0.521,286.505,82.69,72649.995,36.347,102.34
青海,海北藏族自治州,17.358,18.819,1.286,1.104,0.114,84.489,-0.563,-1.606,280.865,70.993,65521.349,37.775,100.288
青海,海南藏族自治州,18.629,19.067,0.684,0.8,0.115,86.486,2.382,-2.496,284.478,60.905,66599.391,35.89,100.272
青海,海西蒙古族藏族自治州,19.636,19.82,0.347,0.368,0.1,91.98,2.802,-3.37,282.942,47.648,64784.687,36.677,94.519
青海,西宁市,19.191,25.679,5.005,7.679,0.397,78.172,-1.051,-1.032,284.642,76.484,69582.194,36.842,101.423
青海,黄南藏族自治州,23.571,24.98,3.544,1.479,0.18,78.419,-0.384,-1.895,283.111,84.118,65917.166,35.022,101.631
香港,香港特别行政区,8.37,15.075,3.615,13.54,0.205,51.265,-7.545,0.33,301.375,79.39,99891.855,22.45,114.22
黑龙江,七台河市,16.302,29.346,5.672,9.763,0.303,46.772,0.115,3.251,294.77,78.533,98382.867,45.87,130.943
黑龙江,伊春市,18.903,27.825,6.839,3.339,0.289,62.846,2.494,1.665,294.205,78.042,96904.877,47.772,129.184
黑龙江,佳木斯市,16.699,22.93,4.463,5.871,0.248,56.799,-0.034,3.687,294.606,78.812,100284.794,47.207,132.11
黑龙江,双鸭山市,13.03,18.473,3.688,5.05,0.2,56.64,-0.418,5.065,293.76,77.364,99922.859,46.722,132.643
黑龙江,哈尔滨市,24.031,32.303,6.256,7.001,0.315,80.008,0.751,2.308,295.961,78.815,98623.989,45.634,127.964
黑龙江,大兴安岭地区,9.918,10.703,0.992,1.221,0.205,63.598,4.326,0.925,289.88,61.997,94825.288,52.286,124.212
黑龙江,大庆市,27.377,36.448,6.858,5.662,0.376,84.979,-0.293,2.358,297.817,71.205,99739.273,46.327,124.687
黑龙江,牡丹江市,15.203,23.477,3.584,5.63,0.227,55.9,0.495,3.009,292.382,80.11,95743.755,44.592,129.883
黑龙江,绥化市,28.282,37.407,8.64,6.476,0.389,80.185,0.573,2.283,296.37,76.081,99056.474,46.89,126.634
黑龙江,鸡西市,10.794,17.959,3.338,5.284,0.209,46.093,-0.118,4.728,291.728,79.804,99728.268,45.626,132.289
黑龙江,鹤岗市,19.419,28.853,6.123,7.117,0.35,58.661,0.174,1.528,293.829,82.586,99274.013,47.661,130.778
黑龙江,黑河市,17.225,21.493,3.972,2.415,0.252,73.194,2.886,1.863,292.862,73.698,97185.014,49.268,127.004
黑龙江,齐齐哈尔市,23.291,28.392,5.5,3.62,0.309,83.709,-0.25,0.575,295.801,69.267,98976.148,47.715,124.57
