province,city,PM2.5,PM10,SO2,NO2,CO,O3,U,V,TEMP,RH,PSFC,lat,lon
上海,上海市,37.484,94.336,10.581,29.187,0.688,101.381,-0.079,-3.648,292.651,60.004,101335.679,31.173,121.42
云南,临沧市,23.034,32.266,3.677,5.186,0.445,69.039,2.46,1.805,294.529,66.863,83850.93,23.935,99.686
云南,丽江市,18.353,28.189,5.783,3.764,0.527,77.79,2.848,2.617,287.296,75.343,74688.282,26.96,100.515
云南,保山市,22.29,37.671,5.173,6.606,0.57,70.737,1.807,0.731,292.277,75.793,81856.617,24.953,98.962
云南,大理白族自治州,18.911,31.605,6.114,4.25,0.437,77.248,2.069,1.553,289.89,73.003,78143.285,25.726,100.053
云南,德宏傣族景颇族自治州,28.962,38.407,4.839,7.13,0.458,67.1,0.798,0.404,294.676,75.377,85968.613,24.535,98.052
云南,怒江傈僳族自治州,22.936,33.634,4.135,2.012,0.436,68.405,2.52,2.612,285.048,92.226,72893.143,26.916,98.885
云南,文山壮族苗族自治州,23.289,32.226,9.902,4.283,0.354,74.008,-0.905,0.494,291.364,80.815,86526.845,23.696,104.735
云南,昆明市,23.883,36.765,7.91,12.741,0.55,66.366,0.978,3.077,289.408,73.519,79262.07,25.384,102.863
云南,昭通市,25.837,41.293,5.985,5.37,0.374,83.377,1.303,1.568,290.085,61.628,83930.927,27.667,103.985
云南,普洱市,22.414,28.682,5.085,4.765,0.325,65.249,0.81,2.787,295.529,68.564,85884.765,23.159,100.718
云南,曲靖市,23.663,35.826,10.523,10.782,0.475,66.427,1.326,2.511,288.194,78.985,80034.738,25.737,103.929
云南,楚雄彝族自治州,20.661,29.578,5.792,5.149,0.416,75.345,1.589,2.614,292.143,64.851,80954.886,25.328,101.567
云南,玉溪市,20.288,29.254,7.772,5.558,0.378,71.481,-0.263,3.06,292.738,75.115,83449.172,24.136,102.217
云南,红河哈尼族彝族自治州,19.912,28.829,8.204,3.984,0.315,73.808,-0.994,2.32,292.851,79.606,85132.057,23.451,103.034
云南,西双版纳傣族自治州,18.405,26.245,6.339,5.978,0.49,57.16,0.616,2.829,297.332,66.265,88820.764,21.939,100.912
云南,迪庆藏族自治州,19.481,27.229,4.067,1.622,0.444,72.232,4.853,3.678,282.046,89.557,67405.121,27.957,99.459
内蒙古,乌兰察布市,89.14,98.406,2.886,5.422,0.188,77.803,9.836,-0.02,288.771,18.424,85305.502,41.691,112.44
内蒙古,乌海市,33.525,86.33,32.486,35.762,0.935,95.169,1.599,2.228,292.095,11.819,87291.97,39.396,106.856
内蒙古,兴安盟,26.674,35.523,1.502,1.664,0.164,67.475,5.791,1.381,283.729,33.346,93085.769,46.244,121.341
内蒙古,包头市,57.241,64.374,3.425,9.562,0.238,79.01,8.519,0.386,289.974,13.779,85382.611,41.549,110.276
内蒙古,呼伦贝尔市,9.643,10.51,1.51,2.116,0.173,71.249,4.2,2.97,279.222,54.213,91561.547,49.636,121.171
内蒙古,呼和浩特市,35.415,64.878,8.142,23.585,0.42,76.685,7.223,2.12,289.087,17.144,85844.666,40.578,111.513
内蒙古,巴彦淖尔市,30.776,32.397,1.146,2.244,0.143,86.502,7.077,1.499,291.618,11.082,86790.721,41.446,107.582
内蒙古,赤峰市,109.023,137.199,1.748,2.8,0.173,66.709,8.305,-0.129,287.114,23.706,90636.511,43.226,118.892
内蒙古,通辽市,72.726,100.219,2.577,3.676,0.186,62.884,5.165,2.164,287.862,27.123,96366.255,43.814,121.591
内蒙古,鄂尔多斯市,28.636,42.547,8.218,12.689,0.315,85.293,4.131,2.304,291.051,15.067,86653.566,39.407,108.63
内蒙古,锡林郭勒盟,125.897,130.959,0.569,0.75,0.148,70.514,9.595,-0.063,286.784,26.821,87832.009,44.179,115.482
内蒙古,阿拉善盟,20.276,22.539,1.685,2.465,0.144,97.498,1.904,2.089,292.865,10.904,87011.183,40.473,102.467
北京,北京市,64.924,173.683,4.988,22.532,0.328,76.915,4.13,0.684,293.901,17.008,96793.453,40.158,116.395
台湾,台湾省,29.872,34.606,8.723,19.068,0.204,75.316,0.923,-1.649,296.369,73.658,92802.121,23.757,120.975
吉林,吉林市,30.112,72.031,4.531,7.228,0.336,78.148,5.344,3.515,284.288,53.201,95850.639,43.573,126.859
吉林,四平市,49.195,117.837,4.837,10.317,0.338,75.018,4.571,5.501,286.491,44.12,97978.933,43.472,124.386
吉林,延边朝鲜族自治州,24.943,45.185,3.913,5.025,0.205,77.322,6.179,1.517,282.846,56.47,92962.687,43.141,129.147
吉林,松原市,52.883,71.029,2.323,4.042,0.206,62.791,3.968,4.284,286.59,40.465,98191.043,44.785,124.496
吉林,白城市,38.924,53.565,1.688,2.441,0.169,61.715,4.434,2.902,287.093,31.74,98183.336,45.35,123.031
吉林,白山市,24.414,50.898,5.591,5.415,0.296,72.662,5.509,2.576,281.141,61.554,91256.863,42.063,127.256
吉林,辽源市,33.395,95.475,5.345,10.113,0.364,79.434,5.373,5.487,284.679,54.129,96266.518,42.836,125.32
吉林,通化市,25.222,67.893,6.323,7.274,0.376,74.96,3.96,3.756,283.389,57.983,94656.605,41.939,125.927
吉林,长春市,40.052,92.064,2.92,7.985,0.331,71.902,4.557,3.941,286.066,47.289,97847.507,44.268,125.611
四川,乐山市,33.979,48.738,5.623,7.428,0.319,83.719,-0.959,0.56,290.726,54.905,89294.938,29.218,103.569
四川,内江市,17.167,45.751,8.099,11.566,0.35,77.446,-1.616,0.454,293.242,57.372,96284.433,29.62,104.95
四川,凉山彝族自治州,20.262,29.187,5.096,4.256,0.366,81.219,3.075,3.607,286.494,69.573,74161.541,27.883,102.065
四川,南充市,19.748,51.446,8.684,16.318,0.518,63.245,-1.855,0.689,291.27,67.994,96415.189,31.19,106.199
四川,宜宾市,27.854,50.876,7.861,9.681,0.401,84.154,-0.302,-0.359,293.7,52.078,94629.416,28.573,104.621
四川,巴中市,38.653,69.219,7.502,11.201,0.465,59.619,-1.593,-0.154,288.305,61.162,92252.551,32.033,107.031
四川,广元市,30.082,66.318,8.35,8.759,0.388,65.941,-1.747,2.587,288.826,60.618,91325.013,32.261,105.788
四川,广安市,21.949,44.268,8.725,14.887,0.475,65.871,-1.284,1.319,292.612,72.224,96409.796,30.43,106.628
四川,德阳市,24.825,54.588,5.171,11.901,0.368,86.695,-0.684,2.432,291.728,55.449,92812.308,31.13,104.436
四川,成都市,27.839,51.13,6.126,14.31,0.368,86.692,-0.364,1.45,292.005,54.468,92945.185,30.64,103.929
四川,攀枝花市,21.279,33.411,13.156,12.931,0.727,82.377,1.882,1.785,292.326,57.718,81403.7,26.791,101.734
四川,泸州市,26.112,45.908,8.295,9.28,0.325,75.322,-0.896,2.331,293.276,62.567,93061.964,28.424,105.675
四川,甘孜藏族自治州,19.679,21.541,1.735,1.142,0.173,89.52,5.571,4.718,281.594,63.273,61270.078,30.936,100.009
四川,眉山市,26.719,47.867,6.133,10.228,0.358,80.92,-1.278,1.172,292.381,53.802,93384.077,29.912,103.766
四川,绵阳市,30.756,56.231,5.92,7.536,0.311,83.478,-0.781,2.413,287.875,65.397,87719.169,31.86,104.704
四川,自贡市,20.887,48.642,8.806,11.848,0.384,79.858,-1.947,0.03,293.49,55.052,96241.206,29.307,104.659
四川,资阳市,16.744,44.331,6.273,9.581,0.36,76.545,-1.594,0.886,292.935,60.607,96553.156,30.102,105.149
四川,达州市,36.682,60.277,10.09,18.992,0.533,61.978,-1.147,0.547,290.446,65.573,93813.146,31.335,107.636
四川,遂宁市,17.606,45.226,6.67,10.797,0.406,75.564,-1.656,1.112,292.552,65.08,96813.337,30.642,105.457
四川,阿坝藏族羌族自治州,22.683,26.991,2.501,1.37,0.178,82.143,1.162,4.596,281.754,69.278,65443.518,32.406,102.61
四川,雅安市,33.255,42.427,4.561,4.283,0.238,88.088,-0.488,0.62,285.394,70.524,79910.361,29.932,102.689
天津,天津市,54.846,224.322,8.236,32.53,0.598,97.202,4.457,4.084,295.699,17.146,100460.462,39.315,117.308
宁夏,中卫市,34.272,52.897,4.01,12.846,0.256,83.55,-0.729,5.26,290.159,28.933,83239.65,37.018,105.509
宁夏,吴忠市,37.412,51.141,3.909,8.272,0.207,84.173,-0.718,5.427,290.308,25.22,84815.968,37.454,106.577
宁夏,固原市,30.266,59.83,4.413,22.588,0.273,78.081,0.111,6.604,286.388,39.853,80814.211,35.905,106.183
宁夏,石嘴山市,29.961,71.742,19.521,28.906,0.613,99.046,1.454,2.291,291.733,14.055,86410.831,39.013,106.499
宁夏,银川市,28.428,62.558,10.183,23.266,0.351,90.443,-0.682,3.24,291.776,18.707,86699.736,38.287,106.342
安徽,亳州市,47.989,116.751,8.613,18.953,0.569,102.714,-0.246,2.169,295.34,29.674,101020.714,33.44,116.162
安徽,六安市,50.637,100.329,7.799,14.217,0.474,97.673,-0.762,0.871,293.785,51.531,98630.397,31.617,116.209
安徽,合肥市,36.616,93.647,8.124,25.239,0.623,106.125,-0.255,0.623,294.473,53.934,100959.887,31.766,117.359
安徽,安庆市,38.021,69.278,8.706,11.15,0.53,97.647,-1.865,-1.318,294.129,56.751,99062.093,30.557,116.473
安徽,宣城市,27.753,67.188,9.981,16.461,0.654,97.395,-1.492,-0.215,292.715,60.725,99011.865,30.676,118.846
安徽,宿州市,46.559,116.665,10.439,25.898,0.622,99.543,1.663,1.548,294.945,30.678,100952.135,33.844,117.23
安徽,池州市,27.973,56.003,9.82,10.304,0.562,87.078,-2.543,-0.933,293.898,62.882,99213.229,30.296,117.379
安徽,淮北市,47.186,123.459,12.679,29.245,0.674,98.152,0.731,1.936,295.13,29.498,101009.196,33.722,116.747
安徽,淮南市,41.961,103.85,9.383,23.375,0.621,109.841,-0.557,0.936,294.458,45.248,101110.328,32.463,116.746
安徽,滁州市,39.908,90.641,9.432,23.065,0.57,114.31,0.696,0.846,294.483,47.66,100836.894,32.55,118.076
安徽,芜湖市,31.59,79.708,9.925,25.427,0.7,97.847,-1.158,-0.296,294.146,57.907,101140.484,31.167,118.162
安徽,蚌埠市,44.604,97.194,10.975,26.482,0.586,101.679,0.937,1.139,294.693,36.852,101070.231,33.121,117.263
安徽,铜陵市,33.804,74.806,9.716,19.795,0.621,94.001,-2.092,-1.016,294.441,58.442,100989.519,30.883,117.531
安徽,阜阳市,48.73,117.022,7.604,17.175,0.591,97.842,-1.017,2.059,295.194,32.451,101017.685,32.937,115.723
安徽,马鞍山市,31.581,92.937,9.745,31.261,0.738,104.748,-0.125,0.072,294.338,54.326,101137.229,31.622,118.386
安徽,黄山市,20.245,48.656,11.545,9.548,0.554,79.729,-3.277,-1.582,292.477,61.467,97045.669,29.869,118.09
山东,东营市,59.212,148.975,18.103,24.683,0.729,111.572,5.299,3.15,295.418,26.718,100840.358,37.57,118.572
山东,临沂市,47.275,134.092,12.755,32.985,0.669,98.02,3.605,1.464,294.29,29.528,99411.086,35.289,118.27
山东,威海市,35.421,93.362,8.269,13.651,0.566,120.833,3.519,2.403,289.192,61.769,100315.965,37.148,122.028
山东,德州市,46.62,154.637,12.365,21.051,0.6,125.286,3.227,5.124,296.011,22.547,100752.262,37.233,116.679
山东,日照市,48.161,125.433,10.976,34.08,0.6,96.788,4.285,1.398,293.905,32.135,99483.42,35.566,119.108
山东,枣庄市,47.16,149.554,14.119,30.126,0.688,97.667,2.292,2.146,294.948,28.486,100159.616,34.925,117.383
山东,泰安市,46.766,149.406,12.911,26.732,0.644,113.762,3.231,3.664,294.708,25.845,99233.169,35.993,117.04
山东,济南市,45.77,150.407,12.277,25.029,0.652,122.009,3.605,4.853,294.792,24.607,99120.587,36.639,117.254
山东,济宁市,48.511,153.64,12.22,23.511,0.663,108.621,2.961,3.903,295.493,24.94,100530.47,35.375,116.697
山东,淄博市,48.236,148.882,17.291,29.72,0.887,112.869,5.052,3.884,294.1,26.025,98525.483,36.623,118.062
山东,滨州市,55.091,156.316,13.302,23.08,0.681,121.719,4.744,4.343,295.501,25.914,100794.764,37.516,117.852
山东,潍坊市,52.263,130.485,12.619,29.242,0.705,104.41,5.471,2.196,294.536,29.464,99923.873,36.53,119.092
山东,烟台市,44.781,105.172,9.098,17.935,0.562,108.578,4.626,2.108,292.189,44.354,99803.452,37.25,120.789
山东,聊城市,46.004,154.398,14.584,22.072,0.717,123.976,3.434,4.957,296.151,21.244,100633.451,36.458,115.863
山东,菏泽市,51.213,160.698,11.047,19.167,0.707,113.574,3.057,4.733,295.916,21.409,100682.938,35.134,115.69
山东,青岛市,46.226,116.512,10.332,28.849,0.61,103.025,4.075,1.944,293.051,40.727,100473.06,36.46,120.172
山西,临汾市,41.903,90.447,18.741,28.118,0.688,93.72,1.922,2.386,290.663,22.417,89860.676,36.227,111.398
山西,吕梁市,39.365,73.556,12.112,25.79,0.436,81.458,4.229,2.83,289.673,21.627,87451.442,37.663,111.27
山西,大同市,37.269,71.119,11.126,15.562,0.306,83.556,8.759,0.018,289.442,17.826,86720.978,39.911,113.713
山西,太原市,36.074,93.663,16.758,31.882,0.522,86.587,6.477,0.792,290.397,18.063,87286.647,37.967,112.321
山西,忻州市,32.705,58.922,6.861,13.953,0.273,87.96,6.908,0.624,289.032,17.801,85772.931,38.877,112.391
山西,晋中市,39.427,97.164,21.777,35.997,0.59,86.797,6.156,1.676,290.275,18.944,88225.772,37.328,112.997
山西,晋城市,42.227,101.933,15.22,26.268,0.716,97.386,2.679,0.689,291.492,18.185,90245.004,35.625,112.752
山西,朔州市,30.701,64.936,9.179,18.468,0.335,90.247,8.274,0.703,289.445,17.321,86156.849,39.619,112.655
山西,运城市,41.295,107.726,17.879,34.585,0.779,80.177,0.115,1.387,293.571,20.793,93929.522,35.205,111.071
山西,长治市,39.888,92.322,15.488,26.481,0.573,94.129,5.631,1.293,290.612,18.005,88570.954,36.48,112.915
山西,阳泉市,37.337,84.773,15.286,28.589,0.451,84.399,8.4,1.178,292.316,15.649,89931.551,38.031,113.512
广东,东莞市,26.033,45.183,8.702,29.899,0.631,102.793,1.301,0.828,302.143,69.532,100768.536,22.931,113.81
广东,中山市,18.397,33.573,7.4,16.546,0.5,97.98,0.808,0.881,301.697,72.11,100782.309,22.5,113.383
广东,云浮市,20.133,39.639,6.154,11.012,0.492,71.74,0.832,0.582,300.822,71.015,98822.817,22.776,111.818
广东,佛山市,26.933,46.491,10.855,24.582,0.6,101.576,0.747,-0.367,302.179,68.587,100806.847,23.035,112.979
广东,广州市,29.493,48.307,9.826,28.048,0.606,92.26,0.163,-0.522,301.78,69.627,99934.086,23.339,113.525
广东,惠州市,27.869,42.318,7.994,17.971,0.472,91.923,0.818,-0.422,300.916,73.745,98996.179,23.244,114.485
广东,揭阳市,28.179,44.97,9.511,10.069,0.659,97.967,1.2,0.209,301.412,71.359,99565.993,23.323,116.123
广东,梅州市,30.756,46.674,9.502,10.493,0.662,89.691,0.676,-0.884,300.234,72.231,97595.47,24.169,116.07
广东,汕头市,28.791,46.369,12.235,12.205,0.666,102.47,0.331,0.923,301.204,75.743,100666.424,23.339,116.614
广东,汕尾市,24.461,37.745,7.161,9.482,0.431,93.849,1.906,0.255,301.035,74.768,99312.44,23.024,115.527
广东,江门市,16.541,29.328,5.025,8.487,0.365,81.501,0.759,0.74,301.299,74.146,100240.397,22.289,112.676
广东,河源市,34.582,46.358,10.933,9.252,0.577,91.912,0.535,-2.606,300.072,73.409,97798.637,24.021,114.969
广东,深圳市,23.754,40.487,8.386,30.011,0.56,89.939,1.616,1.188,301.406,74.142,100310.209,22.667,114.143
广东,清远市,31.703,49.644,12.399,12.908,0.615,90.058,-0.939,-2.487,299.084,72.928,97345.415,24.295,112.871
广东,湛江市,11.887,21.457,4.483,8.245,0.395,53.972,-1.537,1.674,301.514,71.257,100657.697,21.091,110.163
广东,潮州市,31.119,50.874,12.285,13.371,0.806,96.096,-0.134,-0.302,300.463,74.483,99031.959,23.755,116.754
广东,珠海市,15.242,25.002,5.238,9.322,0.278,84.39,0.367,1.162,301.235,77.03,100876.543,22.095,113.317
广东,肇庆市,28.403,47.649,9.897,15.152,0.528,81.73,-0.319,-0.439,301.036,67.851,98918.568,23.505,112.199
广东,茂名市,14.629,28.667,6.058,8.136,0.419,61.972,-0.397,1.019,300.552,73.754,98915.528,22.013,110.952
广东,阳江市,14.282,26.861,3.818,6.516,0.342,63.405,0.443,0.736,300.742,74.339,99425.879,22.042,111.786
广东,韶关市,33.538,48.032,10.961,9.493,0.916,91.593,-0.856,-2.815,298.138,76.209,96599.775,24.785,113.819
广西,北海市,11.751,24.82,6.585,8.074,0.507,58.49,-0.001,0.887,301.876,72.811,100688.374,21.674,109.37
广西,南宁市,21.598,37.247,9.348,8.875,0.508,70.425,-0.875,-2.415,299.648,69.624,98919.953,23.051,108.469
广西,崇左市,20.807,30.102,7.877,5.209,0.352,67.603,-0.764,-1.477,299.352,67.112,97656.132,22.483,107.291
广西,来宾市,28.603,43.853,10.23,7.302,0.542,79.132,-0.472,-3.129,297.942,75.298,97792.338,23.859,109.417
广西,柳州市,28.178,42.506,10.543,5.83,0.54,76.223,-0.734,-2.842,295.817,77.628,97235.342,24.956,109.372
广西,桂林市,31.525,53.069,11.737,6.777,0.631,76.424,-1.787,-1.752,295.011,78.673,95648.278,25.353,110.513
广西,梧州市,29.639,53.146,10.267,12.841,0.611,71.014,0.235,-0.843,300.436,70.213,98556.944,23.484,110.996
广西,河池市,20.954,35.51,10.732,4.491,0.503,64.143,-0.97,-2.134,294.285,75.978,94957.851,24.628,107.843
广西,玉林市,19.522,36.361,10.144,9.723,0.578,67.139,0.098,0.686,300.8,71.172,98962.247,22.452,110.164
广西,百色市,23.241,35.132,11.409,4.982,0.499,71.366,-1.03,-1.159,294.238,73.671,92909.804,23.981,106.292
广西,贵港市,28.797,51.49,10.087,11.265,0.615,73.585,-0.046,-1.638,300.579,71.436,99379.896,23.322,110.021
广西,贺州市,30.722,49.646,12.961,8.09,0.552,74.572,-1.044,-3.058,298.112,73.782,96807.381,24.364,111.394
广西,钦州市,16.494,32.265,9.327,9.007,0.59,62.476,0.231,-0.692,301.213,73.382,99995.944,22.173,109.01
广西,防城港市,18.327,29.604,8.689,7.025,0.442,61.31,0.089,-0.629,299.971,73.138,98455.984,21.88,108.002
新疆,乌鲁木齐市,35.909,46.69,2.569,8.439,0.24,84.495,1.585,1.095,287.369,34.551,83586.1,43.746,87.818
新疆,五家渠市,24.733,39.43,4.513,14.173,0.317,92.963,2.3,-0.343,295.233,22.09,95384.167,44.363,87.517
新疆,伊犁哈萨克自治州,23.84,31.014,1.937,2.577,0.174,81.473,4.571,-0.031,281.618,67.328,80064.343,43.438,82.146
新疆,克孜勒苏柯尔克孜自治州,24.883,36.575,0.576,1.177,0.195,92.181,6.191,-4.895,276.397,54.244,70458.121,39.661,75.949
新疆,克拉玛依市,36.829,48.591,3.042,4.182,0.261,95.418,5.399,-1.502,295.358,24.014,96113.166,45.457,85.207
新疆,北屯市,11.846,14.302,1.344,2.418,0.428,81.494,-0.752,2.508,292.048,26.848,94213.79,47.27,87.868
新疆,博尔塔拉蒙古自治州,21.269,28.479,2.626,2.137,0.17,81.032,8.318,1.91,286.849,46.111,85456.171,44.714,82.114
新疆,双河市,25.684,38.954,3.572,4.356,0.198,83.212,4.096,-1.9,295.478,27.0,96707.664,44.87,82.474
新疆,可克达拉市,24.89,37.108,5.038,5.652,0.284,84.662,7.392,-0.364,292.944,39.568,94097.786,43.918,80.786
新疆,和田地区,99.967,113.255,0.58,0.788,0.137,80.813,5.097,-0.118,283.082,31.379,73911.031,37.059,80.934
新疆,哈密市,50.329,54.174,0.818,1.994,0.145,87.754,3.684,2.14,292.671,10.774,87531.218,43.042,93.517
新疆,喀什地区,74.984,87.465,0.89,2.161,0.201,81.805,6.756,-0.713,282.522,42.216,75999.552,38.125,77.178
新疆,图木舒克市,175.77,178.095,0.592,0.932,0.13,63.1,3.02,-0.345,292.703,30.77,88717.613,39.892,79.182
新疆,塔城地区,23.843,26.75,2.093,2.008,0.164,84.012,5.741,-0.857,289.154,36.838,88633.421,45.642,84.789
新疆,巴音郭楞蒙古自治州,71.584,75.924,0.465,0.463,0.124,81.728,4.011,-0.454,286.698,24.455,78865.748,39.463,87.481
新疆,新星市,47.085,69.85,4.82,18.4,0.42,83.51,0.345,0.39,295.975,7.995,91843.995,42.75,93.68
新疆,昆玉市,213.947,267.97,0.837,2.373,0.153,60.187,3.493,-2.873,292.807,33.73,86674.613,37.457,79.093
新疆,昌吉回族自治州,30.191,35.391,2.278,5.184,0.177,86.084,2.854,0.031,291.279,25.902,88976.986,44.342,88.608
新疆,石河子市,24.67,32.615,5.87,17.135,0.285,82.72,4.465,-0.86,294.6,26.5,93624.085,44.245,86.035
新疆,胡杨河市,22.418,26.42,2.022,2.518,0.178,90.588,6.628,-0.486,295.798,28.23,96638.11,44.852,84.772
新疆,铁门关市,190.007,238.02,0.887,1.323,0.137,58.607,6.41,-2.35,295.073,21.907,90892.78,41.773,85.66
新疆,阿克苏地区,146.33,169.408,0.741,2.05,0.142,64.173,2.9,-1.51,288.391,37.144,84818.1,40.965,81.578
新疆,阿勒泰地区,14.449,15.452,1.164,1.228,0.189,84.412,1.317,2.305,288.196,32.033,87524.741,46.902,88.421
新疆,阿拉尔市,174.99,243.389,0.97,5.33,0.173,58.322,2.422,-0.618,292.033,33.558,89521.409,40.629,80.998
江苏,南京市,34.304,94.291,10.169,28.582,0.756,108.162,-0.068,0.228,294.296,53.444,101179.959,31.899,118.876
江苏,南通市,39.861,89.749,14.431,25.025,0.592,99.634,0.116,-2.259,292.866,56.147,101312.752,32.201,120.979
江苏,宿迁市,44.436,100.436,9.942,23.252,0.58,101.56,1.885,1.149,294.26,39.869,101199.801,33.765,118.495
江苏,常州市,36.988,91.154,10.976,27.772,0.81,116.333,-0.124,-0.399,293.789,56.394,101246.11,31.613,119.666
江苏,徐州市,46.875,130.402,11.036,27.617,0.656,96.829,2.268,1.798,295.004,29.666,100910.287,34.363,117.513
江苏,扬州市,39.549,99.516,10.623,25.523,0.673,114.117,1.13,0.47,294.24,53.856,101295.379,32.709,119.486
江苏,无锡市,37.748,98.982,11.821,30.232,0.827,114.37,0.166,-0.762,293.539,58.209,101156.3,31.546,120.066
江苏,泰州市,38.378,99.253,11.837,26.91,0.731,113.589,0.949,-0.036,294.017,56.562,101261.802,32.605,120.048
江苏,淮安市,44.129,98.486,10.851,24.967,0.616,104.908,1.847,1.11,294.07,48.772,101216.632,33.362,118.985
江苏,盐城市,46.358,99.114,12.809,24.83,0.643,103.04,1.888,0.543,293.425,55.667,101261.226,33.529,120.156
江苏,苏州市,34.911,99.348,11.686,30.6,0.745,111.17,0.138,-1.739,293.211,59.809,101311.206,31.374,120.661
江苏,连云港市,46.85,114.444,11.663,30.273,0.616,93.316,2.698,1.687,294.14,43.383,101029.468,34.519,119.133
江苏,镇江市,37.519,94.498,10.296,28.628,0.766,112.793,0.112,-0.04,294.086,54.542,101209.028,32.016,119.49
江西,上饶市,18.468,36.728,11.394,8.167,0.657,75.636,-2.141,-2.404,294.567,69.024,99038.774,28.778,117.47
江西,九江市,34.61,72.056,9.889,10.117,0.613,77.208,-0.985,-1.188,293.792,73.225,99025.962,29.313,115.444
江西,南昌市,20.674,51.309,8.983,10.817,0.727,80.215,-1.38,-2.874,295.483,69.831,100864.982,28.671,116.016
江西,吉安市,30.059,50.899,11.857,7.9,0.822,72.145,-1.04,-3.296,295.089,78.738,98620.705,26.954,114.831
江西,宜春市,33.192,66.11,11.769,12.136,0.721,69.604,-1.219,-1.617,293.751,77.482,98991.982,28.29,114.974
江西,抚州市,25.592,41.434,10.585,6.306,0.637,82.315,-0.386,-3.454,294.72,78.855,98611.759,27.514,116.42
江西,新余市,33.47,63.545,13.854,15.689,0.783,64.857,-1.115,-2.093,294.027,79.995,99910.268,27.847,114.836
江西,景德镇市,18.226,36.876,10.735,6.882,0.579,75.08,-2.425,-1.875,294.98,64.785,99865.289,29.287,117.24
江西,萍乡市,31.324,61.529,12.448,12.583,0.711,57.078,-1.012,-1.305,293.556,83.058,97670.657,27.505,113.908
江西,赣州市,33.016,47.31,11.457,5.743,1.168,79.221,-0.389,-4.1,296.994,79.279,96931.502,25.692,115.279
江西,鹰潭市,20.394,33.807,10.792,8.413,0.632,75.895,-1.741,-2.757,294.965,73.919,99543.255,28.222,117.094
河北,保定市,45.536,95.85,9.736,20.516,0.328,88.123,4.699,1.581,295.809,14.392,96909.149,39.018,115.159
河北,唐山市,48.289,186.628,12.686,31.643,0.663,104.374,4.496,3.051,293.796,19.219,99944.021,39.731,118.354
河北,廊坊市,45.906,196.874,9.266,32.663,0.544,92.499,4.23,3.855,296.227,15.927,100496.287,39.267,116.632
河北,张家口市,72.335,98.182,4.631,8.022,0.182,73.912,9.086,-1.253,288.732,19.333,86984.907,40.877,115.042
河北,承德市,106.474,171.634,3.41,9.011,0.242,75.564,7.036,0.47,287.703,21.766,90076.705,41.339,117.578
河北,沧州市,50.436,156.466,12.08,27.13,0.572,107.589,3.626,5.079,296.357,19.469,100689.214,38.258,116.744
河北,石家庄市,36.646,93.718,13.044,27.895,0.43,88.695,5.109,1.402,297.135,13.705,97530.494,38.135,114.407
河北,秦皇岛市,43.993,142.419,11.076,25.283,0.63,101.889,6.163,2.636,291.873,18.942,97693.259,40.12,119.193
河北,衡水市,42.946,129.616,13.777,22.651,0.634,111.485,2.266,5.457,296.961,18.267,100621.736,37.755,115.813
河北,邢台市,36.495,114.935,14.56,28.678,0.706,101.478,3.36,3.297,297.605,15.255,99213.916,37.195,114.815
河北,邯郸市,38.252,129.318,16.171,32.565,0.848,103.142,4.472,3.709,296.757,15.785,98859.068,36.538,114.596
河南,三门峡市,57.129,91.721,7.218,18.561,0.433,78.328,0.551,2.686,292.151,21.364,91625.665,34.362,111.101
河南,信阳市,49.443,117.905,8.026,13.773,0.427,89.813,-0.092,1.648,294.862,48.082,100074.732,32.091,114.907
河南,南阳市,54.32,111.683,6.638,18.536,0.458,82.06,0.757,0.766,294.595,25.358,97993.632,33.034,112.323
河南,周口市,49.647,150.704,8.892,19.21,0.611,98.577,0.347,3.779,295.48,25.566,100749.32,33.738,114.884
河南,商丘市,49.798,145.72,9.054,17.622,0.621,105.638,1.493,3.768,295.469,25.668,100799.878,34.277,115.718
河南,安阳市,41.99,127.052,14.494,30.838,0.788,102.36,3.564,3.73,296.701,15.688,98551.915,35.888,114.318
河南,平顶山市,55.559,125.042,10.461,25.862,0.56,85.018,2.307,1.716,295.598,20.66,98575.419,33.8,113.025
河南,开封市,53.906,156.914,12.469,29.787,0.726,98.433,2.163,4.272,295.897,20.024,100416.598,34.594,114.514
河南,新乡市,45.958,138.455,15.425,35.503,0.806,97.096,3.194,3.5,296.343,17.554,99442.296,35.256,114.111
河南,洛阳市,57.146,98.098,8.938,19.226,0.487,82.267,1.763,2.121,293.439,20.674,93973.085,34.274,112.019
河南,济源市,46.354,103.863,14.568,29.688,0.725,88.845,1.35,0.195,295.225,16.493,95744.55,35.105,112.445
河南,漯河市,52.206,156.538,10.642,27.058,0.665,90.528,0.852,3.256,296.057,22.725,100574.737,33.652,113.945
河南,濮阳市,48.439,160.867,14.171,24.683,0.813,116.711,3.598,5.004,296.192,19.914,100575.565,35.809,115.283
河南,焦作市,43.058,125.092,18.207,39.619,0.842,88.646,2.547,1.791,296.925,15.696,99258.469,35.121,113.163
河南,许昌市,52.036,155.206,14.33,36.665,0.736,87.521,1.861,2.799,296.115,19.499,99884.812,34.075,113.707
河南,郑州市,50.894,142.542,16.463,40.036,0.737,87.452,2.552,3.14,296.084,17.882,98553.218,34.634,113.438
河南,驻马店市,50.963,138.042,7.769,19.712,0.494,90.473,-0.153,2.214,295.598,32.226,100317.397,32.925,114.174
河南,鹤壁市,42.21,125.996,14.527,32.801,0.794,100.332,3.857,4.394,297.149,15.653,99717.436,35.716,114.319
浙江,丽水市,20.478,40.474,9.039,11.865,0.644,72.677,-1.349,-3.131,292.095,78.418,94367.089,28.194,119.51
浙江,台州市,27.085,50.95,7.519,16.795,0.662,79.456,-0.457,-6.144,293.084,61.656,98570.934,28.742,121.109
浙江,嘉兴市,29.556,83.651,9.337,23.633,0.76,124.691,-0.374,-2.113,293.378,60.775,101324.738,30.635,120.754
浙江,宁波市,27.997,65.134,8.364,23.18,0.702,105.111,0.753,-5.59,292.317,62.998,100094.401,29.706,121.49
浙江,杭州市,22.982,58.385,9.547,16.642,0.67,101.935,-2.191,-2.728,292.59,58.153,98461.533,29.891,119.464
浙江,温州市,21.157,41.469,8.257,21.151,0.759,57.367,-0.923,-4.505,293.911,70.706,97364.483,27.897,120.411
浙江,湖州市,29.439,78.819,9.676,22.69,0.763,120.064,-0.121,-1.385,292.961,58.891,100077.75,30.757,119.871
浙江,绍兴市,29.662,60.612,6.877,17.822,0.704,112.908,-1.265,-3.899,292.617,58.951,99275.573,29.709,120.64
浙江,舟山市,21.978,62.868,11.188,16.485,0.62,100.32,1.908,-7.318,291.802,72.625,101070.048,30.038,122.23
浙江,衢州市,15.881,40.286,11.244,13.404,0.647,76.132,-3.688,-2.898,293.511,64.041,97667.079,28.912,118.675
浙江,金华市,22.148,46.656,7.662,15.873,0.679,89.155,-1.9,-3.92,292.771,61.598,97933.358,29.109,119.967
海南,万宁市,10.417,13.822,1.207,3.141,0.133,53.453,-2.131,0.53,300.379,82.747,99671.204,18.842,110.294
海南,三亚市,11.471,18.603,1.734,11.434,0.504,37.791,-3.644,0.181,299.844,81.174,98455.656,18.413,109.407
海南,东方市,14.054,17.203,1.736,4.426,0.145,56.953,-0.559,0.493,300.717,74.335,99062.145,18.971,108.838
海南,临高县,12.197,18.951,2.141,6.871,0.28,52.001,-2.201,1.104,301.001,74.911,100222.126,19.821,109.733
海南,乐东黎族自治县,12.349,16.346,0.855,6.841,0.263,45.423,-1.894,0.495,299.593,77.77,97579.287,18.659,109.072
海南,五指山市,11.838,15.64,0.67,6.754,0.216,45.178,-2.856,1.636,297.792,81.07,94441.394,18.81,109.518
海南,儋州市,12.584,17.215,1.279,4.384,0.188,53.618,-1.481,0.551,300.987,73.8,99878.36,19.568,109.399
海南,定安县,10.793,17.103,1.485,7.088,0.305,48.023,-2.193,1.01,300.508,79.165,99939.89,19.47,110.28
海南,屯昌县,10.754,15.812,1.18,5.472,0.238,49.626,-2.15,1.782,300.134,80.184,99167.822,19.342,110.076
海南,文昌市,10.657,13.866,1.054,3.208,0.164,51.723,-3.014,0.192,301.001,77.784,100708.911,19.707,110.773
海南,昌江黎族自治县,14.467,18.15,1.993,4.482,0.154,58.789,-0.487,-0.3,300.167,74.947,98064.684,19.233,109.016
海南,海口市,11.4,19.162,2.667,9.812,0.357,45.222,-2.728,0.334,300.797,76.865,100508.842,19.842,110.393
海南,澄迈县,11.493,18.876,2.537,8.819,0.346,48.596,-2.407,1.354,300.804,76.406,100055.47,19.676,109.989
海南,琼中黎族苗族自治县,11.273,15.112,0.837,4.591,0.167,48.637,-2.231,2.156,299.078,81.175,97024.205,19.087,109.847
海南,琼海市,10.435,14.41,1.067,3.873,0.17,52.555,-2.1,0.6,300.865,79.66,100483.883,19.22,110.43
海南,白沙黎族自治县,11.796,15.345,0.772,4.215,0.154,50.635,-1.395,1.209,299.704,72.506,96732.626,19.2,109.388
海南,陵水黎族自治县,10.889,14.79,0.721,5.534,0.249,46.196,-2.333,-0.391,299.883,83.584,99010.333,18.581,109.913
湖北,仙桃市,43.435,134.202,7.513,17.551,0.604,86.765,0.259,-0.152,295.063,55.785,101062.768,30.284,113.417
湖北,十堰市,50.274,86.264,5.78,7.3,0.348,75.326,-0.123,0.538,291.989,33.863,93197.16,32.462,110.476
湖北,咸宁市,44.524,111.282,7.888,12.228,0.598,76.663,-0.496,-0.004,294.017,72.089,99225.8,29.621,114.178
湖北,天门市,44.772,133.296,8.437,19.073,0.618,90.215,0.051,-0.443,295.302,45.197,101012.248,30.633,113.053
湖北,孝感市,44.877,127.801,6.349,13.04,0.56,93.423,0.068,0.159,295.005,47.316,100426.164,31.116,113.869
湖北,宜昌市,52.782,96.069,5.958,10.882,0.354,79.083,0.123,0.434,292.198,40.062,94064.827,30.746,111.129
湖北,恩施土家族苗族自治州,38.16,63.456,6.896,6.93,0.359,63.671,-0.873,1.819,289.408,67.781,89589.928,30.195,109.552
湖北,武汉市,47.672,131.295,6.798,20.125,0.653,84.457,-0.32,0.454,295.078,58.967,100962.469,30.606,114.349
湖北,潜江市,44.084,133.707,9.469,22.049,0.638,84.009,0.131,-0.629,295.32,46.722,101024.141,30.33,112.77
湖北,神农架林区,59.51,76.353,3.641,2.745,0.21,79.724,0.805,1.842,286.714,48.028,83065.108,31.592,110.49
湖北,荆州市,45.362,123.025,9.363,18.513,0.573,80.086,0.38,-0.705,295.207,48.357,100797.321,30.01,112.512
湖北,荆门市,50.003,122.035,8.711,19.565,0.548,89.142,-0.018,-0.596,295.025,36.597,100008.28,31.059,112.616
湖北,襄阳市,52.971,108.359,6.59,14.83,0.434,82.925,0.949,1.236,293.742,32.555,97283.793,31.919,111.96
湖北,鄂州市,49.876,124.349,9.477,21.414,0.709,78.09,-0.556,0.803,295.197,62.631,101016.359,30.337,114.794
湖北,随州市,49.933,123.958,6.827,14.085,0.478,89.05,0.204,0.538,294.497,35.935,99309.214,31.809,113.43
湖北,黄冈市,44.785,92.237,8.513,11.36,0.543,82.206,-1.037,0.42,294.66,58.199,99302.62,30.702,115.358
湖北,黄石市,46.745,108.889,9.584,17.204,0.716,74.694,-0.765,-0.203,294.334,68.395,100054.059,29.925,115.034
湖南,娄底市,47.031,97.294,11.259,8.629,0.567,71.358,-1.212,-1.157,292.891,71.261,97106.774,27.715,111.632
湖南,岳阳市,45.603,113.913,8.952,13.052,0.553,73.963,0.101,-0.332,294.033,69.482,99930.84,29.081,113.275
湖南,常德市,46.387,98.194,8.874,10.089,0.468,70.884,-0.098,-0.465,294.168,49.773,99149.299,29.271,111.524
湖南,张家界市,42.288,80.853,6.583,5.609,0.35,65.273,-0.62,-0.102,292.027,58.839,95281.536,29.379,110.526
湖南,怀化市,36.136,72.652,9.115,4.167,0.587,66.231,-0.769,-1.498,292.493,73.817,96203.739,27.535,110.071
湖南,株洲市,35.062,75.557,11.589,12.021,0.672,61.942,0.096,-2.004,293.825,81.676,97798.451,27.109,113.513
湖南,永州市,40.803,77.106,12.742,6.937,0.579,79.507,-1.747,-2.186,294.223,78.46,96408.776,25.748,111.723
湖南,湘潭市,43.349,109.071,9.927,15.381,0.62,67.764,-0.507,-2.42,293.619,74.66,100057.527,27.744,112.619
湖南,湘西土家族苗族自治州,30.353,72.764,7.634,5.314,0.59,56.416,-0.947,-0.349,291.301,73.998,95216.851,28.708,109.718
湖南,益阳市,46.675,99.615,8.353,8.372,0.5,70.603,-0.109,-0.875,293.153,65.599,98663.885,28.525,111.919
湖南,衡阳市,42.1,98.062,10.9,11.188,0.615,75.757,-0.036,-2.342,294.693,73.702,99558.186,26.781,112.565
湖南,邵阳市,41.401,82.876,12.561,6.717,0.568,72.841,-1.497,-0.643,292.456,78.022,94907.147,26.893,110.881
湖南,郴州市,35.543,73.757,8.86,9.634,0.936,82.664,-0.072,-2.505,294.123,82.406,95592.307,25.769,113.109
湖南,长沙市,42.205,97.035,9.172,14.33,0.613,63.065,-0.569,-1.532,293.475,75.533,99469.049,28.235,113.159
甘肃,临夏回族自治州,28.976,45.135,4.218,10.082,0.321,89.799,-2.004,0.216,287.302,45.939,77212.906,35.617,103.291
甘肃,兰州市,28.681,52.231,6.142,19.129,0.362,84.702,-2.984,0.701,288.033,34.767,78840.482,36.359,103.633
甘肃,嘉峪关市,20.008,67.583,14.197,25.308,0.592,107.207,0.787,-0.063,290.025,12.452,81354.898,39.798,98.145
甘肃,天水市,32.423,60.244,4.398,10.064,0.24,77.179,-1.301,6.804,286.128,48.555,82504.679,34.645,105.739
甘肃,定西市,31.66,50.068,3.538,6.718,0.236,83.458,-3.216,5.039,285.226,52.403,77059.571,35.124,104.432
甘肃,平凉市,32.65,65.501,5.22,18.768,0.293,78.336,-0.118,6.034,287.932,37.987,84334.912,35.304,106.644
甘肃,庆阳市,34.086,61.869,5.467,12.733,0.283,88.026,0.024,4.823,288.66,29.969,85608.992,36.149,107.596
甘肃,张掖市,18.57,23.141,1.909,3.395,0.168,95.256,-0.396,0.295,284.451,29.587,74509.334,38.94,99.855
甘肃,武威市,26.142,32.761,3.19,5.202,0.198,95.547,-1.116,0.512,288.826,23.621,81087.158,38.163,103.073
甘肃,甘南藏族自治州,26.845,30.815,2.386,1.645,0.181,79.053,-1.93,1.703,281.383,73.252,67600.325,34.331,102.768
甘肃,白银市,33.122,52.694,5.133,14.263,0.285,81.943,-2.041,5.019,288.283,36.117,81210.85,36.59,104.646
甘肃,酒泉市,20.432,22.372,1.036,1.524,0.138,97.884,2.238,-0.343,287.42,9.935,78836.282,40.236,96.062
甘肃,金昌市,20.369,34.114,4.784,8.629,0.24,106.078,-0.861,0.707,288.253,22.618,80331.293,38.44,102.048
甘肃,陇南市,31.753,58.258,6.003,4.519,0.238,80.316,-0.944,5.62,284.878,60.247,82083.468,33.599,105.224
福建,三明市,27.784,41.793,12.477,7.54,0.659,79.689,0.472,-2.366,295.886,84.78,94920.684,26.29,117.395
福建,南平市,21.777,35.354,11.618,6.347,0.589,78.646,0.389,-2.486,295.284,82.669,95667.599,27.324,118.143
福建,厦门市,27.253,49.962,10.717,20.217,0.527,65.27,-2.983,-1.772,299.187,81.423,99933.027,24.642,118.11
福建,宁德市,19.199,37.521,10.731,10.669,0.621,70.372,-0.947,-2.211,294.36,84.828,95017.618,26.968,119.474
福建,泉州市,26.576,44.285,9.299,12.892,0.563,77.383,-1.414,-1.783,297.102,85.103,96282.517,25.201,118.249
福建,漳州市,30.198,49.236,9.595,14.632,0.532,82.939,-0.728,-0.75,298.952,80.049,97816.888,24.372,117.444
福建,福州市,17.472,36.091,7.973,12.702,0.642,79.68,-1.575,-2.476,295.992,85.486,97063.342,26.083,119.206
福建,莆田市,21.951,38.265,8.455,12.118,0.599,84.479,-2.081,-2.985,297.222,84.088,97782.535,25.445,118.864
福建,龙岩市,31.947,49.866,11.355,10.717,0.588,81.602,-0.297,-1.997,297.505,80.467,94883.336,25.256,116.739
西藏,山南市,25.297,28.457,1.818,1.254,0.196,101.741,2.019,2.905,282.276,79.993,66347.458,28.295,92.274
西藏,拉萨市,14.092,22.317,1.012,2.097,0.167,105.271,3.294,2.457,279.374,56.969,56890.739,30.043,91.093
西藏,日喀则市,16.513,17.437,0.694,0.504,0.144,105.953,6.34,0.54,276.979,36.89,55726.216,29.483,86.493
西藏,昌都市,18.265,20.69,1.173,0.586,0.171,100.141,6.227,5.547,279.918,60.728,59312.559,30.753,97.044
西藏,林芝市,26.014,28.183,1.847,1.441,0.185,93.975,0.671,2.976,280.877,91.011,66626.974,29.184,95.25
西藏,玉树藏族自治州,39.404,39.888,0.309,0.335,0.124,89.372,4.746,0.511,279.313,37.616,57438.197,34.196,94.317
西藏,那曲市,29.119,29.815,0.333,0.205,0.129,98.3,7.144,-0.202,277.398,31.968,55742.532,32.709,89.262
西藏,阿里地区,14.481,15.322,0.497,0.348,0.137,100.319,9.301,-0.204,272.085,27.856,55242.011,33.013,82.553
贵州,六盘水市,21.479,37.901,7.748,10.353,0.439,65.189,0.575,2.047,289.029,76.598,83163.609,26.106,104.896
贵州,安顺市,24.876,39.169,5.156,7.062,0.325,70.48,-1.072,0.736,290.3,77.664,88188.888,25.986,105.978
贵州,毕节市,23.63,41.173,6.695,7.989,0.398,73.635,1.637,3.301,288.872,75.778,83455.788,27.063,105.211
贵州,贵阳市,23.216,40.794,5.773,15.116,0.397,67.857,0.045,2.026,289.4,82.207,88213.176,26.845,106.71
贵州,遵义市,28.769,41.258,7.711,6.438,0.32,67.678,-1.703,2.936,289.902,81.313,90338.245,28.167,107.102
贵州,铜仁市,27.179,61.584,10.635,4.1,0.468,63.788,-1.675,1.052,290.497,80.252,92736.287,27.937,108.534
贵州,黔东南苗族侗族自治州,26.488,46.978,12.264,4.33,0.401,64.749,-0.708,-0.879,290.899,84.107,92635.138,26.495,108.574
贵州,黔南布依族苗族自治州,23.714,37.429,9.212,6.015,0.346,64.745,-0.627,-0.64,289.864,84.303,90384.315,26.0,107.265
贵州,黔西南布依族苗族自治州,22.655,34.138,7.835,5.278,0.364,66.385,-0.857,0.562,291.287,73.956,88580.623,25.256,105.467
辽宁,丹东市,29.154,79.952,8.189,9.989,0.5,77.636,2.604,1.989,284.613,59.486,97683.582,40.554,124.376
辽宁,大连市,35.826,87.702,9.018,14.215,0.521,105.005,3.352,3.415,287.438,60.196,99911.572,39.591,122.22
辽宁,抚顺市,34.14,101.746,8.029,10.706,0.475,80.144,4.586,4.793,284.629,53.273,95796.7,41.841,124.65
辽宁,朝阳市,80.007,196.05,6.491,12.238,0.513,79.771,6.643,2.111,289.681,19.663,95259.295,41.545,120.053
辽宁,本溪市,32.916,91.986,7.729,10.196,0.543,77.712,3.673,3.607,284.162,55.778,95243.347,41.232,124.544
辽宁,沈阳市,48.251,156.967,9.445,14.947,0.545,86.009,4.556,5.643,287.962,39.744,99751.467,42.081,123.159
辽宁,盘锦市,33.723,126.242,9.94,17.014,0.735,115.439,4.247,5.745,286.327,62.227,100501.277,41.13,122.01
辽宁,营口市,41.039,100.433,8.755,14.12,0.612,106.673,4.527,4.949,287.551,55.078,98445.345,40.395,122.478
辽宁,葫芦岛市,62.278,152.812,8.625,18.409,0.64,95.482,6.478,3.53,290.848,24.496,98031.525,40.66,120.215
辽宁,辽阳市,32.215,127.917,9.807,15.569,0.768,88.408,4.556,5.343,287.361,50.048,98561.803,41.153,123.261
辽宁,铁岭市,44.154,139.517,7.956,13.233,0.421,81.412,4.499,5.957,286.543,45.335,98190.19,42.653,124.158
辽宁,锦州市,48.327,165.917,10.301,18.59,0.672,99.68,3.816,5.173,287.833,41.225,99611.671,41.502,121.659
辽宁,阜新市,66.073,150.586,6.499,11.813,0.417,78.703,4.95,4.579,288.701,27.05,98054.142,42.289,121.968
辽宁,鞍山市,33.127,110.665,8.774,14.15,0.68,93.229,4.105,4.06,286.983,53.15,98683.524,40.731,123.007
重庆,重庆城区,29.004,48.838,10.562,13.908,0.411,66.423,-1.543,2.063,292.348,70.643,94763.271,29.824,107.125
重庆,重庆郊县,40.158,59.697,10.003,7.324,0.358,65.692,-1.197,1.879,290.294,68.107,91080.053,30.334,108.755
陕西,咸阳市,36.469,93.484,8.391,29.151,0.582,80.068,-0.919,1.308,291.88,26.348,91188.427,34.779,108.367
陕西,商洛市,58.236,82.992,4.126,10.15,0.302,73.868,0.379,2.055,289.616,31.305,89274.591,33.64,109.889
陕西,安康市,53.652,77.065,5.469,5.989,0.272,68.582,0.223,1.264,289.577,43.779,89811.124,32.735,108.932
陕西,宝鸡市,32.474,71.025,5.513,16.894,0.332,79.065,0.039,3.74,288.466,40.766,86192.851,34.386,107.193
陕西,延安市,39.085,66.192,8.513,19.192,0.473,78.828,1.662,3.799,289.75,24.106,87376.007,36.432,109.316
陕西,榆林市,31.939,53.159,7.519,24.013,0.52,79.464,3.216,3.553,290.836,20.425,87630.407,38.041,109.581
陕西,汉中市,45.567,68.722,5.911,5.833,0.273,70.713,-0.285,2.425,288.695,49.693,88850.644,33.088,107.098
陕西,渭南市,45.441,99.796,14.259,34.973,0.629,72.325,-0.094,1.38,293.785,21.809,93514.34,34.919,109.855
陕西,西安市,42.319,88.626,6.221,24.74,0.472,68.607,0.41,4.325,291.513,33.007,90291.162,34.12,108.77
陕西,铜川市,45.879,84.946,8.989,22.543,0.552,81.138,-0.2,2.848,291.084,22.422,88979.128,35.198,109.058
青海,保亭黎族苗族自治县,12.026,18.006,1.232,10.832,0.416,39.808,-2.742,-0.284,298.552,86.002,96904.644,18.566,109.618
青海,吐鲁番市,101.439,109.235,1.26,2.635,0.166,71.273,4.775,1.132,294.202,16.055,89433.716,42.386,89.851
青海,果洛藏族自治州,19.81,20.294,0.868,0.604,0.137,80.08,1.928,1.49,280.772,61.0,60056.385,34.127,99.404
青海,海东市,32.081,39.977,5.271,5.932,0.271,80.452,-3.366,0.111,284.121,44.098,72662.922,36.347,102.34
青海,海北藏族自治州,22.779,24.218,1.871,1.761,0.14,85.321,-0.781,0.629,277.77,52.138,65425.138,37.775,100.288
青海,海南藏族自治州,22.949,23.862,1.46,1.15,0.149,74.429,-1.933,-0.174,281.533,56.014,66477.286,35.89,100.272
青海,海西蒙古族藏族自治州,33.337,33.694,0.387,0.371,0.118,82.697,2.348,-1.478,280.889,23.794,64567.667,36.677,94.519
青海,西宁市,30.467,46.479,5.301,7.921,0.489,84.978,-2.248,0.449,281.541,46.386,69547.816,36.842,101.423
青海,黄南藏族自治州,23.605,24.568,1.86,1.072,0.161,76.212,-2.209,0.794,280.74,74.76,65819.594,35.022,101.631
香港,香港特别行政区,21.45,33.49,7.385,25.1,0.38,78.15,1.37,1.625,301.09,77.04,100499.755,22.45,114.22
黑龙江,七台河市,10.974,18.824,4.032,5.688,0.238,85.538,3.705,1.108,283.313,60.189,96865.417,45.87,130.943
黑龙江,伊春市,11.019,13.715,1.958,1.593,0.19,77.096,2.641,1.47,280.111,63.021,95342.544,47.772,129.184
黑龙江,佳木斯市,9.923,13.834,3.01,3.293,0.225,78.598,3.046,2.736,283.908,61.752,98761.111,47.207,132.11
黑龙江,双鸭山市,9.926,13.429,3.421,3.911,0.219,78.156,2.845,3.321,283.821,63.821,98390.637,46.722,132.643
黑龙江,哈尔滨市,24.392,35.263,3.173,5.108,0.262,73.717,3.969,1.868,283.601,52.281,97180.433,45.634,127.964
黑龙江,大兴安岭地区,8.502,9.1,0.95,1.131,0.171,75.097,0.287,4.652,278.516,51.617,92981.283,52.286,124.212
黑龙江,大庆市,25.754,34.113,3.236,4.622,0.225,66.812,2.929,4.123,285.295,46.566,98293.979,46.327,124.687
黑龙江,牡丹江市,20.09,30.787,3.119,4.097,0.197,78.815,4.978,1.464,282.992,55.6,94177.198,44.592,129.883
黑龙江,绥化市,17.063,24.371,3.478,4.139,0.242,70.652,2.31,2.974,283.142,53.469,97571.187,46.89,126.634
黑龙江,鸡西市,10.211,15.194,3.375,4.13,0.199,78.703,2.33,3.209,283.851,64.956,98175.388,45.626,132.289
黑龙江,鹤岗市,10.453,15.548,3.012,3.438,0.258,80.862,3.285,1.212,282.65,60.236,97748.864,47.661,130.778
黑龙江,黑河市,11.876,13.309,1.856,1.834,0.186,73.791,1.459,4.208,280.219,60.041,95548.725,49.268,127.004
黑龙江,齐齐哈尔市,16.219,19.995,2.732,3.375,0.195,67.614,2.481,3.288,283.414,48.369,97404.373,47.715,124.57
