province,city,PM2.5,PM10,SO2,NO2,CO,O3,U,V,TEMP,RH,PSFC,lat,lon
上海,上海市,19.177,32.727,5.52,21.982,0.497,64.994,-0.598,0.964,293.978,91.035,101060.767,31.173,121.42
云南,临沧市,20.725,30.742,4.085,5.221,0.392,78.178,1.912,1.035,295.171,62.336,83855.804,23.935,99.686
云南,丽江市,20.31,33.887,7.148,3.973,0.543,84.464,-1.379,0.609,286.933,74.924,74810.082,26.96,100.515
云南,保山市,20.576,36.679,4.453,6.233,0.469,75.827,2.347,0.544,293.002,69.234,81862.457,24.953,98.962
云南,大理白族自治州,18.683,33.725,4.745,3.862,0.395,82.424,0.947,0.201,290.328,70.512,78188.52,25.726,100.053
云南,德宏傣族景颇族自治州,26.904,39.002,5.335,7.526,0.379,72.066,1.038,-0.265,295.076,70.964,85970.204,24.535,98.052
云南,怒江傈僳族自治州,23.254,35.033,2.937,1.35,0.381,71.652,1.473,1.321,285.301,91.5,72939.985,26.916,98.885
云南,文山壮族苗族自治州,22.548,31.792,7.077,3.921,0.38,81.055,0.574,1.376,294.594,76.62,86476.521,23.696,104.735
云南,昆明市,25.587,40.963,6.995,9.074,0.433,82.557,0.389,0.573,290.89,65.717,79332.991,25.384,102.863
云南,昭通市,24.887,38.702,8.246,4.829,0.371,77.175,0.1,-5.689,285.066,88.393,84432.129,27.667,103.985
云南,普洱市,22.555,31.978,3.546,4.386,0.317,70.278,0.822,2.377,296.245,62.178,85887.077,23.159,100.718
云南,曲靖市,24.231,37.28,9.186,7.788,0.373,75.604,1.325,-2.776,289.263,69.79,80155.246,25.737,103.929
云南,楚雄彝族自治州,22.007,33.513,5.132,4.045,0.346,85.984,0.873,0.568,293.052,60.417,81011.585,25.328,101.567
云南,玉溪市,21.134,32.161,4.753,4.572,0.365,79.885,0.702,2.754,294.83,64.564,83451.52,24.136,102.217
云南,红河哈尼族彝族自治州,19.869,30.439,5.929,3.554,0.298,81.18,0.017,2.063,294.677,73.079,85119.245,23.451,103.034
云南,西双版纳傣族自治州,21.196,36.545,5.469,6.617,0.519,54.095,0.4,2.448,297.54,65.076,88817.999,21.939,100.912
云南,迪庆藏族自治州,20.343,32.064,3.966,2.108,0.473,72.891,1.71,2.754,282.121,90.206,67502.202,27.957,99.459
内蒙古,乌兰察布市,99.661,118.077,0.749,1.167,0.155,83.236,8.962,-5.609,280.547,30.784,85888.742,41.691,112.44
内蒙古,乌海市,43.988,131.748,14.839,12.974,0.28,108.405,7.151,-5.186,286.636,11.07,88146.952,39.396,106.856
内蒙古,兴安盟,12.553,18.726,4.003,2.114,0.204,79.193,4.83,0.45,282.405,55.034,93641.141,46.244,121.341
内蒙古,包头市,87.58,117.929,1.328,3.303,0.175,81.243,8.129,-5.253,281.77,22.997,86035.148,41.549,110.276
内蒙古,呼伦贝尔市,12.129,15.064,2.526,1.688,0.191,79.72,6.185,1.539,279.207,57.163,92134.608,49.636,121.171
内蒙古,呼和浩特市,68.73,159.148,3.532,8.859,0.275,81.296,7.668,-5.184,282.613,31.086,86366.872,40.578,111.513
内蒙古,巴彦淖尔市,98.081,109.906,0.461,1.22,0.133,82.123,7.631,-3.931,284.169,16.068,87592.672,41.446,107.582
内蒙古,赤峰市,56.151,68.402,4.001,3.105,0.217,77.164,8.04,-1.758,283.198,48.225,91167.396,43.226,118.892
内蒙古,通辽市,17.431,22.245,6.334,4.728,0.224,76.855,3.241,2.599,284.938,60.056,96952.168,43.814,121.591
内蒙古,鄂尔多斯市,103.916,171.04,4.066,6.028,0.186,84.067,7.503,-5.384,285.464,15.181,87366.456,39.407,108.63
内蒙古,锡林郭勒盟,77.682,90.222,0.689,0.521,0.184,82.109,8.878,-3.87,279.639,40.729,88548.388,44.179,115.482
内蒙古,阿拉善盟,67.728,70.277,0.468,0.984,0.124,89.617,3.725,-1.175,287.318,11.372,88025.846,40.473,102.467
北京,北京市,57.038,108.638,2.486,13.0,0.313,72.009,4.33,-4.041,289.652,42.617,97310.254,40.158,116.395
台湾,台湾省,24.792,28.364,7.767,18.521,0.157,76.13,1.343,-0.421,296.373,75.923,92823.257,23.757,120.975
吉林,吉林市,13.171,22.868,5.295,9.489,0.36,80.948,2.255,6.116,286.044,56.67,96460.4,43.573,126.859
吉林,四平市,17.085,38.569,7.711,12.489,0.377,78.138,2.241,5.918,285.168,62.295,98603.911,43.472,124.386
吉林,延边朝鲜族自治州,8.97,15.333,3.038,4.0,0.204,83.235,0.327,4.343,286.058,55.122,93665.281,43.141,129.147
吉林,松原市,14.083,40.655,6.738,7.578,0.29,80.572,2.335,5.814,285.584,58.552,98820.088,44.785,124.496
吉林,白城市,10.567,21.373,4.775,3.446,0.204,82.066,1.681,4.437,285.5,63.476,98787.818,45.35,123.031
吉林,白山市,10.826,18.184,4.655,7.504,0.399,73.386,1.683,5.701,284.215,59.621,91822.95,42.063,127.256
吉林,辽源市,13.325,22.436,5.356,10.066,0.376,76.13,2.732,5.735,284.773,64.64,96852.866,42.836,125.32
吉林,通化市,12.945,21.919,5.465,10.299,0.467,69.493,1.212,6.298,284.437,67.245,95181.013,41.939,125.927
吉林,长春市,16.217,43.78,5.733,12.339,0.409,79.661,2.859,6.202,286.262,55.705,98471.01,44.268,125.611
四川,乐山市,20.519,28.925,6.249,6.435,0.292,79.085,1.496,-2.882,287.302,73.512,90006.577,29.218,103.569
四川,内江市,17.703,33.91,4.568,7.838,0.278,76.848,1.815,-6.607,289.276,71.185,96904.712,29.62,104.95
四川,凉山彝族自治州,23.606,33.639,7.902,4.233,0.321,81.49,-3.1,-1.423,284.188,79.501,74454.973,27.883,102.065
四川,南充市,26.686,58.21,5.253,8.787,0.312,74.861,-2.755,-6.496,292.121,51.445,96808.424,31.19,106.199
四川,宜宾市,15.026,28.347,7.713,8.296,0.349,76.165,4.365,-4.36,289.017,78.051,95368.056,28.573,104.621
四川,巴中市,34.715,62.877,4.25,6.03,0.243,75.636,-4.569,-8.106,290.169,47.706,92559.166,32.033,107.031
四川,广元市,31.388,59.522,2.869,4.828,0.189,82.141,-2.538,-10.266,290.726,35.36,91768.843,32.261,105.788
四川,广安市,12.372,32.162,7.473,9.961,0.396,70.698,-2.762,-8.42,290.334,80.906,96703.768,30.43,106.628
四川,德阳市,19.816,43.057,3.926,7.542,0.248,83.183,-3.37,-3.427,292.602,42.109,93351.915,31.13,104.436
四川,成都市,13.662,30.237,5.448,10.7,0.327,82.237,-0.754,-0.697,291.005,60.052,93559.196,30.64,103.929
四川,攀枝花市,22.073,34.967,14.712,9.799,0.554,91.458,-2.777,-0.966,291.988,56.996,81584.053,26.791,101.734
四川,泸州市,17.197,30.949,7.356,8.561,0.338,67.892,6.469,-3.986,288.013,87.925,93582.045,28.424,105.675
四川,甘孜藏族自治州,22.097,25.044,3.532,1.053,0.195,78.086,-1.038,2.171,279.209,79.258,61547.888,30.936,100.009
四川,眉山市,14.026,25.691,5.446,8.712,0.311,80.723,0.455,0.011,289.257,69.981,94093.811,29.912,103.766
四川,绵阳市,33.316,46.403,2.439,3.392,0.178,80.116,-3.489,-7.171,289.773,41.23,88189.248,31.86,104.704
四川,自贡市,13.801,28.139,5.627,8.844,0.311,77.891,3.124,-5.413,289.443,71.041,96938.578,29.307,104.659
四川,资阳市,21.232,41.414,3.399,6.509,0.277,76.798,-0.299,-6.614,290.352,62.734,97113.042,30.102,105.149
四川,达州市,25.847,43.962,8.205,10.153,0.309,71.391,-5.189,-6.602,289.841,67.993,94051.796,31.335,107.636
四川,遂宁市,26.65,52.317,3.626,7.304,0.295,77.347,-1.93,-7.089,291.883,49.693,97304.571,30.642,105.457
四川,阿坝藏族羌族自治州,24.834,31.51,4.358,1.359,0.202,69.325,-2.094,-0.475,277.219,85.6,65952.202,32.406,102.61
四川,雅安市,22.156,30.594,8.034,4.402,0.276,77.477,-1.136,1.622,283.563,86.663,80474.751,29.932,102.689
天津,天津市,45.876,102.386,4.155,22.783,0.529,74.711,3.715,-1.46,291.269,49.536,100945.911,39.315,117.308
宁夏,中卫市,63.473,93.916,2.133,4.781,0.154,87.99,2.715,-4.555,284.685,16.979,84215.235,37.018,105.509
宁夏,吴忠市,56.304,99.555,5.212,7.359,0.17,86.076,4.63,-4.736,285.334,16.269,85708.55,37.454,106.577
宁夏,固原市,43.748,80.677,2.11,6.757,0.166,93.958,2.001,-6.349,282.45,22.895,81600.041,35.905,106.183
宁夏,石嘴山市,43.805,112.547,12.268,11.516,0.256,105.484,6.362,-5.316,286.373,11.669,87258.588,39.013,106.499
宁夏,银川市,43.534,86.297,10.834,15.813,0.272,93.638,4.723,-3.207,286.946,12.706,87619.361,38.287,106.342
安徽,亳州市,33.552,53.783,7.087,19.155,0.613,60.861,1.009,-3.747,293.19,65.86,100957.36,33.44,116.162
安徽,六安市,33.441,53.665,7.13,13.163,0.568,55.784,1.335,-1.857,291.571,84.671,98532.805,31.617,116.209
安徽,合肥市,25.245,40.386,5.922,19.578,0.679,49.39,1.636,-2.651,292.448,82.863,100805.559,31.766,117.359
安徽,安庆市,25.861,42.209,8.604,11.406,0.601,49.691,-0.966,-3.821,293.628,82.441,98884.076,30.557,116.473
安徽,宣城市,19.922,32.606,7.401,19.978,0.669,44.139,1.339,-0.971,293.518,87.756,98774.141,30.676,118.846
安徽,宿州市,28.006,43.979,6.645,22.501,0.664,59.676,1.084,-3.129,292.664,71.427,100861.628,33.844,117.23
安徽,池州市,19.92,34.255,9.716,14.978,0.627,44.432,-0.832,-3.458,293.677,86.035,99034.209,30.296,117.379
安徽,淮北市,32.535,49.437,7.356,25.731,0.689,57.092,1.255,-3.608,292.955,66.648,100928.715,33.722,116.747
安徽,淮南市,26.632,43.225,7.166,17.638,0.612,53.736,1.298,-1.944,292.165,80.251,100991.827,32.463,116.746
安徽,滁州市,26.567,39.928,6.105,20.965,0.586,53.551,1.211,-1.964,292.004,84.14,100666.708,32.55,118.076
安徽,芜湖市,24.119,37.054,8.245,23.201,0.721,45.791,1.006,-2.807,293.479,83.836,100928.293,31.167,118.162
安徽,蚌埠市,27.911,39.1,6.834,20.982,0.569,60.842,0.827,-2.605,292.432,77.113,100938.16,33.121,117.263
安徽,铜陵市,25.806,39.918,9.002,19.276,0.661,47.561,0.562,-4.467,293.501,82.401,100805.808,30.883,117.531
安徽,阜阳市,30.738,59.742,8.954,17.213,0.636,55.828,0.624,-3.315,293.168,69.508,100957.644,32.937,115.723
安徽,马鞍山市,23.829,37.136,7.409,22.758,0.745,46.895,1.157,-2.389,293.021,84.398,100926.252,31.622,118.386
安徽,黄山市,14.588,30.267,10.06,10.944,0.645,44.947,-0.481,-2.51,294.119,88.159,96827.541,29.869,118.09
山东,东营市,32.193,55.416,9.093,18.372,0.614,75.944,2.424,-0.265,290.462,62.41,101093.647,37.57,118.572
山东,临沂市,20.633,43.715,5.027,20.717,0.565,71.745,1.356,-2.812,290.708,75.062,99383.531,35.289,118.27
山东,威海市,10.481,18.745,4.941,10.79,0.312,86.215,0.143,0.8,286.149,96.417,100428.63,37.148,122.028
山东,德州市,29.511,56.032,5.226,19.431,0.646,73.195,2.876,-2.017,292.591,49.76,101018.382,37.233,116.679
山东,日照市,18.879,34.71,4.551,16.533,0.45,85.07,0.658,-2.103,289.811,81.877,99461.3,35.566,119.108
山东,枣庄市,24.115,54.71,7.388,24.598,0.672,58.038,1.36,-3.564,291.948,68.108,100139.447,34.925,117.383
山东,泰安市,24.178,58.915,6.124,22.763,0.676,67.728,2.114,-2.374,291.413,62.196,99327.916,35.993,117.04
山东,济南市,26.853,56.665,5.461,24.843,0.732,68.411,2.81,-0.85,291.176,60.719,99274.557,36.639,117.254
山东,济宁市,25.487,62.636,8.034,21.533,0.673,65.231,1.628,-3.179,292.843,58.545,100602.906,35.375,116.697
山东,淄博市,30.144,58.672,8.145,25.516,0.92,71.349,2.648,-0.861,289.98,67.703,98645.74,36.623,118.062
山东,滨州市,34.779,59.812,7.019,19.718,0.703,76.769,2.242,-0.795,291.32,57.624,101050.054,37.516,117.852
山东,潍坊市,24.139,43.033,6.397,19.808,0.599,77.757,1.749,-0.543,289.268,79.137,100037.503,36.53,119.092
山东,烟台市,14.181,25.596,5.542,11.964,0.38,79.95,1.557,0.874,286.916,89.714,99958.025,37.25,120.789
山东,聊城市,28.977,58.388,6.138,18.096,0.613,74.527,2.448,-3.654,293.173,46.67,100877.224,36.458,115.863
山东,菏泽市,29.977,74.377,7.232,16.832,0.736,77.692,1.62,-4.248,293.949,49.196,100791.111,35.134,115.69
山东,青岛市,15.845,29.316,4.442,14.743,0.386,86.039,1.144,-0.669,288.423,87.827,100549.726,36.46,120.172
山西,临汾市,67.824,128.771,5.664,10.181,0.282,80.552,4.522,-7.669,287.742,36.812,90243.596,36.227,111.398
山西,吕梁市,72.367,123.238,4.627,8.411,0.211,80.049,6.208,-7.135,285.656,32.593,87880.929,37.663,111.27
山西,大同市,56.728,114.413,4.75,5.633,0.251,86.392,8.172,-6.659,283.517,41.432,87102.302,39.911,113.713
山西,太原市,54.999,105.284,3.87,11.357,0.253,83.862,7.424,-7.299,285.742,34.055,87631.562,37.967,112.321
山西,忻州市,63.065,104.386,4.382,7.927,0.2,81.315,8.594,-7.03,283.649,35.901,86131.102,38.877,112.391
山西,晋中市,41.786,90.422,5.26,15.199,0.385,78.576,6.713,-5.597,286.696,41.423,88508.872,37.328,112.997
山西,晋城市,45.83,105.602,8.203,12.68,0.472,83.153,4.464,-7.287,288.776,43.454,90452.638,35.625,112.752
山西,朔州市,49.803,122.766,5.208,8.958,0.261,85.128,8.755,-5.986,283.419,37.005,86572.139,39.619,112.655
山西,运城市,58.799,157.044,8.9,15.56,0.399,83.469,3.469,-6.311,290.744,38.687,94403.875,35.205,111.071
山西,长治市,41.562,87.902,7.467,13.75,0.459,78.748,5.4,-6.352,287.332,42.594,88812.367,36.48,112.915
山西,阳泉市,48.401,89.175,5.439,14.892,0.293,79.347,8.371,-6.574,287.727,35.954,90269.148,38.031,113.512
广东,东莞市,20.602,36.762,7.1,26.519,0.572,71.402,0.49,2.656,301.296,77.729,100803.119,22.931,113.81
广东,中山市,13.036,21.392,4.996,12.047,0.388,59.441,-0.508,2.619,301.059,79.068,100810.459,22.5,113.383
广东,云浮市,13.84,23.492,2.302,9.507,0.378,49.679,0.352,2.733,301.042,68.9,98810.458,22.776,111.818
广东,佛山市,17.24,28.984,7.565,21.08,0.495,67.014,0.564,2.263,302.072,71.64,100814.043,23.035,112.979
广东,广州市,22.907,38.668,8.414,28.683,0.578,85.403,0.506,2.033,301.349,73.266,99953.302,23.339,113.525
广东,惠州市,18.128,25.926,5.165,16.143,0.364,72.114,0.564,2.538,300.293,77.542,99027.172,23.244,114.485
广东,揭阳市,20.035,30.902,4.6,7.17,0.58,56.323,0.36,2.465,300.342,76.26,99621.809,23.323,116.123
广东,梅州市,24.247,35.87,6.286,11.248,0.64,65.313,1.111,1.969,300.375,71.229,97611.847,24.169,116.07
广东,汕头市,16.772,26.466,7.466,8.674,0.453,55.964,0.134,2.753,300.268,80.619,100723.601,23.339,116.614
广东,汕尾市,14.303,18.498,2.516,4.983,0.271,52.92,0.408,2.455,299.978,78.651,99371.399,23.024,115.527
广东,江门市,10.875,15.555,2.445,6.387,0.239,50.742,-0.124,2.829,300.978,78.322,100253.195,22.289,112.676
广东,河源市,25.084,32.175,5.961,12.402,0.419,85.967,1.886,2.431,300.26,73.52,97802.444,24.021,114.969
广东,深圳市,15.411,27.998,6.544,25.451,0.463,49.083,0.042,3.188,300.601,79.891,100351.107,22.667,114.143
广东,清远市,21.691,31.614,4.988,16.128,0.428,76.725,1.06,2.148,300.472,69.96,97310.632,24.295,112.871
广东,湛江市,9.795,16.391,3.715,7.697,0.375,44.521,-2.199,3.254,301.56,74.25,100649.824,21.091,110.163
广东,潮州市,21.634,38.332,9.818,12.662,0.731,63.331,0.344,2.397,299.776,78.919,99077.649,23.755,116.754
广东,珠海市,7.723,9.93,1.793,3.508,0.128,51.233,-1.047,2.85,301.015,79.517,100900.26,22.095,113.317
广东,肇庆市,16.761,26.77,3.31,13.309,0.388,58.624,0.677,1.904,301.386,67.327,98908.775,23.505,112.199
广东,茂名市,11.351,18.691,3.953,7.978,0.339,46.865,-0.922,3.179,300.548,74.816,98907.642,22.013,110.952
广东,阳江市,11.088,15.998,1.965,5.648,0.234,44.95,0.128,2.728,300.395,77.974,99430.005,22.042,111.786
广东,韶关市,27.842,40.097,8.974,18.604,0.734,110.032,2.112,1.794,300.066,68.895,96538.997,24.785,113.819
广西,北海市,12.904,21.454,3.533,6.734,0.374,52.219,-0.77,3.482,301.771,78.113,100666.122,21.674,109.37
广西,南宁市,18.605,31.591,5.209,11.267,0.537,57.779,0.336,2.965,301.268,71.201,98828.563,23.051,108.469
广西,崇左市,14.386,22.595,3.312,5.24,0.326,53.361,0.979,2.924,300.457,74.818,97562.947,22.483,107.291
广西,来宾市,21.284,34.055,5.436,8.918,0.466,66.905,1.054,3.006,300.854,70.844,97699.822,23.859,109.417
广西,柳州市,23.028,32.606,7.735,7.639,0.465,70.602,0.934,1.712,299.732,72.655,97111.263,24.956,109.372
广西,桂林市,25.041,36.221,7.987,7.543,0.464,68.993,1.318,1.78,298.714,75.944,95545.228,25.353,110.513
广西,梧州市,21.547,38.895,5.622,13.242,0.578,59.23,0.997,2.44,301.207,68.771,98520.851,23.484,110.996
广西,河池市,21.231,30.869,6.825,7.467,0.506,66.549,0.57,0.816,298.199,75.03,94836.81,24.628,107.843
广西,玉林市,17.738,30.217,6.341,9.725,0.488,54.275,-0.631,3.667,300.969,73.541,98938.12,22.452,110.164
广西,百色市,24.253,34.082,8.726,5.733,0.524,75.287,-0.048,0.366,297.828,72.956,92795.564,23.981,106.292
广西,贵港市,25.706,45.963,7.299,12.398,0.616,64.259,0.681,2.962,301.617,71.661,99326.374,23.322,110.021
广西,贺州市,25.917,38.507,6.95,9.645,0.462,60.795,1.157,2.354,300.19,71.113,96756.937,24.364,111.394
广西,钦州市,17.33,28.532,4.715,9.319,0.561,52.066,-0.178,3.222,301.456,77.2,99948.805,22.173,109.01
广西,防城港市,10.614,15.514,2.683,4.656,0.277,45.267,0.861,3.91,300.128,77.807,98399.326,21.88,108.002
新疆,乌鲁木齐市,35.18,41.292,1.942,7.679,0.204,93.306,-1.888,2.203,286.752,17.793,84574.942,43.746,87.818
新疆,五家渠市,19.653,22.927,1.333,6.567,0.18,79.35,-5.8,-0.15,293.243,14.18,96599.063,44.363,87.517
新疆,伊犁哈萨克自治州,41.109,45.224,1.369,2.228,0.154,83.03,0.101,1.994,284.746,41.26,80641.57,43.438,82.146
新疆,克孜勒苏柯尔克孜自治州,87.229,101.914,0.538,0.714,0.154,69.404,-0.182,1.67,274.04,80.953,70945.324,39.661,75.949
新疆,克拉玛依市,12.511,17.279,2.204,4.405,0.233,90.858,-2.686,-1.568,291.984,15.786,97486.487,45.457,85.207
新疆,北屯市,4.91,7.482,1.632,2.252,0.442,87.914,-2.456,1.186,289.284,24.96,95700.422,47.27,87.868
新疆,博尔塔拉蒙古自治州,25.489,30.858,3.459,2.882,0.172,92.267,-0.477,1.209,285.416,33.703,86466.259,44.714,82.114
新疆,双河市,24.122,32.91,5.228,4.698,0.2,88.942,-1.918,-0.232,291.812,21.746,97927.28,44.87,82.474
新疆,可克达拉市,26.08,40.98,3.59,7.368,0.232,87.362,-2.434,0.02,294.908,23.702,94610.674,43.918,80.786
新疆,和田地区,276.206,296.257,0.27,0.625,0.124,69.8,-0.694,0.118,282.417,32.193,74380.676,37.059,80.934
新疆,哈密市,25.785,27.579,0.791,1.901,0.146,93.239,0.666,-0.229,288.947,11.156,88590.602,43.042,93.517
新疆,喀什地区,163.395,176.774,0.65,1.132,0.154,64.953,0.449,0.376,280.624,56.255,76562.313,38.125,77.178
新疆,图木舒克市,193.235,199.02,0.743,1.015,0.132,51.91,-4.635,-1.787,290.318,36.758,89679.125,39.892,79.182
新疆,塔城地区,18.433,21.337,2.53,3.081,0.186,88.906,-0.901,1.717,287.912,23.473,89782.743,45.642,84.789
新疆,巴音郭楞蒙古自治州,107.271,111.084,0.458,0.503,0.124,86.288,-2.265,-0.893,285.465,24.428,79531.118,39.463,87.481
新疆,新星市,28.96,48.28,3.93,15.435,0.375,86.93,0.06,-0.445,292.71,8.145,92948.355,42.75,93.68
新疆,昆玉市,396.313,499.213,0.607,2.387,0.143,47.19,1.613,-2.283,290.943,36.753,87284.713,37.457,79.093
新疆,昌吉回族自治州,18.454,21.222,1.299,3.961,0.161,89.037,-1.866,0.538,289.159,17.65,90114.123,44.342,88.608
新疆,石河子市,23.18,33.82,7.375,18.745,0.335,82.435,-3.81,0.27,292.195,16.62,94752.98,44.245,86.035
新疆,胡杨河市,13.384,18.418,2.406,4.342,0.262,91.098,-4.086,-1.866,292.394,16.96,97917.418,44.852,84.772
新疆,铁门关市,79.927,152.627,3.117,7.397,0.233,77.033,1.75,-1.953,293.73,20.953,91933.983,41.773,85.66
新疆,阿克苏地区,167.818,190.31,0.825,1.698,0.163,67.296,0.279,-1.387,287.285,37.342,85733.57,40.965,81.578
新疆,阿勒泰地区,4.723,5.434,1.157,1.026,0.181,87.087,-1.101,0.112,285.93,30.676,88781.299,46.902,88.421
新疆,阿拉尔市,154.762,201.782,0.921,2.832,0.2,62.563,-0.936,-3.327,290.563,36.109,90527.694,40.629,80.998
江苏,南京市,25.636,41.422,7.01,24.121,0.719,43.721,0.907,-1.607,292.775,85.846,100963.209,31.899,118.876
江苏,南通市,22.737,39.692,9.256,21.792,0.477,55.103,0.201,0.332,292.346,93.162,101065.106,32.201,120.979
江苏,宿迁市,22.58,31.932,5.917,17.87,0.583,63.23,1.092,-2.294,292.098,80.753,101055.502,33.765,118.495
江苏,常州市,26.251,43.034,6.684,23.654,0.702,40.163,0.94,-0.888,293.083,87.811,100996.814,31.613,119.666
江苏,徐州市,24.121,44.948,6.759,23.362,0.684,57.402,1.225,-3.228,292.595,70.509,100844.735,34.363,117.513
江苏,扬州市,28.892,47.068,6.027,21.515,0.636,48.438,1.214,-0.996,291.992,87.657,101093.204,32.709,119.486
江苏,无锡市,26.787,44.138,7.127,25.73,0.677,40.104,0.97,-0.547,293.156,88.696,100896.31,31.546,120.066
江苏,泰州市,27.586,46.101,7.033,22.21,0.63,48.334,1.015,-0.576,292.003,90.17,101044.927,32.605,120.048
江苏,淮安市,24.813,33.31,5.468,16.411,0.561,61.337,1.041,-1.592,291.838,84.68,101042.814,33.362,118.985
江苏,盐城市,17.811,28.431,5.937,15.208,0.468,69.809,0.451,-0.797,291.305,90.316,101080.066,33.529,120.156
江苏,苏州市,25.345,41.975,7.064,24.356,0.6,50.076,0.737,-0.128,293.545,89.558,101036.753,31.374,120.661
江苏,连云港市,19.411,30.181,4.636,17.062,0.504,75.666,0.434,-1.821,291.281,83.306,100920.771,34.519,119.133
江苏,镇江市,28.371,50.676,6.959,26.736,0.742,36.985,1.088,-1.108,292.535,88.055,100982.118,32.016,119.49
江西,上饶市,23.425,36.583,11.177,8.413,0.748,53.669,0.616,-1.888,298.07,80.48,98783.182,28.778,117.47
江西,九江市,24.244,46.483,7.514,11.628,0.698,48.546,0.584,-4.053,294.148,86.757,98865.104,29.313,115.444
江西,南昌市,16.306,37.948,8.3,11.386,0.799,49.855,1.149,-5.425,297.301,82.592,100626.909,28.671,116.016
江西,吉安市,31.149,43.766,8.997,7.935,0.714,80.441,1.777,-1.331,300.265,71.345,98390.627,26.954,114.831
江西,宜春市,27.204,47.763,8.896,11.398,0.744,56.052,-0.07,-4.014,296.976,82.277,98773.103,28.29,114.974
江西,抚州市,28.128,37.774,11.162,7.056,0.543,67.179,1.405,-0.178,299.059,78.457,98391.079,27.514,116.42
江西,新余市,35.617,57.093,10.505,14.131,0.802,58.346,-0.044,-3.566,298.538,81.474,99652.223,27.847,114.836
江西,景德镇市,16.641,30.71,9.82,7.89,0.689,43.075,-0.645,-3.178,297.314,80.242,99613.925,29.287,117.24
江西,萍乡市,27.433,45.761,10.616,12.523,0.821,52.678,2.038,-1.073,297.7,79.617,97500.565,27.505,113.908
江西,赣州市,34.805,47.145,13.382,11.022,0.909,111.948,2.003,1.319,300.379,67.669,96812.542,25.692,115.279
江西,鹰潭市,27.383,38.709,15.375,8.939,0.641,57.951,1.881,-0.261,299.237,78.648,99284.573,28.222,117.094
河北,保定市,53.799,79.228,4.326,12.173,0.254,75.757,4.492,-3.834,291.115,43.556,97371.788,39.018,115.159
河北,唐山市,47.115,115.511,11.205,26.512,0.523,71.298,3.232,-0.645,289.914,54.112,100393.797,39.731,118.354
河北,廊坊市,41.941,96.97,3.787,20.389,0.448,72.775,3.425,-2.318,292.147,47.131,101017.086,39.267,116.632
河北,张家口市,78.02,116.719,1.837,3.197,0.174,85.095,8.345,-6.515,282.256,40.191,87420.741,40.877,115.042
河北,承德市,78.654,106.431,4.327,5.99,0.277,83.262,6.599,-3.168,283.629,46.706,90503.991,41.339,117.578
河北,沧州市,37.327,70.565,6.454,18.112,0.561,79.018,2.534,-1.682,292.244,50.422,101082.27,38.258,116.744
河北,石家庄市,43.575,80.858,5.944,17.74,0.355,74.692,5.124,-4.203,292.232,39.517,97992.426,38.135,114.407
河北,秦皇岛市,48.38,79.614,9.743,22.23,0.593,73.36,3.305,-0.045,287.52,59.642,98111.542,40.12,119.193
河北,衡水市,32.418,57.896,5.248,15.455,0.454,80.661,3.927,-2.396,293.211,47.061,101003.826,37.755,115.813
河北,邢台市,37.763,71.353,6.444,15.808,0.462,81.971,3.282,-4.119,293.414,40.606,99603.503,37.195,114.815
河北,邯郸市,33.323,76.312,8.806,18.584,0.715,83.981,2.557,-3.858,293.353,41.847,99177.681,36.538,114.596
河南,三门峡市,59.364,126.817,7.569,13.027,0.348,78.357,4.219,-7.891,288.815,44.906,92022.806,34.362,111.101
河南,信阳市,34.906,82.941,9.954,14.281,0.54,53.096,0.76,-2.614,292.5,78.15,100050.728,32.091,114.907
河南,南阳市,59.882,95.227,5.876,12.041,0.388,64.936,2.499,-5.835,293.251,52.567,98159.15,33.034,112.323
河南,周口市,39.634,100.43,7.634,18.671,0.743,66.876,0.649,-4.043,294.208,58.223,100772.09,33.738,114.884
河南,商丘市,34.779,71.62,7.173,18.971,0.716,67.913,1.098,-4.098,293.894,56.399,100816.179,34.277,115.718
河南,安阳市,34.887,82.044,9.959,18.806,0.83,88.876,1.762,-4.551,293.795,41.052,98812.507,35.888,114.318
河南,平顶山市,69.223,146.733,8.05,18.898,0.572,66.216,4.912,-6.814,294.018,47.903,98733.457,33.8,113.025
河南,开封市,41.059,102.56,7.023,18.362,0.819,78.174,0.996,-4.522,294.755,48.587,100529.647,34.594,114.514
河南,新乡市,40.751,94.649,8.455,19.296,0.803,84.206,0.998,-4.027,294.694,43.266,99627.965,35.256,114.111
河南,洛阳市,63.921,126.006,8.429,13.688,0.452,72.983,5.206,-6.625,290.575,47.269,94268.534,34.274,112.019
河南,济源市,54.477,115.127,7.309,12.569,0.42,83.216,3.847,-6.234,292.78,39.559,95999.208,35.105,112.445
河南,漯河市,59.682,170.982,8.716,24.742,0.785,60.577,1.528,-4.388,295.258,53.648,100649.322,33.652,113.945
河南,濮阳市,28.964,72.28,7.363,17.18,0.745,84.394,1.582,-4.457,293.679,44.484,100790.472,35.809,115.283
河南,焦作市,47.394,130.336,9.451,22.687,0.658,78.778,2.97,-3.734,295.257,40.808,99483.922,35.121,113.163
河南,许昌市,58.03,167.715,8.71,25.61,0.791,63.071,2.089,-5.035,295.173,48.625,99997.341,34.075,113.707
河南,郑州市,54.531,162.911,9.585,27.089,0.766,68.508,3.447,-4.633,294.229,46.463,98734.371,34.634,113.438
河南,驻马店市,49.675,128.14,7.897,18.015,0.582,60.445,1.268,-4.333,294.211,62.596,100347.19,32.925,114.174
河南,鹤壁市,34.949,84.038,10.654,20.991,0.914,91.789,0.781,-3.978,294.484,41.973,99964.804,35.716,114.319
浙江,丽水市,26.756,35.485,7.23,9.208,0.494,71.528,0.998,0.741,296.375,84.755,94177.133,28.194,119.51
浙江,台州市,20.265,29.275,4.984,11.92,0.45,69.905,-0.563,0.969,295.869,88.385,98339.706,28.742,121.109
浙江,嘉兴市,21.355,33.391,4.462,17.735,0.589,60.402,0.219,-0.697,294.881,86.465,101028.329,30.635,120.754
浙江,宁波市,16.502,25.315,4.257,12.41,0.465,70.835,-0.876,0.892,295.316,89.051,99815.156,29.706,121.49
浙江,杭州市,20.472,33.748,7.022,20.26,0.711,46.282,0.772,-2.407,294.903,86.443,98180.337,29.891,119.464
浙江,温州市,23.822,35.201,5.834,16.687,0.585,67.174,-0.945,1.377,295.98,91.385,97178.162,27.897,120.411
浙江,湖州市,23.561,35.021,5.291,22.825,0.687,44.663,1.48,-0.96,293.972,87.856,99796.275,30.757,119.871
浙江,绍兴市,20.517,28.36,4.488,15.461,0.608,60.231,0.192,-0.894,296.199,82.058,98975.062,29.709,120.64
浙江,舟山市,5.442,15.95,2.065,4.235,0.212,81.872,-2.648,2.39,294.425,95.71,100816.948,30.038,122.23
浙江,衢州市,24.57,36.53,9.544,12.636,0.701,58.612,0.434,-1.655,297.554,80.448,97393.249,28.912,118.675
浙江,金华市,22.019,32.409,6.279,16.232,0.593,57.439,-0.141,-0.897,296.961,80.26,97646.255,29.109,119.967
海南,万宁市,10.386,12.861,0.926,2.209,0.118,51.894,-2.232,1.539,300.402,82.704,99675.528,18.842,110.294
海南,三亚市,11.484,15.543,1.854,5.149,0.5,39.007,-3.629,0.966,299.846,81.694,98457.06,18.413,109.407
海南,东方市,11.625,13.875,1.246,3.405,0.123,49.002,-1.196,1.736,301.011,72.124,99043.138,18.971,108.838
海南,临高县,11.17,16.493,1.923,6.331,0.311,44.293,-2.447,2.053,301.226,75.204,100211.173,19.821,109.733
海南,乐东黎族自治县,11.892,14.688,0.995,3.823,0.236,44.702,-2.376,1.396,299.547,79.072,97576.073,18.659,109.072
海南,五指山市,12.168,14.864,0.73,4.108,0.192,45.07,-2.584,2.45,297.486,83.984,94439.546,18.81,109.518
海南,儋州市,11.956,15.671,1.248,4.179,0.194,49.913,-1.401,0.758,301.163,72.857,99865.884,19.568,109.399
海南,定安县,10.455,15.372,1.495,6.197,0.317,43.253,-2.213,2.178,300.61,79.992,99935.885,19.47,110.28
海南,屯昌县,10.624,14.536,1.146,4.532,0.248,44.736,-2.31,2.846,300.248,81.032,99163.132,19.342,110.076
海南,文昌市,9.353,11.875,0.911,2.651,0.16,47.83,-3.653,1.813,301.299,77.151,100706.7,19.707,110.773
海南,昌江黎族自治县,12.851,15.578,1.631,4.021,0.144,53.382,-0.446,0.274,300.309,72.639,98052.716,19.233,109.016
海南,海口市,10.116,15.907,2.292,8.544,0.369,40.023,-2.876,1.522,301.031,77.802,100501.503,19.842,110.393
海南,澄迈县,10.781,16.444,2.33,7.797,0.364,41.57,-2.479,2.351,300.994,77.34,100047.137,19.676,109.989
海南,琼中黎族苗族自治县,11.404,14.347,0.763,3.632,0.162,45.177,-2.158,3.003,298.987,82.455,97021.167,19.087,109.847
海南,琼海市,9.963,13.027,0.967,3.172,0.165,49.232,-2.273,1.635,300.973,79.593,100487.195,19.22,110.43
海南,白沙黎族自治县,11.649,14.274,0.81,3.62,0.15,48.138,-1.052,1.83,299.661,73.292,96722.844,19.2,109.388
海南,陵水黎族自治县,11.423,14.201,0.663,3.267,0.236,46.949,-1.966,0.311,299.824,83.947,99012.469,18.581,109.913
湖北,仙桃市,14.417,42.672,5.296,9.401,0.605,54.717,0.953,-5.871,293.185,77.869,101079.021,30.284,113.417
湖北,十堰市,47.017,68.166,6.576,6.537,0.294,64.24,2.652,-3.273,289.402,58.745,93562.395,32.462,110.476
湖北,咸宁市,22.817,47.319,5.421,12.145,0.728,55.462,0.14,-2.984,293.449,86.28,99162.816,29.621,114.178
湖北,天门市,19.797,50.353,6.398,10.622,0.55,56.464,1.733,-5.932,292.676,75.225,101068.948,30.633,113.053
湖北,孝感市,21.439,53.342,6.3,9.231,0.552,55.206,1.535,-5.168,292.687,77.934,100434.446,31.116,113.869
湖北,宜昌市,31.195,45.79,6.965,10.208,0.419,55.893,0.113,-4.305,289.965,72.017,94170.007,30.746,111.129
湖北,恩施土家族苗族自治州,28.067,40.601,9.503,7.545,0.49,55.77,-3.685,-1.209,288.762,89.712,89628.178,30.195,109.552
湖北,武汉市,23.194,56.549,5.184,15.884,0.731,47.737,0.704,-3.912,294.1,77.458,100914.114,30.606,114.349
湖北,潜江市,21.363,50.416,6.308,13.386,0.579,53.407,1.468,-6.717,292.298,76.784,101090.334,30.33,112.77
湖北,神农架林区,42.535,48.91,6.32,4.116,0.245,62.635,2.079,-6.944,283.136,73.721,83256.345,31.592,110.49
湖北,荆州市,20.291,43.223,6.446,12.374,0.578,51.418,0.504,-6.599,292.484,77.676,100859.22,30.01,112.512
湖北,荆门市,31.138,57.011,6.998,12.329,0.462,57.573,2.453,-6.463,291.93,72.452,100100.167,31.059,112.616
湖北,襄阳市,40.126,68.963,7.04,11.515,0.41,59.007,4.612,-5.296,291.171,65.867,97471.788,31.919,111.96
湖北,鄂州市,30.36,62.967,5.821,18.339,0.804,47.933,0.646,-2.694,294.35,78.041,100927.199,30.337,114.794
湖北,随州市,37.785,72.74,6.728,10.822,0.428,57.808,2.622,-4.602,292.159,73.624,99361.348,31.809,113.43
湖北,黄冈市,28.485,52.64,7.642,12.514,0.617,53.018,-0.185,-3.554,293.996,78.791,99179.565,30.702,115.358
湖北,黄石市,31.332,59.528,7.002,17.255,0.795,49.152,0.965,-2.55,293.519,83.55,99941.664,29.925,115.034
湖南,娄底市,23.709,41.887,8.843,8.683,0.691,54.269,-1.888,-5.23,292.341,89.813,97058.036,27.715,111.632
湖南,岳阳市,20.49,39.01,6.182,9.66,0.589,59.58,-0.132,-5.604,293.664,85.333,99878.663,29.081,113.275
湖南,常德市,18.325,37.425,8.232,10.57,0.589,47.496,-1.51,-5.424,291.393,82.567,99219.055,29.271,111.524
湖南,张家界市,17.747,33.698,8.92,8.412,0.544,51.864,-4.638,-2.974,290.338,87.262,95304.41,29.379,110.526
湖南,怀化市,16.772,35.76,8.41,6.141,0.719,55.484,-2.578,-1.537,293.921,86.172,96120.138,27.535,110.071
湖南,株洲市,22.649,40.812,8.809,12.194,0.734,62.138,1.998,-2.121,297.142,78.609,97660.316,27.109,113.513
湖南,永州市,26.637,40.035,7.449,7.915,0.513,66.826,0.802,0.419,298.62,73.386,96277.693,25.748,111.723
湖南,湘潭市,15.32,36.171,5.727,11.75,0.659,53.755,0.738,-6.928,294.191,86.25,99962.136,27.744,112.619
湖南,湘西土家族苗族自治州,16.134,36.487,7.003,7.74,0.755,48.357,-5.328,-2.105,290.633,92.114,95189.096,28.708,109.718
湖南,益阳市,19.508,39.559,6.598,8.6,0.632,50.037,-0.359,-5.606,291.343,89.377,98677.374,28.525,111.919
湖南,衡阳市,23.656,42.543,8.41,11.529,0.75,57.274,0.056,-4.236,297.607,76.845,99403.939,26.781,112.565
湖南,邵阳市,27.345,44.512,10.545,8.725,0.638,57.251,-1.647,-1.791,294.538,86.145,94818.393,26.893,110.881
湖南,郴州市,23.407,42.426,7.042,11.167,0.941,95.35,1.875,0.209,298.789,70.997,95467.644,25.769,113.109
湖南,长沙市,21.889,41.027,6.112,10.967,0.643,57.495,0.556,-5.577,294.583,85.955,99358.939,28.235,113.159
甘肃,临夏回族自治州,29.298,40.759,2.45,5.148,0.228,85.445,-1.458,1.991,281.908,45.823,78138.678,35.617,103.291
甘肃,兰州市,30.464,51.27,5.834,13.073,0.314,88.695,-0.554,0.146,282.617,37.131,79778.612,36.359,103.633
甘肃,嘉峪关市,19.85,152.063,7.208,32.558,0.522,83.643,-3.907,2.643,285.72,16.703,82140.825,39.798,98.145
甘肃,天水市,42.204,75.526,2.071,5.516,0.175,80.899,1.278,-5.283,283.758,31.653,83327.621,34.645,105.739
甘肃,定西市,42.895,57.956,2.023,4.304,0.172,84.38,0.759,-2.871,280.389,39.707,77940.822,35.124,104.432
甘肃,平凉市,51.789,98.034,2.064,6.524,0.167,85.391,1.256,-6.032,285.038,25.008,85130.971,35.304,106.644
甘肃,庆阳市,64.057,117.906,3.404,4.642,0.169,86.71,2.81,-6.473,285.693,22.332,86350.235,36.149,107.596
甘肃,张掖市,27.81,37.019,1.181,3.267,0.151,92.918,-0.55,0.986,279.99,28.132,75210.492,38.94,99.855
甘肃,武威市,53.455,61.643,1.337,2.743,0.154,92.398,1.575,-1.031,283.876,19.274,82016.12,38.163,103.073
甘肃,甘南藏族自治州,30.207,34.732,2.327,1.406,0.155,79.119,-1.366,-0.284,275.881,71.319,68258.914,34.331,102.768
甘肃,白银市,62.127,80.871,3.414,6.381,0.178,88.063,1.328,-3.57,283.543,20.35,82165.602,36.59,104.646
甘肃,酒泉市,33.722,39.803,0.833,1.932,0.133,91.494,-1.86,0.062,284.508,13.897,79544.024,40.236,96.062
甘肃,金昌市,28.08,50.97,3.472,5.452,0.201,97.49,1.271,0.581,283.438,21.045,81225.138,38.44,102.048
甘肃,陇南市,30.199,54.011,1.954,2.718,0.155,82.929,-0.634,-7.976,284.416,35.366,82788.302,33.599,105.224
福建,三明市,27.929,37.383,9.98,8.665,0.576,85.362,2.398,1.36,298.315,77.973,94834.434,26.29,117.395
福建,南平市,27.248,36.598,9.712,5.79,0.492,85.653,1.746,0.912,297.728,83.526,95547.629,27.324,118.143
福建,厦门市,24.682,39.5,8.642,14.732,0.387,68.677,0.235,1.968,298.742,88.887,99933.0,24.642,118.11
福建,宁德市,22.758,33.658,5.445,4.701,0.37,90.671,0.512,1.49,296.307,89.936,94907.319,26.968,119.474
福建,泉州市,26.691,41.056,7.09,10.59,0.448,84.65,1.155,1.868,297.767,85.876,96257.233,25.201,118.249
福建,漳州市,21.933,33.121,5.424,9.217,0.355,69.908,0.889,1.773,298.838,83.042,97830.147,24.372,117.444
福建,福州市,24.857,39.39,6.103,9.168,0.489,91.568,0.588,1.588,297.78,87.386,96960.935,26.083,119.206
福建,莆田市,28.801,43.906,6.638,10.79,0.528,91.464,0.627,1.695,297.679,90.502,97737.204,25.445,118.864
福建,龙岩市,28.268,40.219,9.953,11.227,0.512,79.267,1.453,1.889,298.6,76.294,94860.298,25.256,116.739
西藏,山南市,26.248,29.8,1.778,1.298,0.202,100.895,0.206,2.12,282.925,77.417,66440.004,28.295,92.274
西藏,拉萨市,12.978,23.142,1.05,2.244,0.172,101.524,1.062,2.776,280.042,53.49,57045.094,30.043,91.093
西藏,日喀则市,9.678,11.658,0.532,0.518,0.142,105.68,3.474,1.07,278.336,38.301,55808.515,29.483,86.493
西藏,昌都市,14.517,16.279,0.881,0.882,0.16,90.75,2.125,2.022,280.428,61.201,59472.113,30.753,97.044
西藏,林芝市,23.982,25.92,1.5,1.316,0.182,96.771,0.313,1.339,281.598,86.963,66711.688,29.184,95.25
西藏,玉树藏族自治州,16.685,17.114,0.209,0.265,0.119,84.042,-0.139,0.247,277.62,47.722,57781.225,34.196,94.317
西藏,那曲市,10.921,11.516,0.165,0.256,0.125,95.915,3.974,0.482,278.782,28.342,55919.198,32.709,89.262
西藏,阿里地区,10.975,11.446,0.202,0.344,0.12,94.98,7.434,0.848,274.341,23.115,55355.49,33.013,82.553
贵州,六盘水市,20.354,36.516,8.715,9.711,0.418,68.742,1.695,-5.161,289.866,70.621,83272.699,26.106,104.896
贵州,安顺市,21.528,32.755,6.036,5.153,0.304,76.589,1.032,-3.48,292.139,73.642,88232.752,25.986,105.978
贵州,毕节市,23.284,38.411,7.155,5.234,0.415,72.214,3.75,-5.625,285.468,88.981,83729.856,27.063,105.211
贵州,贵阳市,22.33,35.048,4.424,9.164,0.359,74.165,4.53,-2.505,289.991,81.805,88332.214,26.845,106.71
贵州,遵义市,21.534,31.31,7.484,7.372,0.343,61.137,5.089,-1.027,289.674,87.605,90459.875,28.167,107.102
贵州,铜仁市,16.785,36.955,11.581,6.082,0.545,52.358,-1.069,0.282,292.413,89.792,92693.187,27.937,108.534
贵州,黔东南苗族侗族自治州,18.731,28.209,9.341,4.231,0.33,66.882,2.427,0.324,294.791,80.865,92557.104,26.495,108.574
贵州,黔南布依族苗族自治州,20.916,29.892,5.683,5.097,0.304,74.992,2.32,-1.469,293.44,79.01,90351.268,26.0,107.265
贵州,黔西南布依族苗族自治州,20.241,31.563,8.349,5.21,0.344,75.916,0.227,-2.326,294.863,64.413,88555.828,25.256,105.467
辽宁,丹东市,15.566,23.96,6.738,9.995,0.496,77.923,-0.22,3.887,283.781,81.692,98114.789,40.554,124.376
辽宁,大连市,19.715,28.816,6.126,14.032,0.418,81.844,0.17,2.104,284.169,94.047,100289.481,39.591,122.22
辽宁,抚顺市,15.503,23.201,7.435,10.667,0.559,74.921,0.874,5.279,284.19,71.248,96310.946,41.841,124.65
辽宁,朝阳市,41.581,57.111,7.84,8.77,0.423,79.288,3.387,0.673,285.952,57.258,95754.804,41.545,120.053
辽宁,本溪市,15.801,23.657,6.966,10.576,0.576,73.555,-0.089,5.659,283.428,76.064,95711.481,41.232,124.544
辽宁,沈阳市,19.199,39.598,10.487,17.892,0.519,77.118,1.427,4.34,285.492,70.331,100348.153,42.081,123.159
辽宁,盘锦市,13.797,28.062,8.374,14.08,0.518,86.529,1.391,3.465,285.366,80.644,101031.197,41.13,122.01
辽宁,营口市,17.597,28.307,6.528,14.924,0.513,81.095,0.207,4.022,284.103,85.476,98877.502,40.395,122.478
辽宁,葫芦岛市,28.24,45.24,9.396,15.234,0.563,78.469,1.698,2.227,285.992,73.568,98516.402,40.66,120.215
辽宁,辽阳市,18.509,33.392,8.389,17.058,0.698,77.125,0.633,4.608,285.052,76.779,99061.385,41.153,123.261
辽宁,铁岭市,18.426,35.883,10.01,17.17,0.468,77.294,1.712,5.28,284.922,66.758,98794.338,42.653,124.158
辽宁,锦州市,13.875,26.449,8.507,12.523,0.449,81.801,1.215,3.227,285.39,77.848,100179.724,41.502,121.659
辽宁,阜新市,18.077,27.915,7.208,8.695,0.312,80.477,1.862,3.368,285.019,66.906,98657.216,42.289,121.968
辽宁,鞍山市,17.188,29.398,6.716,14.433,0.574,81.708,0.805,3.523,284.427,81.03,99151.961,40.731,123.007
重庆,重庆城区,22.111,35.226,10.24,11.329,0.418,59.632,-0.954,-4.386,290.536,84.903,94983.121,29.824,107.125
重庆,重庆郊县,32.799,44.787,11.743,7.302,0.395,56.757,-5.198,-3.714,289.372,79.828,91160.998,30.334,108.755
陕西,咸阳市,62.249,145.495,3.865,11.143,0.321,81.529,3.096,-4.147,289.141,32.38,91951.009,34.779,108.367
陕西,商洛市,61.239,94.372,4.211,6.547,0.223,79.404,2.772,-9.459,287.541,43.529,89650.421,33.64,109.889
陕西,安康市,48.241,68.998,4.362,4.51,0.209,68.241,-0.752,-4.584,287.453,53.71,90222.775,32.735,108.932
陕西,宝鸡市,52.557,93.529,2.326,7.986,0.199,79.508,-0.427,-5.239,285.356,33.359,86933.148,34.386,107.193
陕西,延安市,76.472,153.27,4.734,8.59,0.319,82.238,3.525,-7.592,286.469,25.956,87977.736,36.432,109.316
陕西,榆林市,73.883,179.742,4.906,12.11,0.334,80.2,5.892,-6.663,286.428,20.266,88263.409,38.041,109.581
陕西,汉中市,47.261,69.709,2.775,3.789,0.179,80.669,-1.532,-6.849,288.376,38.667,89334.86,33.088,107.098
陕西,渭南市,73.989,144.617,6.006,12.721,0.322,83.266,2.938,-3.724,290.771,37.09,94146.213,34.919,109.855
陕西,西安市,52.165,131.467,3.824,12.71,0.38,80.752,4.22,-2.709,287.041,45.158,91017.223,34.12,108.77
陕西,铜川市,79.022,131.208,4.301,7.55,0.238,84.206,2.133,-7.663,288.144,30.19,89588.427,35.198,109.058
青海,保亭黎族苗族自治县,12.46,16.092,1.37,5.338,0.414,40.3,-2.566,0.232,298.496,86.298,96904.178,18.566,109.618
青海,吐鲁番市,60.014,66.07,0.9,1.871,0.143,95.007,-0.501,0.381,291.072,8.623,90559.406,42.386,89.851
青海,果洛藏族自治州,22.998,26.168,1.365,0.612,0.136,80.229,-1.744,-0.45,276.567,67.285,60524.196,34.127,99.404
青海,海东市,37.264,43.506,4.017,4.673,0.242,75.237,-1.255,1.102,279.339,52.888,73402.14,36.347,102.34
青海,海北藏族自治州,28.761,29.529,0.801,0.949,0.125,84.66,1.385,-0.354,273.036,51.763,65941.839,37.775,100.288
青海,海南藏族自治州,28.809,29.74,1.592,1.013,0.142,74.283,-2.072,0.064,277.252,64.399,67069.704,35.89,100.272
青海,海西蒙古族藏族自治州,35.24,35.61,0.366,0.334,0.121,83.261,0.709,-0.594,279.073,33.266,65002.419,36.677,94.519
青海,西宁市,30.981,38.398,2.742,4.709,0.381,80.995,-0.203,0.159,277.683,45.946,70180.077,36.842,101.423
青海,黄南藏族自治州,29.685,31.107,2.74,1.141,0.153,74.134,-1.589,1.215,275.983,77.117,66420.279,35.022,101.631
香港,香港特别行政区,9.745,12.765,2.54,18.26,0.16,39.125,-0.5,3.24,300.48,80.9,100542.115,22.45,114.22
黑龙江,七台河市,14.633,52.663,4.907,11.412,0.306,90.728,-0.341,6.294,292.272,41.497,97473.608,45.87,130.943
黑龙江,伊春市,10.307,20.979,3.713,2.883,0.282,89.885,2.475,7.456,290.581,37.024,95820.583,47.772,129.184
黑龙江,佳木斯市,11.563,29.412,3.434,5.043,0.261,89.639,-0.476,7.281,292.868,40.591,99382.819,47.207,132.11
黑龙江,双鸭山市,9.851,23.269,2.943,4.09,0.226,84.2,-1.427,8.761,291.809,42.157,99079.16,46.722,132.643
黑龙江,哈尔滨市,13.293,37.201,4.657,7.125,0.304,88.312,3.353,6.252,288.959,45.268,97758.7,45.634,127.964
黑龙江,大兴安岭地区,11.736,13.164,3.713,1.349,0.193,78.238,3.546,4.951,282.617,61.775,93222.095,52.286,124.212
黑龙江,大庆市,12.838,40.954,6.189,6.359,0.279,85.809,2.412,5.566,285.186,60.17,98887.765,46.327,124.687
黑龙江,牡丹江市,10.883,27.931,3.053,6.439,0.229,83.623,1.086,6.256,289.09,46.711,94869.63,44.592,129.883
黑龙江,绥化市,14.561,50.501,6.017,6.652,0.315,83.059,2.859,6.803,287.151,49.234,98097.731,46.89,126.634
黑龙江,鸡西市,9.105,23.604,2.624,6.237,0.217,76.945,-0.642,8.637,289.384,46.816,98939.912,45.626,132.289
黑龙江,鹤岗市,14.003,44.658,4.784,7.381,0.355,98.815,1.124,6.2,293.406,36.014,98236.783,47.661,130.778
黑龙江,黑河市,12.259,20.682,5.618,3.776,0.256,81.18,2.409,7.85,286.733,50.174,95913.841,49.268,127.004
黑龙江,齐齐哈尔市,12.147,22.373,5.746,4.368,0.228,78.659,2.311,5.45,284.747,62.508,97910.091,47.715,124.57
