province,city,PM2.5,PM10,SO2,NO2,CO,O3,U,V,TEMP,RH,PSFC,lat,lon
上海,上海市,20.386,40.6,6.908,18.903,0.349,104.722,-4.969,4.622,290.9,84.67,101625.686,31.173,121.42
云南,临沧市,20.388,39.514,3.959,4.911,0.303,84.166,4.803,-0.264,295.254,51.831,83880.147,23.935,99.686
云南,丽江市,13.894,22.213,3.121,3.175,0.375,97.387,6.667,0.591,287.783,45.671,74659.958,26.96,100.515
云南,保山市,22.406,57.947,4.872,7.472,0.408,81.164,5.052,-0.071,292.725,54.822,81891.922,24.953,98.962
云南,大理白族自治州,17.081,36.056,3.889,3.977,0.36,92.025,6.412,0.47,290.443,49.912,78140.46,25.726,100.053
云南,德宏傣族景颇族自治州,30.202,60.618,5.79,9.983,0.341,71.917,2.876,-0.413,295.204,56.636,86031.699,24.535,98.052
云南,怒江傈僳族自治州,15.819,26.06,2.586,1.099,0.326,88.261,4.174,0.75,283.306,76.266,72913.969,26.916,98.885
云南,文山壮族苗族自治州,34.042,50.065,7.547,3.519,0.537,88.826,2.566,4.219,295.371,70.648,86386.206,23.696,104.735
云南,昆明市,22.279,42.191,6.349,12.703,0.396,91.021,6.945,2.362,293.047,43.048,79195.965,25.384,102.863
云南,昭通市,19.551,37.963,11.036,7.431,0.58,76.651,0.204,-1.494,288.697,76.092,84018.781,27.667,103.985
云南,普洱市,23.448,46.343,3.415,9.411,0.277,78.223,2.724,0.582,297.133,48.218,85880.675,23.159,100.718
云南,曲靖市,18.707,29.372,6.982,8.047,0.366,86.852,3.991,2.47,292.47,52.223,79948.269,25.737,103.929
云南,楚雄彝族自治州,19.552,32.433,3.854,5.815,0.323,91.618,6.475,1.658,294.214,40.366,80915.341,25.328,101.567
云南,玉溪市,21.863,35.81,4.175,5.816,0.311,85.422,3.915,2.671,295.511,48.961,83407.595,24.136,102.217
云南,红河哈尼族彝族自治州,25.952,39.84,5.672,3.864,0.323,87.725,2.127,2.896,295.359,60.545,85080.192,23.451,103.034
云南,西双版纳傣族自治州,30.746,62.14,4.316,10.149,0.359,65.891,1.581,2.129,299.172,47.655,88812.417,21.939,100.912
云南,迪庆藏族自治州,12.026,16.847,2.416,1.189,0.222,95.541,6.73,2.01,279.07,72.303,67384.739,27.957,99.459
内蒙古,乌兰察布市,29.201,34.941,9.063,5.774,0.345,96.404,1.01,1.037,286.403,58.872,85608.641,41.691,112.44
内蒙古,乌海市,29.739,72.982,17.809,27.009,0.622,97.516,2.999,-0.098,289.758,31.729,87475.112,39.396,106.856
内蒙古,兴安盟,11.339,18.912,2.378,2.408,0.194,79.217,1.695,2.793,288.944,28.334,94273.138,46.244,121.341
内蒙古,包头市,25.824,30.875,4.718,3.858,0.248,92.653,3.599,0.168,288.568,41.125,85578.587,41.549,110.276
内蒙古,呼伦贝尔市,9.954,11.455,1.392,1.678,0.166,74.324,2.144,2.642,286.81,27.731,92801.579,49.636,121.171
内蒙古,呼和浩特市,30.551,42.271,8.13,12.208,0.477,104.946,1.537,0.183,286.917,59.293,85994.602,40.578,111.513
内蒙古,巴彦淖尔市,29.818,33.677,2.21,1.645,0.152,84.18,4.853,1.619,290.279,24.428,86962.845,41.446,107.582
内蒙古,赤峰市,25.117,35.169,8.27,5.789,0.318,86.717,1.907,2.778,286.643,54.275,91603.736,43.226,118.892
内蒙古,通辽市,25.064,35.429,7.775,7.052,0.301,81.346,1.019,3.152,289.494,44.245,97466.12,43.814,121.591
内蒙古,鄂尔多斯市,25.795,38.354,9.336,8.105,0.323,94.07,3.176,-0.311,288.41,46.604,86791.2,39.407,108.63
内蒙古,锡林郭勒盟,22.148,26.18,7.416,3.046,0.27,80.999,0.817,4.183,287.342,45.609,88618.902,44.179,115.482
内蒙古,阿拉善盟,58.018,61.055,1.52,1.506,0.141,83.186,6.246,-0.556,290.666,18.114,87289.116,40.473,102.467
北京,北京市,69.395,93.536,8.789,33.74,0.727,100.209,0.171,2.337,291.405,50.974,97441.663,40.158,116.395
台湾,台湾省,23.76,28.6,5.505,15.245,0.192,80.164,-0.473,-1.072,293.421,79.142,93060.591,23.757,120.975
吉林,吉林市,36.431,60.69,11.23,14.452,0.605,115.64,4.763,3.702,288.633,51.237,96885.876,43.573,126.859
吉林,四平市,36.038,65.503,9.405,15.516,0.57,105.241,3.159,4.749,289.323,51.992,99076.364,43.472,124.386
吉林,延边朝鲜族自治州,28.73,38.221,9.482,9.243,0.467,98.049,7.496,0.99,287.655,51.307,93948.757,43.141,129.147
吉林,松原市,22.33,34.709,5.427,9.487,0.307,77.684,2.672,1.75,291.405,32.038,99290.251,44.785,124.496
吉林,白城市,20.148,34.696,4.41,4.916,0.235,82.049,1.608,1.786,291.519,29.331,99330.408,45.35,123.031
吉林,白山市,35.288,46.656,13.723,9.141,0.454,98.356,4.734,4.483,284.085,70.798,92311.677,42.063,127.256
吉林,辽源市,39.147,66.728,14.095,15.513,0.6,122.748,4.955,5.582,287.959,59.483,97333.412,42.836,125.32
吉林,通化市,34.468,52.421,12.991,11.326,0.525,105.936,2.464,5.734,285.076,69.765,95720.417,41.939,125.927
吉林,长春市,31.291,56.134,6.404,16.194,0.551,97.136,4.122,2.5,290.659,38.777,98907.644,44.268,125.611
四川,乐山市,23.909,34.07,9.628,14.062,0.514,71.758,0.367,-2.224,289.501,69.946,89458.023,29.218,103.569
四川,内江市,18.131,31.207,7.047,12.898,0.523,73.025,1.721,-3.734,293.846,65.003,96361.926,29.62,104.95
四川,凉山彝族自治州,15.061,21.795,5.223,4.555,0.326,93.347,4.126,2.213,286.485,50.009,74147.397,27.883,102.065
四川,南充市,20.073,33.439,9.646,14.583,0.55,70.912,-0.892,-3.129,294.189,59.41,96298.481,31.19,106.199
四川,宜宾市,19.494,33.495,10.432,14.438,0.666,72.834,1.6,-2.366,292.921,72.665,94793.663,28.573,104.621
四川,巴中市,23.235,37.709,10.881,10.896,0.502,67.647,-1.81,-2.832,292.096,60.701,92110.92,32.033,107.031
四川,广元市,18.847,29.603,8.683,9.852,0.348,70.347,-1.621,-5.987,291.974,49.754,91300.351,32.261,105.788
四川,广安市,25.394,38.345,7.676,15.301,0.654,65.412,-0.422,-2.365,294.082,69.474,96290.653,30.43,106.628
四川,德阳市,17.032,34.998,7.864,17.432,0.501,71.283,-0.993,-1.832,292.977,55.129,92881.255,31.13,104.436
四川,成都市,15.351,30.91,9.073,18.961,0.523,72.306,0.388,-0.674,292.451,60.437,93058.501,30.64,103.929
四川,攀枝花市,20.625,36.068,10.907,16.712,0.711,95.414,4.213,2.539,294.615,31.809,81325.588,26.791,101.734
四川,泸州市,21.363,35.229,9.13,11.944,0.605,66.862,2.986,-1.683,292.081,79.822,93163.649,28.424,105.675
四川,甘孜藏族自治州,9.455,10.447,1.163,0.702,0.151,99.771,2.983,0.448,273.87,61.967,61313.64,30.936,100.009
四川,眉山市,17.537,29.286,9.192,17.043,0.518,68.571,0.981,-1.225,292.126,64.627,93537.291,29.912,103.766
四川,绵阳市,20.831,30.515,7.24,9.466,0.355,73.056,-1.436,-3.391,289.953,53.935,87784.429,31.86,104.704
四川,自贡市,19.105,30.439,8.304,16.009,0.593,71.369,1.366,-3.372,294.088,64.793,96360.722,29.307,104.659
四川,资阳市,17.003,30.771,6.911,9.236,0.466,74.789,0.95,-3.629,294.156,60.62,96582.537,30.102,105.149
四川,达州市,27.707,41.221,11.759,17.488,0.583,70.817,-2.203,-1.099,292.24,74.887,93655.485,31.335,107.636
四川,遂宁市,17.27,30.547,7.555,11.188,0.471,73.386,-0.195,-4.195,294.623,56.092,96780.662,30.642,105.457
四川,阿坝藏族羌族自治州,19.205,23.298,4.644,1.924,0.23,84.376,-0.536,-2.8,274.626,80.274,65643.097,32.406,102.61
四川,雅安市,25.029,36.102,11.376,6.923,0.377,85.228,-0.935,-0.023,283.612,82.022,80049.43,29.932,102.689
天津,天津市,67.743,98.121,12.705,42.92,0.942,104.549,0.647,3.63,293.421,43.695,101110.73,39.315,117.308
宁夏,中卫市,23.789,33.755,5.834,10.088,0.219,80.72,3.73,-2.37,286.609,38.051,83595.135,37.018,105.509
宁夏,吴忠市,25.768,43.056,11.581,12.56,0.248,76.68,3.739,-1.855,286.991,46.001,85074.831,37.454,106.577
宁夏,固原市,23.955,39.239,6.697,15.009,0.262,80.267,2.595,-4.417,283.931,49.012,81049.764,35.905,106.183
宁夏,石嘴山市,29.509,67.331,15.39,21.269,0.506,94.909,3.497,-0.533,289.648,28.863,86594.764,39.013,106.499
宁夏,银川市,25.781,64.896,16.132,23.67,0.387,79.993,3.632,-0.63,289.15,37.757,86940.099,38.287,106.342
安徽,亳州市,47.826,63.342,9.476,16.424,0.649,103.633,-1.494,1.969,291.967,77.262,101047.995,33.44,116.162
安徽,六安市,47.943,69.908,6.613,15.674,0.575,103.115,-1.245,1.376,293.466,76.698,98562.415,31.617,116.209
安徽,合肥市,46.109,74.021,8.209,28.331,0.652,93.215,-3.261,1.891,293.526,72.382,100927.331,31.766,117.359
安徽,安庆市,49.988,71.993,7.674,20.79,0.65,73.78,-0.424,2.311,293.9,75.729,99013.427,30.557,116.473
安徽,宣城市,32.419,48.275,5.082,14.813,0.446,77.281,-2.287,3.736,293.648,68.146,99032.065,30.676,118.846
安徽,宿州市,46.126,63.108,8.376,26.162,0.636,85.639,-3.535,2.383,289.569,79.684,101067.067,33.844,117.23
安徽,池州市,34.291,47.433,5.518,13.936,0.461,71.786,-0.921,3.795,295.08,68.888,99189.373,30.296,117.379
安徽,淮北市,46.221,60.185,9.308,24.238,0.652,93.432,-3.076,1.979,290.698,77.905,101079.967,33.722,116.747
安徽,淮南市,55.5,82.674,10.697,25.073,0.691,100.747,-2.414,1.159,292.533,75.956,101094.349,32.463,116.746
安徽,滁州市,43.455,73.498,8.379,33.984,0.607,85.224,-3.449,2.315,290.726,78.319,100899.734,32.55,118.076
安徽,芜湖市,39.453,64.237,8.434,27.399,0.653,78.458,-3.237,1.464,293.99,68.26,101126.87,31.167,118.162
安徽,蚌埠市,50.181,66.397,9.605,28.173,0.618,86.253,-3.162,1.945,291.005,78.692,101119.267,33.121,117.263
安徽,铜陵市,41.929,65.406,8.974,29.557,0.669,72.73,-1.431,2.206,295.23,66.878,100941.908,30.883,117.531
安徽,阜阳市,49.266,67.509,9.861,14.852,0.695,104.281,-1.134,1.079,292.315,77.672,101014.829,32.937,115.723
安徽,马鞍山市,38.915,71.509,10.519,34.428,0.713,86.948,-3.881,1.78,292.727,69.438,101161.586,31.622,118.386
安徽,黄山市,35.115,49.536,5.916,12.723,0.498,72.458,-2.012,3.033,293.102,73.857,97090.881,29.869,118.09
山东,东营市,49.562,85.018,19.257,27.84,0.827,87.253,-1.011,5.136,289.962,65.714,101379.432,37.57,118.572
山东,临沂市,31.572,56.6,6.798,19.591,0.531,85.4,-2.796,2.467,285.875,88.137,99712.771,35.289,118.27
山东,威海市,20.878,32.452,4.3,6.182,0.255,100.658,0.192,6.448,285.957,88.092,101033.022,37.148,122.028
山东,德州市,57.11,97.097,15.27,25.413,0.755,126.66,-0.442,5.628,292.118,59.131,101144.553,37.233,116.679
山东,日照市,24.344,43.513,7.513,13.518,0.408,93.31,-1.711,3.069,285.622,90.898,99857.52,35.566,119.108
山东,枣庄市,39.6,68.768,8.558,22.398,0.548,84.611,-4.338,2.577,287.516,82.08,100382.472,34.925,117.383
山东,泰安市,46.087,84.949,13.07,23.456,0.714,102.436,-3.006,4.288,288.571,74.567,99510.299,35.993,117.04
山东,济南市,53.35,94.427,13.839,27.413,0.814,111.43,-1.235,5.495,289.574,68.567,99448.732,36.639,117.254
山东,济宁市,41.724,74.959,12.399,20.762,0.669,102.617,-3.507,4.152,289.482,74.12,100762.698,35.375,116.697
山东,淄博市,50.911,85.845,14.572,27.853,0.948,100.538,-0.5,4.808,288.403,71.822,98883.761,36.623,118.062
山东,滨州市,59.62,95.377,19.969,33.751,1.007,107.002,-0.181,4.69,291.338,58.283,101277.413,37.516,117.852
山东,潍坊市,33.157,57.779,7.493,16.584,0.5,95.008,-1.252,5.187,287.177,80.785,100389.375,36.53,119.092
山东,烟台市,21.586,38.772,4.36,7.763,0.303,97.308,-0.805,6.649,286.234,84.777,100436.865,37.25,120.789
山东,聊城市,52.578,85.247,12.644,21.573,0.828,123.312,-1.85,5.73,292.086,63.473,100916.178,36.458,115.863
山东,菏泽市,46.299,75.308,10.239,20.768,0.849,109.848,-2.511,4.093,291.791,68.111,100834.992,35.134,115.69
山东,青岛市,21.931,41.446,3.984,12.022,0.318,98.444,-1.686,5.08,286.36,90.794,101021.981,36.46,120.172
山西,临汾市,54.394,70.857,13.303,16.576,1.028,99.697,1.316,0.648,287.765,69.114,89826.878,36.227,111.398
山西,吕梁市,43.304,58.202,15.957,16.53,0.755,87.327,1.856,-0.451,287.146,64.175,87448.044,37.663,111.27
山西,大同市,45.842,56.424,11.472,11.703,0.581,111.303,0.133,2.159,285.4,71.134,86958.892,39.911,113.713
山西,太原市,53.305,84.47,20.861,24.793,0.924,89.672,2.136,0.856,286.982,65.002,87315.408,37.967,112.321
山西,忻州市,40.628,54.164,12.814,12.284,0.551,96.552,1.256,0.289,285.761,66.779,85851.08,38.877,112.391
山西,晋中市,56.177,80.46,18.828,19.885,0.849,102.922,2.499,1.41,286.724,70.322,88246.98,37.328,112.997
山西,晋城市,48.293,70.925,10.262,15.928,0.906,111.74,1.881,1.135,288.422,67.11,90201.658,35.625,112.752
山西,朔州市,39.532,49.438,9.266,13.344,0.603,103.554,1.481,0.228,286.187,67.38,86290.677,39.619,112.655
山西,运城市,43.365,62.935,10.337,20.146,0.905,98.994,1.527,0.805,290.622,62.506,93936.688,35.205,111.071
山西,长治市,49.619,70.673,12.023,16.603,0.797,112.518,2.139,0.974,287.363,68.172,88549.162,36.48,112.915
山西,阳泉市,57.145,89.332,19.727,22.752,0.861,99.829,0.882,1.257,287.573,67.826,90074.637,38.031,113.512
广东,东莞市,27.678,54.852,7.856,27.631,0.62,73.792,-5.382,2.567,297.903,80.364,101068.292,22.931,113.81
广东,中山市,21.428,39.264,6.811,17.378,0.439,75.399,-6.791,3.332,298.508,85.611,101044.208,22.5,113.383
广东,云浮市,21.968,30.187,3.298,14.828,0.436,52.42,-4.524,4.788,298.129,84.566,98981.799,22.776,111.818
广东,佛山市,30.911,61.427,9.692,49.64,0.791,40.539,-5.014,3.551,298.546,80.623,101063.596,23.035,112.979
广东,广州市,29.907,56.842,8.561,35.841,0.644,61.504,-4.559,3.73,297.658,78.205,100207.469,23.339,113.525
广东,惠州市,23.722,37.988,4.792,10.312,0.418,77.737,-4.44,2.515,296.706,77.998,99289.063,23.244,114.485
广东,揭阳市,30.773,57.266,10.112,16.542,0.691,108.394,-4.782,-0.511,296.014,74.35,99967.121,23.323,116.123
广东,梅州市,30.194,49.007,7.093,13.766,0.695,88.912,-2.914,2.619,295.749,68.996,97910.701,24.169,116.07
广东,汕头市,24.948,44.56,8.561,13.758,0.492,113.445,-5.774,-1.901,296.192,76.238,101094.596,23.339,116.614
广东,汕尾市,24.931,43.165,5.575,8.759,0.466,92.708,-5.629,-0.119,296.291,77.99,99669.723,23.024,115.527
广东,江门市,18.724,29.917,2.982,12.295,0.339,69.51,-5.758,3.711,298.457,87.135,100456.959,22.289,112.676
广东,河源市,28.329,41.216,5.304,12.041,0.569,72.209,-2.178,3.041,296.185,75.275,98067.443,24.021,114.969
广东,深圳市,23.179,45.397,6.288,19.832,0.481,84.149,-7.659,2.273,297.782,85.174,100599.023,22.667,114.143
广东,清远市,29.099,43.683,7.479,22.249,0.617,51.185,-2.213,4.787,296.276,84.123,97511.253,24.295,112.871
广东,湛江市,7.679,14.063,3.913,7.175,0.416,40.093,-3.223,4.43,300.288,82.986,100747.589,21.091,110.163
广东,潮州市,28.851,50.969,8.146,14.846,0.624,107.433,-4.639,-0.426,295.324,67.27,99426.721,23.755,116.754
广东,珠海市,15.86,26.798,1.878,4.593,0.217,86.415,-7.278,2.84,298.478,89.297,101118.015,22.095,113.317
广东,肇庆市,30.662,47.585,6.991,31.752,0.622,39.731,-4.324,4.581,297.677,83.974,99101.303,23.505,112.199
广东,茂名市,9.606,14.502,3.196,6.972,0.324,43.879,-3.823,4.521,298.618,85.449,99032.357,22.013,110.952
广东,阳江市,14.006,18.891,1.711,6.411,0.247,59.778,-3.795,3.53,298.248,88.393,99594.584,22.042,111.786
广东,韶关市,24.93,34.259,7.076,14.747,0.837,56.819,-0.657,4.057,295.867,81.389,96751.892,24.785,113.819
广西,北海市,12.438,22.831,3.954,8.287,0.541,43.004,-2.171,4.046,300.321,82.579,100755.801,21.674,109.37
广西,南宁市,20.037,32.462,5.433,12.411,0.735,46.082,-1.09,5.155,299.306,84.897,98863.606,23.051,108.469
广西,崇左市,21.659,31.55,4.45,5.802,0.592,54.114,0.339,4.194,298.555,86.482,97576.557,22.483,107.291
广西,来宾市,25.484,36.95,6.912,12.295,0.679,41.357,-2.57,5.877,298.569,83.364,97734.145,23.859,109.417
广西,柳州市,33.925,44.295,8.764,13.917,0.806,39.196,-0.816,5.056,297.898,83.879,97117.591,24.956,109.372
广西,桂林市,36.118,43.586,9.902,14.156,0.902,40.834,-0.536,5.473,296.718,85.351,95565.945,25.353,110.513
广西,梧州市,23.492,30.911,5.849,12.123,0.567,46.835,-3.515,5.12,298.441,82.548,98648.958,23.484,110.996
广西,河池市,26.215,40.015,7.897,8.943,0.835,50.259,-1.019,4.081,296.816,87.394,94800.368,24.628,107.843
广西,玉林市,14.414,23.641,5.706,10.049,0.583,39.548,-2.804,5.368,299.008,84.134,99031.657,22.452,110.164
广西,百色市,32.155,45.194,9.491,4.982,0.873,73.747,-0.708,3.787,296.935,81.88,92726.745,23.981,106.292
广西,贵港市,25.668,37.882,6.645,13.119,0.757,40.302,-2.296,4.372,299.342,81.529,99419.521,23.322,110.021
广西,贺州市,30.909,39.707,10.127,13.396,0.636,47.944,-3.018,6.137,296.906,85.992,96871.348,24.364,111.394
广西,钦州市,16.936,28.831,5.185,10.431,0.727,43.132,-1.556,5.03,299.815,84.502,100023.533,22.173,109.01
广西,防城港市,13.701,20.321,4.12,6.164,0.45,47.962,-0.142,4.96,298.517,89.928,98440.284,21.88,108.002
新疆,乌鲁木齐市,9.444,16.798,1.984,7.571,0.223,77.877,1.412,-0.647,286.778,33.598,84191.274,43.746,87.818
新疆,五家渠市,21.44,34.883,4.29,12.83,0.36,74.017,-2.86,0.553,294.427,25.227,96118.547,44.363,87.517
新疆,伊犁哈萨克自治州,4.877,8.794,1.362,4.685,0.2,78.244,0.591,0.743,285.5,42.031,80422.581,43.438,82.146
新疆,克孜勒苏柯尔克孜自治州,5.343,13.793,0.272,1.745,0.169,84.804,3.022,-0.786,283.58,32.664,70834.73,39.661,75.949
新疆,克拉玛依市,23.947,28.701,2.941,3.453,0.251,78.406,-2.774,-1.419,292.254,27.809,96988.876,45.457,85.207
新疆,北屯市,4.078,5.078,1.872,1.958,0.342,89.07,-1.01,-1.196,288.252,32.014,95212.044,47.27,87.868
新疆,博尔塔拉蒙古自治州,15.32,19.084,2.693,3.583,0.2,76.674,1.199,1.199,287.349,38.322,86053.645,44.714,82.114
新疆,双河市,22.26,28.334,4.122,4.13,0.208,74.114,-2.506,-0.774,293.268,28.908,97365.128,44.87,82.474
新疆,可克达拉市,17.546,35.248,3.882,18.36,0.432,76.862,-5.65,0.864,294.926,29.594,94286.122,43.918,80.786
新疆,和田地区,17.383,27.259,0.25,1.878,0.121,87.973,1.411,0.017,286.425,20.675,74175.909,37.059,80.934
新疆,哈密市,22.157,27.924,1.278,1.734,0.15,87.139,4.658,-2.64,290.518,18.103,88054.768,43.042,93.517
新疆,喀什地区,14.777,30.555,0.654,2.897,0.193,84.985,1.729,0.66,287.941,22.21,76247.062,38.125,77.178
新疆,图木舒克市,19.967,37.337,0.742,0.993,0.13,73.742,-0.783,0.212,296.827,16.433,88940.813,39.892,79.182
新疆,塔城地区,13.383,15.477,2.412,2.314,0.209,76.384,-0.106,0.342,287.945,34.185,89343.252,45.642,84.789
新疆,巴音郭楞蒙古自治州,35.059,44.618,0.396,0.678,0.121,80.527,3.465,-0.295,287.056,19.685,79239.289,39.463,87.481
新疆,新星市,36.59,92.375,3.455,18.975,0.415,96.23,2.1,-1.87,295.155,11.62,92307.685,42.75,93.68
新疆,昆玉市,36.787,99.57,1.687,11.58,0.167,74.02,-0.507,0.58,298.873,10.283,86712.43,37.457,79.093
新疆,昌吉回族自治州,13.852,16.442,1.999,3.332,0.181,74.911,0.5,-0.628,289.545,29.362,89681.516,44.342,88.608
新疆,石河子市,16.155,24.75,7.97,18.7,0.42,82.91,1.645,-0.09,293.925,26.835,94273.495,44.245,86.035
新疆,胡杨河市,25.1,29.112,2.866,3.498,0.274,79.208,-3.306,-1.648,293.302,29.956,97397.192,44.852,84.772
新疆,铁门关市,69.397,231.367,2.887,7.907,0.203,71.903,1.06,-2.733,296.71,14.487,91318.35,41.773,85.66
新疆,阿克苏地区,30.868,59.653,0.779,1.809,0.143,78.418,0.651,-1.504,292.454,21.573,85141.663,40.965,81.578
新疆,阿勒泰地区,5.096,5.535,1.59,0.95,0.185,82.343,-1.174,-0.509,284.433,34.52,88322.388,46.902,88.421
新疆,阿拉尔市,51.488,131.631,1.092,4.136,0.163,77.471,-1.677,-1.794,295.432,19.874,89790.543,40.629,80.998
江苏,南京市,37.748,69.899,8.542,33.365,0.643,89.808,-3.48,2.132,292.217,69.444,101252.872,31.899,118.876
江苏,南通市,26.998,50.161,9.711,22.558,0.383,110.894,-3.951,5.088,291.056,78.193,101576.837,32.201,120.979
江苏,宿迁市,42.864,63.601,7.636,26.824,0.598,68.688,-3.622,2.514,287.707,88.766,101395.879,33.765,118.495
江苏,常州市,37.659,67.779,8.862,28.205,0.583,123.689,-4.44,3.907,292.6,68.591,101357.784,31.613,119.666
江苏,徐州市,42.226,63.017,7.783,24.028,0.616,76.716,-3.905,2.226,288.032,83.325,101102.573,34.363,117.513
江苏,扬州市,42.59,75.964,9.2,33.957,0.664,99.363,-3.003,3.224,290.992,73.012,101461.676,32.709,119.486
江苏,无锡市,34.985,68.961,10.356,31.205,0.582,126.222,-4.685,4.62,292.066,71.122,101304.324,31.546,120.066
江苏,泰州市,38.95,72.361,10.604,31.016,0.637,119.129,-3.18,4.546,291.542,70.37,101459.592,32.605,120.048
江苏,淮安市,43.605,70.052,7.989,29.082,0.632,75.539,-3.114,2.675,288.354,86.879,101407.33,33.362,118.985
江苏,盐城市,31.649,51.928,7.723,17.98,0.444,101.415,-3.069,4.041,289.188,82.106,101529.555,33.529,120.156
江苏,苏州市,27.349,58.13,9.986,28.384,0.488,119.819,-4.664,4.721,291.785,74.642,101515.741,31.374,120.661
江苏,连云港市,33.374,49.579,7.022,18.804,0.476,78.933,-2.439,2.164,286.299,90.911,101335.235,34.519,119.133
江苏,镇江市,41.063,73.598,9.179,31.733,0.641,119.586,-4.054,3.864,292.307,68.895,101331.97,32.016,119.49
江西,上饶市,35.596,51.668,10.011,13.933,0.646,75.206,-1.537,2.453,295.597,69.029,99087.303,28.778,117.47
江西,九江市,40.805,53.331,7.166,13.042,0.553,65.994,-1.791,3.084,294.998,82.158,98931.082,29.313,115.444
江西,南昌市,25.541,43.133,8.771,14.947,0.653,64.978,-1.733,3.117,296.438,76.842,100813.027,28.671,116.016
江西,吉安市,23.754,33.479,6.435,6.499,0.68,68.731,-0.526,4.681,297.688,71.88,98555.404,26.954,114.831
江西,宜春市,33.927,47.756,8.234,10.997,0.678,62.348,-1.788,2.36,295.81,81.668,98886.709,28.29,114.974
江西,抚州市,21.993,29.56,5.778,6.216,0.415,71.84,-1.783,4.077,295.976,71.233,98655.538,27.514,116.42
江西,新余市,36.321,51.922,10.743,14.407,0.849,59.197,-1.834,2.515,296.869,78.241,99776.141,27.847,114.836
江西,景德镇市,38.091,52.918,6.764,13.74,0.606,69.638,-1.914,2.327,295.715,68.966,99889.254,29.287,117.24
江西,萍乡市,31.273,42.446,8.261,9.667,0.757,58.342,-0.259,3.911,297.554,74.567,97520.786,27.505,113.908
江西,赣州市,25.493,33.059,6.439,8.129,0.851,69.126,-0.374,4.339,296.049,74.861,97058.331,25.692,115.279
江西,鹰潭市,26.798,37.574,8.106,10.903,0.499,73.749,-1.009,3.705,296.479,67.734,99588.109,28.222,117.094
河北,保定市,59.904,93.596,13.763,23.229,0.616,125.56,-0.468,2.65,291.519,54.105,97395.882,39.018,115.159
河北,唐山市,58.192,98.703,21.367,46.282,1.179,88.417,0.265,3.184,291.577,50.878,100650.091,39.731,118.354
河北,廊坊市,67.6,100.151,12.348,34.187,0.774,109.267,0.73,3.954,293.837,42.921,101126.805,39.267,116.632
河北,张家口市,52.996,65.559,11.724,14.117,0.617,106.992,-0.042,3.649,283.999,78.113,87452.056,40.877,115.042
河北,承德市,51.532,75.198,12.866,16.935,0.609,102.901,1.639,2.516,285.729,70.906,90801.745,41.339,117.578
河北,沧州市,61.066,95.72,16.777,28.345,0.716,122.762,0.148,5.092,293.059,50.613,101202.209,38.258,116.744
河北,石家庄市,56.64,99.957,18.041,25.709,0.733,112.571,-0.392,2.914,292.845,52.497,97883.521,38.135,114.407
河北,秦皇岛市,45.011,79.409,16.364,27.898,0.795,100.775,0.558,2.636,289.697,58.117,98440.571,40.12,119.193
河北,衡水市,55.21,88.164,13.088,18.806,0.634,132.846,-0.746,5.291,293.734,52.448,101025.352,37.755,115.813
河北,邢台市,54.799,90.265,13.779,20.966,0.781,125.595,0.062,4.723,293.322,55.626,99521.658,37.195,114.815
河北,邯郸市,51.613,85.867,11.858,22.777,0.863,121.645,-0.542,3.743,293.092,58.086,99069.127,36.538,114.596
河南,三门峡市,35.921,53.98,10.115,13.474,0.609,101.915,2.001,-0.244,289.141,67.862,91606.528,34.362,111.101
河南,信阳市,49.462,67.785,7.134,14.733,0.603,99.72,-0.93,-0.022,292.75,80.142,100029.109,32.091,114.907
河南,南阳市,40.855,60.276,6.757,16.372,0.802,98.914,-0.721,0.707,291.702,75.393,97951.688,33.034,112.323
河南,周口市,44.653,64.685,8.965,17.125,0.817,106.162,-0.768,2.554,292.042,76.173,100782.416,33.738,114.884
河南,商丘市,48.25,69.11,9.405,18.845,0.766,103.757,-1.989,3.157,291.666,73.278,100877.565,34.277,115.718
河南,安阳市,48.862,77.797,9.521,21.403,0.921,120.874,-0.313,4.322,293.494,56.529,98677.65,35.888,114.318
河南,平顶山市,59.935,74.085,6.771,19.193,0.897,110.2,-0.96,1.821,292.266,70.164,98573.568,33.8,113.025
河南,开封市,45.634,70.131,8.225,19.115,0.865,113.722,-0.141,3.789,293.213,64.677,100477.76,34.594,114.514
河南,新乡市,52.355,79.23,9.582,23.384,0.978,118.641,0.427,4.045,293.8,57.754,99507.699,35.256,114.111
河南,洛阳市,37.941,55.685,9.076,13.418,0.74,106.896,1.501,0.026,290.919,64.991,93946.743,34.274,112.019
河南,济源市,41.908,64.532,10.303,16.358,0.953,104.011,1.503,0.42,292.423,57.073,95730.604,35.105,112.445
河南,漯河市,53.527,72.056,8.115,20.905,0.9,102.398,-1.432,2.309,292.201,76.322,100605.972,33.652,113.945
河南,濮阳市,49.027,79.018,10.388,21.879,0.932,115.494,-1.847,4.97,292.885,62.353,100761.798,35.809,115.283
河南,焦作市,51.799,78.676,8.868,25.696,1.087,108.41,0.786,1.956,294.445,54.336,99278.956,35.121,113.163
河南,许昌市,58.319,79.091,7.619,25.493,0.972,109.644,-0.873,2.947,292.509,70.454,99914.473,34.075,113.707
河南,郑州市,54.932,78.983,8.131,26.382,1.008,113.367,0.215,3.325,292.931,63.355,98574.571,34.634,113.438
河南,驻马店市,50.188,66.217,7.646,17.284,0.705,101.099,-1.367,0.844,291.797,79.537,100319.07,32.925,114.174
河南,鹤壁市,49.152,77.338,9.754,21.226,0.938,124.983,0.073,5.081,294.343,55.08,99832.078,35.716,114.319
浙江,丽水市,25.666,38.349,4.349,9.163,0.363,89.11,-1.827,2.823,290.619,75.517,94574.912,28.194,119.51
浙江,台州市,22.004,37.008,5.155,10.372,0.318,87.635,-2.279,2.224,291.304,82.441,98891.499,28.742,121.109
浙江,嘉兴市,26.038,48.941,6.886,24.596,0.469,110.528,-4.483,3.377,292.244,73.981,101525.278,30.635,120.754
浙江,宁波市,19.938,33.378,4.58,11.486,0.327,96.194,-3.504,3.746,291.747,82.871,100372.609,29.706,121.49
浙江,杭州市,34.434,55.839,7.139,24.998,0.534,83.282,-1.885,2.921,292.527,69.985,98568.147,29.891,119.464
浙江,温州市,26.247,45.487,6.293,13.97,0.388,83.402,-1.542,0.685,290.279,84.574,97710.407,27.897,120.411
浙江,湖州市,35.031,63.251,8.346,31.181,0.597,98.962,-3.527,4.12,292.69,68.796,100173.218,30.757,119.871
浙江,绍兴市,24.284,39.686,5.182,17.093,0.418,93.622,-2.665,4.12,292.819,66.726,99448.743,29.709,120.64
浙江,舟山市,14.24,20.782,1.34,2.29,0.17,92.477,-4.638,3.48,291.55,90.015,101432.19,30.038,122.23
浙江,衢州市,32.626,48.837,7.271,17.291,0.583,86.286,-1.639,1.929,293.914,65.529,97774.374,28.912,118.675
浙江,金华市,27.17,43.201,5.44,17.889,0.409,88.533,-2.282,3.869,292.515,68.035,98095.905,29.109,119.967
海南,万宁市,2.106,3.76,0.664,1.718,0.107,38.451,-1.383,4.693,299.713,85.247,99791.98,18.842,110.294
海南,三亚市,5.864,9.089,1.24,5.959,0.433,32.777,-3.103,3.297,299.297,83.381,98576.636,18.413,109.407
海南,东方市,2.628,4.001,0.588,2.165,0.109,35.248,-2.594,5.967,301.347,67.657,99100.029,18.971,108.838
海南,临高县,6.399,10.847,1.389,5.129,0.279,33.74,-2.216,3.609,301.14,74.966,100278.969,19.821,109.733
海南,乐东黎族自治县,3.646,5.391,0.66,3.185,0.192,33.275,-2.853,4.145,299.098,80.198,97675.654,18.659,109.072
海南,五指山市,4.484,5.804,0.916,3.718,0.156,33.802,-1.848,4.668,297.012,85.314,94527.914,18.81,109.518
海南,儋州市,7.963,11.561,1.428,4.194,0.22,47.205,-0.498,0.51,301.294,71.384,99932.43,19.568,109.399
海南,定安县,4.538,8.38,1.352,4.848,0.277,31.597,-2.308,4.92,300.198,81.79,100033.96,19.47,110.28
海南,屯昌县,3.436,5.994,0.83,3.374,0.196,32.966,-2.434,5.108,299.94,81.07,99252.626,19.342,110.076
海南,文昌市,2.26,4.732,0.78,2.132,0.147,37.248,-2.827,4.955,300.301,83.743,100821.314,19.707,110.773
海南,昌江黎族自治县,5.156,6.984,1.286,3.537,0.141,39.726,-0.837,3.256,300.582,70.75,98110.171,19.233,109.016
海南,海口市,5.201,9.939,1.794,6.344,0.325,30.354,-2.482,4.819,300.702,79.56,100595.738,19.842,110.393
海南,澄迈县,5.096,9.186,1.697,5.496,0.296,30.546,-2.66,4.869,300.797,77.38,100127.904,19.676,109.989
海南,琼中黎族苗族自治县,3.671,5.341,0.528,3.211,0.144,33.543,-1.237,5.417,298.99,80.075,97098.131,19.087,109.847
海南,琼海市,2.868,5.392,0.907,2.823,0.155,36.158,-1.962,4.467,300.302,83.002,100599.967,19.22,110.43
海南,白沙黎族自治县,4.998,6.789,0.941,3.421,0.154,39.456,0.032,3.901,299.766,72.136,96788.685,19.2,109.388
海南,陵水黎族自治县,4.013,5.71,0.441,3.454,0.214,35.617,-0.901,2.936,299.211,86.039,99134.581,18.581,109.913
湖北,仙桃市,53.94,63.606,6.266,21.298,0.973,56.359,-1.864,-0.742,294.054,88.174,100915.787,30.284,113.417
湖北,十堰市,35.035,48.918,10.979,8.342,0.61,79.238,0.181,0.152,289.389,79.342,93141.545,32.462,110.476
湖北,咸宁市,41.488,47.61,5.676,12.682,0.698,67.19,-1.147,1.876,295.357,84.906,99065.22,29.621,114.178
湖北,天门市,58.214,74.365,6.876,23.384,1.123,61.272,-2.104,-1.109,292.789,90.791,100893.821,30.633,113.053
湖北,孝感市,56.17,74.633,6.477,22.474,0.949,66.791,-1.58,0.184,292.776,89.402,100333.786,31.116,113.869
湖北,宜昌市,52.366,64.196,8.112,14.722,0.796,73.4,-1.441,0.198,290.383,90.595,93922.925,30.746,111.129
湖北,恩施土家族苗族自治州,46.281,56.793,12.87,11.765,0.681,64.725,-0.505,0.812,289.73,91.833,89411.304,30.195,109.552
湖北,武汉市,59.333,73.038,6.844,36.657,1.024,51.809,-2.057,0.633,294.402,84.113,100838.989,30.606,114.349
湖北,潜江市,57.137,71.537,6.79,22.749,1.171,60.579,-1.803,-1.016,293.48,89.504,100876.602,30.33,112.77
湖北,神农架林区,40.543,46.559,8.1,2.952,0.414,84.858,0.897,1.475,285.103,93.448,82952.212,31.592,110.49
湖北,荆州市,52.479,66.05,8.401,19.243,1.056,62.727,-1.29,-0.455,294.341,87.074,100625.362,30.01,112.512
湖北,荆门市,53.751,72.616,7.81,21.506,0.989,79.307,-1.568,-0.931,291.875,89.442,99904.068,31.059,112.616
湖北,襄阳市,42.835,57.762,8.223,12.914,0.75,94.697,-0.098,0.517,291.216,80.363,97210.077,31.919,111.96
湖北,鄂州市,63.537,80.351,9.406,40.254,1.043,46.586,-2.447,1.634,295.436,80.719,100885.334,30.337,114.794
湖北,随州市,48.547,72.576,6.46,16.031,0.841,88.199,-0.961,0.744,291.261,90.657,99243.054,31.809,113.43
湖北,黄冈市,51.853,69.173,7.856,18.996,0.704,69.081,-2.192,2.224,294.334,80.14,99217.767,30.702,115.358
湖北,黄石市,56.218,70.713,8.75,25.561,0.833,56.128,-2.694,1.95,295.214,82.924,99920.139,29.925,115.034
湖南,娄底市,36.522,55.402,12.1,11.706,1.307,53.575,-0.583,2.446,296.743,83.042,96851.45,27.715,111.632
湖南,岳阳市,37.883,49.772,7.806,13.109,0.775,65.334,-1.091,1.627,296.036,85.089,99717.938,29.081,113.275
湖南,常德市,49.935,70.732,10.637,14.224,1.196,61.506,-1.589,-0.839,294.546,87.311,98919.818,29.271,111.524
湖南,张家界市,52.676,71.008,10.555,10.16,0.983,64.186,-2.0,-0.366,292.43,91.55,95055.464,29.379,110.526
湖南,怀化市,37.611,53.346,9.795,8.989,1.027,47.683,0.059,2.626,296.691,80.536,95939.453,27.535,110.071
湖南,株洲市,27.009,37.985,7.799,9.349,0.713,60.313,0.366,4.499,298.095,72.991,97636.944,27.109,113.513
湖南,永州市,24.903,36.434,10.549,9.621,0.682,53.037,0.389,6.207,297.449,79.131,96277.912,25.748,111.723
湖南,湘潭市,30.158,46.913,10.054,15.976,1.029,56.287,-0.427,3.146,298.893,75.53,99767.07,27.744,112.619
湖南,湘西土家族苗族自治州,44.301,61.254,10.515,11.139,1.011,48.454,-0.644,-0.159,294.279,84.539,94947.283,28.708,109.718
湖南,益阳市,36.563,58.475,9.242,12.023,1.201,61.043,-1.352,1.384,296.152,86.049,98402.275,28.525,111.919
湖南,衡阳市,23.158,37.963,9.912,12.606,0.896,53.377,0.261,5.534,299.617,70.671,99327.788,26.781,112.565
湖南,邵阳市,35.92,47.384,9.946,8.52,0.856,51.125,0.851,3.82,296.525,81.27,94694.438,26.893,110.881
湖南,郴州市,17.316,29.629,9.187,10.603,0.976,62.204,0.034,6.448,296.49,79.187,95541.029,25.769,113.109
湖南,长沙市,34.914,50.601,9.405,15.551,0.897,61.64,-1.769,2.315,297.315,80.011,99224.786,28.235,113.159
甘肃,临夏回族自治州,21.239,32.322,4.05,6.927,0.39,90.513,2.264,-0.699,283.096,45.069,77702.279,35.617,103.291
甘肃,兰州市,23.11,42.544,5.593,16.662,0.451,88.842,2.42,-1.157,284.341,40.087,79275.339,36.359,103.633
甘肃,嘉峪关市,66.987,283.263,4.598,12.175,0.273,99.625,10.46,-4.185,288.73,10.547,81725.647,39.798,98.145
甘肃,天水市,23.001,35.933,6.273,8.253,0.265,75.902,1.544,-4.34,285.3,49.627,82769.321,34.645,105.739
甘肃,定西市,22.408,32.854,4.732,6.926,0.278,89.473,2.37,-3.934,282.183,47.113,77452.602,35.124,104.432
甘肃,平凉市,24.01,38.982,7.334,11.304,0.284,76.044,1.902,-3.998,286.166,50.36,84538.645,35.304,106.644
甘肃,庆阳市,25.779,39.952,10.457,7.487,0.303,82.124,2.059,-2.853,286.936,54.482,85737.213,36.149,107.596
甘肃,张掖市,31.105,73.602,1.272,3.565,0.151,95.378,5.703,-1.27,281.024,22.722,74853.908,38.94,99.855
甘肃,武威市,35.07,51.694,3.569,4.08,0.211,94.263,5.133,-1.815,286.435,26.042,81436.516,38.163,103.073
甘肃,甘南藏族自治州,18.499,20.901,3.392,2.068,0.217,91.174,1.258,-3.702,275.188,64.986,67929.399,34.331,102.768
甘肃,白银市,22.284,34.327,5.857,11.676,0.311,84.91,2.501,-2.879,285.441,37.552,81594.633,36.59,104.646
甘肃,酒泉市,40.332,51.491,0.537,0.99,0.126,87.439,7.64,-1.968,285.252,15.098,79200.34,40.236,96.062
甘肃,金昌市,26.113,67.792,5.932,7.243,0.256,101.023,7.334,-1.61,286.476,19.734,80700.203,38.44,102.048
甘肃,陇南市,21.629,29.01,6.197,6.653,0.252,76.936,-0.233,-5.496,285.777,47.938,82290.777,33.599,105.224
福建,三明市,23.714,32.379,5.908,9.778,0.582,62.931,-2.024,2.22,292.702,77.73,95146.968,26.29,117.395
福建,南平市,23.068,32.036,5.196,6.809,0.378,79.688,-1.638,2.392,292.439,73.276,95921.04,27.324,118.143
福建,厦门市,26.513,51.68,10.59,18.225,0.48,95.318,-3.725,-3.222,294.425,73.387,100362.648,24.642,118.11
福建,宁德市,20.532,31.424,3.367,5.496,0.313,88.696,-1.593,-0.049,290.013,82.917,95346.191,26.968,119.474
福建,泉州市,24.598,43.612,6.378,11.925,0.45,88.664,-2.72,-1.065,292.373,79.825,96626.363,25.201,118.249
福建,漳州市,27.824,46.451,7.447,13.939,0.484,92.505,-3.382,-1.009,293.787,73.715,98200.499,24.372,117.444
福建,福州市,19.269,33.612,4.853,10.57,0.398,92.881,-2.861,-2.025,291.697,83.755,97417.471,26.083,119.206
福建,莆田市,20.821,36.952,5.252,9.842,0.379,95.294,-3.216,-2.843,292.856,81.072,98154.317,25.445,118.864
福建,龙岩市,27.303,38.273,6.093,12.422,0.588,65.246,-1.48,2.57,293.955,74.97,95126.218,25.256,116.739
西藏,山南市,14.535,15.972,1.256,1.139,0.186,105.195,0.828,-1.908,276.6,75.802,66200.759,28.295,92.274
西藏,拉萨市,4.828,6.061,0.132,0.761,0.135,115.554,-1.184,-6.627,269.706,61.679,56787.768,30.043,91.093
西藏,日喀则市,3.604,3.939,0.083,0.334,0.124,122.503,-1.447,-6.584,269.577,42.918,55681.366,29.483,86.493
西藏,昌都市,7.614,8.27,0.594,0.386,0.15,101.942,1.695,0.469,271.011,70.353,59249.194,30.753,97.044
西藏,林芝市,14.545,16.034,1.453,1.159,0.187,97.777,-0.366,1.265,275.641,83.111,66501.081,29.184,95.25
西藏,玉树藏族自治州,9.364,9.515,0.085,0.262,0.12,108.408,0.329,-4.248,266.197,58.673,57752.382,34.196,94.317
西藏,那曲市,5.483,5.519,0.053,0.184,0.121,113.735,-1.272,-5.79,267.924,42.881,55894.091,32.709,89.262
西藏,阿里地区,1.275,1.302,0.015,0.532,0.121,108.871,-0.026,-4.718,269.896,30.942,55435.409,33.013,82.553
贵州,六盘水市,23.136,39.429,9.634,9.615,0.531,67.963,-0.675,2.023,291.88,72.453,83082.997,26.106,104.896
贵州,安顺市,24.683,38.719,8.084,6.213,0.47,72.025,-1.356,2.128,293.74,80.08,88057.354,25.986,105.978
贵州,毕节市,17.006,34.108,7.953,7.095,0.577,69.092,1.24,0.295,289.695,78.419,83450.828,27.063,105.211
贵州,贵阳市,18.947,32.543,6.188,14.155,0.575,50.909,1.361,1.435,292.197,80.88,88119.852,26.845,106.71
贵州,遵义市,24.325,35.498,8.513,9.242,0.519,59.441,2.348,0.041,291.764,83.641,90256.014,28.167,107.102
贵州,铜仁市,26.362,46.76,12.278,8.961,0.655,44.933,1.623,0.886,294.365,80.504,92524.061,27.937,108.534
贵州,黔东南苗族侗族自治州,26.884,41.804,12.29,6.605,0.584,40.395,1.155,3.173,295.232,83.123,92446.222,26.495,108.574
贵州,黔南布依族苗族自治州,24.881,37.717,8.773,6.037,0.516,53.183,0.174,2.674,294.157,84.993,90232.106,26.0,107.265
贵州,黔西南布依族苗族自治州,23.84,37.785,8.18,3.611,0.49,82.259,-0.874,2.921,295.365,74.782,88396.803,25.256,105.467
辽宁,丹东市,27.52,41.714,8.56,9.163,0.488,89.936,-0.357,4.099,283.553,82.949,98715.824,40.554,124.376
辽宁,大连市,30.083,49.319,7.49,13.998,0.422,92.383,-0.059,5.086,286.439,75.753,100793.634,39.591,122.22
辽宁,抚顺市,34.752,53.71,13.062,13.41,0.677,99.78,1.709,5.943,286.229,61.327,96841.018,41.841,124.65
辽宁,朝阳市,58.088,75.009,15.615,15.775,0.915,110.504,1.34,2.75,289.219,60.56,96158.315,41.545,120.053
辽宁,本溪市,31.606,49.151,10.564,11.29,0.681,92.166,0.348,5.771,284.479,69.093,96269.378,41.232,124.544
辽宁,沈阳市,42.798,74.614,17.194,23.691,0.81,95.259,1.187,6.404,289.123,56.022,100793.388,42.081,123.159
辽宁,盘锦市,31.489,56.634,11.599,16.155,0.632,111.801,2.173,6.05,287.929,65.149,101460.296,41.13,122.01
辽宁,营口市,29.931,50.158,8.186,12.978,0.462,100.01,0.044,6.0,287.594,62.025,99354.807,40.395,122.478
辽宁,葫芦岛市,43.818,67.287,14.367,17.368,0.734,108.475,1.062,3.634,288.727,64.454,98893.712,40.66,120.215
辽宁,辽阳市,28.929,53.345,10.726,15.699,0.743,100.449,0.373,6.443,288.322,54.732,99550.613,41.153,123.261
辽宁,铁岭市,43.027,75.36,16.152,24.559,0.753,103.134,2.232,6.446,288.338,58.782,99270.555,42.653,124.158
辽宁,锦州市,43.242,66.988,16.281,18.783,0.802,107.157,1.256,5.281,288.784,62.414,100589.906,41.502,121.659
辽宁,阜新市,48.263,66.492,15.787,17.245,0.682,92.026,1.087,4.064,289.289,58.346,99087.884,42.289,121.968
辽宁,鞍山市,29.018,50.826,8.522,12.9,0.562,99.985,0.045,5.36,287.192,63.919,99652.511,40.731,123.007
重庆,重庆城区,30.66,42.682,11.395,18.497,0.624,58.036,0.618,0.405,293.097,77.554,94680.22,29.824,107.125
重庆,重庆郊县,39.633,50.918,14.633,11.444,0.581,61.677,-0.813,0.535,290.61,85.847,90921.787,30.334,108.755
陕西,咸阳市,21.867,47.993,8.197,15.105,0.54,77.807,1.57,-1.317,289.2,62.107,91315.891,34.779,108.367
陕西,商洛市,29.574,44.976,10.374,6.763,0.475,92.787,0.99,-2.487,287.913,69.053,89216.746,33.64,109.889
陕西,安康市,29.505,41.535,11.364,5.348,0.444,74.373,-0.312,-1.181,288.536,72.674,89756.187,32.735,108.932
陕西,宝鸡市,22.32,41.013,7.016,10.685,0.365,70.86,0.868,-2.669,286.65,59.834,86343.514,34.386,107.193
陕西,延安市,33.047,48.035,11.413,13.314,0.663,85.751,0.747,-1.515,287.196,61.605,87412.379,36.432,109.316
陕西,榆林市,30.478,43.112,11.908,14.061,0.571,90.962,1.977,-1.147,288.265,56.085,87705.9,38.041,109.581
陕西,汉中市,25.345,38.496,10.867,7.286,0.388,75.123,-0.538,-3.145,289.192,60.109,88857.733,33.088,107.098
陕西,渭南市,31.42,54.228,9.225,18.42,0.725,91.231,1.548,0.0,290.664,57.669,93576.107,34.919,109.855
陕西,西安市,21.82,47.762,7.836,15.901,0.577,81.884,2.33,-0.465,288.268,64.526,90417.902,34.12,108.77
陕西,铜川市,30.009,48.383,10.825,14.061,0.623,83.618,-0.04,-1.823,287.856,62.658,89027.426,35.198,109.058
青海,保亭黎族苗族自治县,7.922,11.102,1.582,7.998,0.444,31.29,-1.872,2.544,297.972,87.754,97015.672,18.566,109.618
青海,吐鲁番市,15.67,24.894,1.576,1.473,0.16,83.222,1.27,-1.535,293.304,18.606,90019.273,42.386,89.851
青海,果洛藏族自治州,10.639,10.966,0.261,0.459,0.12,106.469,0.932,-5.142,268.447,61.212,60349.779,34.127,99.404
青海,海东市,22.231,28.27,4.332,6.486,0.352,90.008,3.34,-1.351,279.418,49.885,73051.559,36.347,102.34
青海,海北藏族自治州,13.786,15.636,0.737,0.674,0.126,102.013,4.113,-2.112,271.765,47.672,65691.851,37.775,100.288
青海,海南藏族自治州,13.708,14.094,0.598,0.619,0.123,96.74,4.21,-2.109,273.759,57.86,66884.693,35.89,100.272
青海,海西蒙古族藏族自治州,18.517,18.724,0.225,0.293,0.12,98.044,3.817,-3.219,273.581,33.021,64980.216,36.677,94.519
青海,西宁市,16.849,25.316,2.425,6.169,0.367,94.338,4.787,-2.387,276.743,42.3,69883.167,36.842,101.423
青海,黄南藏族自治州,15.215,15.961,1.737,0.969,0.149,91.704,3.411,-3.124,273.215,69.321,66173.973,35.022,101.631
香港,香港特别行政区,17.875,29.3,2.83,9.57,0.235,92.095,-9.025,1.68,298.07,86.855,100785.205,22.45,114.22
黑龙江,七台河市,14.251,33.58,4.272,6.773,0.278,98.903,8.254,-1.469,288.312,40.883,97658.501,45.87,130.943
黑龙江,伊春市,5.82,7.604,1.547,1.939,0.19,77.507,6.2,-1.99,285.816,40.398,96232.973,47.772,129.184
黑龙江,佳木斯市,12.029,19.555,3.587,4.173,0.265,80.353,7.47,-1.339,288.616,43.222,99381.32,47.207,132.11
黑龙江,双鸭山市,14.095,23.229,4.865,5.354,0.271,81.243,7.769,-1.269,288.377,45.52,98984.944,46.722,132.643
黑龙江,哈尔滨市,18.43,27.04,4.606,10.935,0.33,79.288,4.126,-0.125,289.207,37.523,98164.696,45.634,127.964
黑龙江,大兴安岭地区,5.358,5.772,0.678,1.034,0.16,73.521,0.72,2.285,284.452,30.006,94231.079,52.286,124.212
黑龙江,大庆市,16.431,27.205,5.487,9.61,0.272,82.653,1.686,1.359,291.45,27.955,99419.359,46.327,124.687
黑龙江,牡丹江市,18.903,28.654,4.9,8.479,0.337,82.887,6.872,-0.765,288.004,42.847,95108.952,44.592,129.883
黑龙江,绥化市,9.579,14.435,2.444,5.345,0.236,75.725,2.528,-0.531,289.403,32.601,98627.527,46.89,126.634
黑龙江,鸡西市,15.11,24.991,5.02,6.451,0.259,82.031,7.572,-1.364,289.029,42.203,98831.272,45.626,132.289
黑龙江,鹤岗市,8.697,16.275,2.615,4.142,0.305,81.67,6.788,-2.926,287.6,41.408,98485.883,47.661,130.778
黑龙江,黑河市,4.187,4.852,0.847,1.466,0.176,72.812,3.664,-0.883,286.258,32.582,96612.283,49.268,127.004
黑龙江,齐齐哈尔市,11.153,15.604,2.339,4.444,0.205,74.693,1.711,1.874,289.94,30.869,98545.306,47.715,124.57
