province,city,PM2.5,PM10,SO2,NO2,CO,O3,U,V,TEMP,RH,PSFC,lat,lon
上海,上海市,28.176,37.048,6.352,25.177,0.636,63.729,-2.625,-3.574,294.287,92.207,100614.93,31.173,121.42
云南,临沧市,16.384,23.503,2.807,3.929,0.363,58.65,4.951,-0.042,294.236,73.064,83680.024,23.935,99.686
云南,丽江市,18.516,27.011,5.376,3.287,0.41,75.888,0.669,-0.333,287.828,73.216,74568.217,26.96,100.515
云南,保山市,21.209,34.313,4.7,6.21,0.518,63.994,4.694,0.664,292.327,78.671,81684.941,24.953,98.962
云南,大理白族自治州,17.079,28.578,4.34,3.497,0.369,73.074,3.628,-0.021,290.648,73.814,77962.683,25.726,100.053
云南,德宏傣族景颇族自治州,26.834,34.379,5.499,7.638,0.508,51.967,2.526,0.776,294.275,80.663,85823.06,24.535,98.052
云南,怒江傈僳族自治州,20.04,28.86,2.862,1.521,0.37,64.711,3.793,0.763,285.545,92.727,72753.719,26.916,98.885
云南,文山壮族苗族自治州,17.334,23.224,5.703,3.83,0.338,72.873,3.917,1.076,296.362,67.699,86121.325,23.696,104.735
云南,昆明市,23.782,37.081,7.499,10.693,0.458,72.759,1.525,-1.214,290.691,72.773,79046.184,25.384,102.863
云南,昭通市,25.249,40.349,8.496,8.404,0.444,70.213,-0.167,-5.004,287.099,89.478,84089.6,27.667,103.985
云南,普洱市,15.064,19.571,2.436,3.626,0.26,57.39,3.966,0.676,296.482,64.282,85674.699,23.159,100.718
云南,曲靖市,23.569,37.38,9.509,9.462,0.432,69.338,1.197,-3.659,289.714,78.784,79846.172,25.737,103.929
云南,楚雄彝族自治州,19.8,28.292,4.907,4.321,0.322,77.384,2.855,-0.801,293.261,63.912,80737.494,25.328,101.567
云南,玉溪市,18.161,26.943,4.411,6.385,0.298,67.018,3.916,0.961,294.932,66.402,83183.674,24.136,102.217
云南,红河哈尼族彝族自治州,15.873,22.819,4.275,4.047,0.263,68.139,3.883,1.658,295.425,70.129,84836.471,23.451,103.034
云南,西双版纳傣族自治州,11.594,17.093,2.762,2.733,0.373,52.845,3.143,2.366,298.112,62.587,88624.111,21.939,100.912
云南,迪庆藏族自治州,15.793,22.321,3.095,1.16,0.275,71.18,3.879,2.156,282.664,87.274,67311.112,27.957,99.459
内蒙古,乌兰察布市,149.717,165.543,1.583,2.55,0.187,72.591,7.427,-4.299,289.096,29.454,85772.351,41.691,112.44
内蒙古,乌海市,54.608,187.96,11.204,10.591,0.279,101.096,8.098,-5.825,287.89,28.749,88083.862,39.396,106.856
内蒙古,兴安盟,11.318,16.42,2.835,3.267,0.205,70.445,-2.05,0.849,290.16,39.134,94127.409,46.244,121.341
内蒙古,包头市,137.356,154.707,2.205,2.695,0.2,79.219,8.227,-4.027,288.455,26.242,85914.625,41.549,110.276
内蒙古,呼伦贝尔市,7.902,8.93,1.481,1.615,0.161,61.906,-3.975,-0.32,285.951,56.545,93060.145,49.636,121.171
内蒙古,呼和浩特市,105.878,169.726,4.932,11.617,0.327,77.209,6.839,-4.662,289.733,27.124,86202.695,40.578,111.513
内蒙古,巴彦淖尔市,111.931,124.486,0.733,0.837,0.142,82.569,10.116,-2.279,288.258,19.846,87478.25,41.446,107.582
内蒙古,赤峰市,40.37,53.016,8.15,6.43,0.315,74.992,-0.657,0.192,290.12,49.459,91242.655,43.226,118.892
内蒙古,通辽市,19.196,26.549,5.848,6.535,0.257,83.8,-3.561,-0.131,293.372,34.5,97010.058,43.814,121.591
内蒙古,鄂尔多斯市,90.53,126.931,4.064,4.501,0.201,85.136,8.373,-5.624,287.961,29.817,87261.706,39.407,108.63
内蒙古,锡林郭勒盟,87.145,91.44,2.258,1.584,0.171,62.1,3.95,-0.169,288.615,46.699,88523.471,44.179,115.482
内蒙古,阿拉善盟,54.531,65.304,0.715,0.771,0.135,87.007,7.99,-3.423,287.597,22.828,88060.06,40.473,102.467
北京,北京市,94.812,134.409,6.862,22.861,0.663,91.043,1.538,-0.883,296.571,45.52,96902.511,40.158,116.395
台湾,台湾省,13.282,15.677,4.363,15.843,0.117,59.708,2.321,1.495,297.662,66.144,92677.466,23.757,120.975
吉林,吉林市,15.78,21.048,3.684,7.711,0.286,81.177,-1.677,0.881,290.19,53.381,96427.413,43.573,126.859
吉林,四平市,20.258,32.987,3.999,13.766,0.363,99.612,-2.345,0.125,293.519,38.844,98517.42,43.472,124.386
吉林,延边朝鲜族自治州,19.12,23.553,4.145,4.088,0.244,71.862,-2.498,1.838,284.96,71.154,93731.125,43.141,129.147
吉林,松原市,13.141,21.362,3.125,6.835,0.254,81.711,-1.714,-1.084,293.471,32.089,98923.253,44.785,124.496
吉林,白城市,9.581,14.799,2.566,4.657,0.201,74.082,-2.244,-1.446,293.377,31.378,99043.371,45.35,123.031
吉林,白山市,45.333,66.139,13.527,10.953,0.638,79.571,1.488,2.042,287.461,75.877,91770.798,42.063,127.256
吉林,辽源市,32.942,51.532,8.279,17.132,0.509,99.876,-0.677,0.927,291.552,53.508,96743.864,42.836,125.32
吉林,通化市,45.489,77.177,14.379,14.14,0.746,99.478,0.926,2.752,290.02,69.154,95069.363,41.939,125.927
吉林,长春市,16.528,29.518,3.9,15.536,0.35,87.236,-1.452,0.008,292.519,36.126,98488.066,44.268,125.611
四川,乐山市,30.846,44.467,7.289,17.471,0.403,60.631,1.418,-3.69,289.922,74.903,89611.201,29.218,103.569
四川,内江市,39.69,64.735,5.806,14.531,0.439,66.285,-0.41,-6.122,293.615,66.273,96460.768,29.62,104.95
四川,凉山彝族自治州,22.82,31.184,8.007,4.179,0.353,77.273,-3.953,-2.77,284.327,85.721,74221.666,27.883,102.065
四川,南充市,27.635,53.339,6.161,11.148,0.412,63.944,-1.784,-8.966,293.708,62.717,96417.986,31.19,106.199
四川,宜宾市,34.861,55.454,9.58,21.543,0.577,57.979,2.707,-3.11,292.391,77.675,94878.577,28.573,104.621
四川,巴中市,29.437,54.479,5.686,7.119,0.336,61.184,-3.651,-10.335,291.421,62.595,92200.448,32.033,107.031
四川,广元市,30.068,53.668,3.469,4.257,0.21,73.016,-1.777,-12.88,291.006,55.086,91496.935,32.261,105.788
四川,广安市,32.233,62.337,7.744,14.821,0.576,58.03,-0.158,-7.079,293.296,72.874,96326.309,30.43,106.628
四川,德阳市,28.488,52.346,3.997,9.224,0.288,70.022,-4.179,-6.472,293.882,51.621,93020.181,31.13,104.436
四川,成都市,27.858,52.414,6.38,18.607,0.417,66.709,-2.395,-3.215,293.349,60.298,93189.896,30.64,103.929
四川,攀枝花市,20.695,31.653,11.504,7.384,0.618,83.53,-2.579,-2.082,292.733,59.948,81276.745,26.791,101.734
四川,泸州市,34.643,56.567,8.75,16.841,0.479,59.085,3.395,-3.332,291.078,84.437,93177.991,28.424,105.675
四川,甘孜藏族自治州,27.904,29.71,2.151,0.905,0.154,79.424,-2.501,-0.915,275.721,80.985,61479.519,30.936,100.009
四川,眉山市,31.276,50.895,6.239,17.873,0.414,64.752,-0.546,-2.631,292.531,66.104,93679.984,29.912,103.766
四川,绵阳市,30.74,42.408,2.453,4.072,0.195,73.758,-3.086,-10.134,290.247,53.679,87937.221,31.86,104.704
四川,自贡市,41.258,65.015,7.316,19.806,0.495,61.449,0.543,-4.883,293.459,69.087,96461.786,29.307,104.659
四川,资阳市,33.659,56.873,4.041,8.964,0.38,71.534,-1.642,-7.048,293.878,62.952,96694.099,30.102,105.149
四川,达州市,32.153,53.991,8.238,12.19,0.589,59.067,-3.353,-7.062,292.102,73.514,93656.079,31.335,107.636
四川,遂宁市,30.59,53.996,4.538,9.913,0.368,68.743,-2.307,-8.468,294.003,60.968,96909.62,30.642,105.457
四川,阿坝藏族羌族自治州,25.471,30.047,1.937,1.433,0.16,79.727,-1.472,-4.56,275.065,85.523,65895.721,32.406,102.61
四川,雅安市,24.502,34.89,7.55,8.587,0.298,65.011,-0.795,0.8,284.671,88.775,80223.178,29.932,102.689
天津,天津市,76.071,123.101,9.37,31.185,0.957,120.583,1.143,2.506,298.322,51.615,100444.554,39.315,117.308
宁夏,中卫市,54.917,125.525,2.267,3.738,0.165,91.861,4.95,-7.229,284.299,41.214,84194.824,37.018,105.509
宁夏,吴忠市,61.599,171.942,4.88,6.18,0.185,87.181,6.339,-6.117,285.293,42.363,85653.22,37.454,106.577
宁夏,固原市,72.237,177.728,2.274,6.228,0.201,95.024,3.654,-9.502,282.106,51.588,81510.209,35.905,106.183
宁夏,石嘴山市,51.386,164.726,9.721,8.369,0.256,98.264,7.81,-6.221,287.401,28.768,87191.171,39.013,106.499
宁夏,银川市,59.104,219.632,9.186,11.364,0.275,95.876,6.176,-4.482,287.564,32.225,87554.019,38.287,106.342
安徽,亳州市,44.422,60.699,9.148,14.832,0.668,97.996,-2.643,-0.989,294.057,83.103,100504.007,33.44,116.162
安徽,六安市,33.147,48.795,7.879,14.485,0.694,70.861,-1.695,-2.52,294.414,89.994,98031.769,31.617,116.209
安徽,合肥市,34.966,47.962,6.887,19.068,0.677,57.202,-1.794,-3.225,294.872,88.157,100314.869,31.766,117.359
安徽,安庆市,25.248,33.998,7.608,10.653,0.752,79.042,-2.79,-2.91,296.819,85.389,98368.713,30.557,116.473
安徽,宣城市,36.571,49.636,7.652,24.138,0.931,58.193,0.17,-1.965,296.058,87.464,98316.007,30.676,118.846
安徽,宿州市,41.636,57.702,7.914,16.24,0.614,95.161,-2.307,-0.698,293.618,83.016,100462.026,33.844,117.23
安徽,池州市,27.432,38.283,9.862,14.272,0.757,65.431,-0.706,-1.622,297.2,83.361,98531.572,30.296,117.379
安徽,淮北市,44.126,59.432,9.442,19.138,0.654,96.049,-2.571,-0.621,293.665,83.956,100509.444,33.722,116.747
安徽,淮南市,41.078,58.785,9.98,17.759,0.659,66.64,-2.195,-2.701,293.7,88.48,100526.812,32.463,116.746
安徽,滁州市,31.761,45.626,6.677,13.313,0.46,69.074,-2.126,-2.82,293.398,89.341,100245.592,32.55,118.076
安徽,芜湖市,41.969,57.006,9.082,31.631,1.056,47.168,-1.897,-3.136,295.73,89.366,100437.415,31.167,118.162
安徽,蚌埠市,38.901,51.298,8.165,14.12,0.518,83.261,-2.25,-1.935,293.243,87.278,100528.245,33.121,117.263
安徽,铜陵市,36.789,48.648,9.858,23.36,0.942,57.003,-2.017,-3.552,296.419,87.854,100278.108,30.883,117.531
安徽,阜阳市,38.473,59.165,10.294,13.255,0.713,90.654,-2.68,-1.606,294.573,83.03,100469.735,32.937,115.723
安徽,马鞍山市,38.56,54.209,7.632,29.462,0.855,43.726,-1.983,-3.371,294.834,90.136,100461.894,31.622,118.386
安徽,黄山市,20.82,34.14,8.423,11.169,0.644,62.687,1.54,-0.522,297.454,80.838,96389.594,29.869,118.09
山东,东营市,38.062,82.068,20.597,27.445,0.852,121.302,-1.442,4.97,297.03,50.282,100672.848,37.57,118.572
山东,临沂市,29.579,61.965,8.713,18.793,0.599,100.418,-3.251,0.64,293.051,70.657,99080.267,35.289,118.27
山东,威海市,29.116,55.368,6.198,13.908,0.308,92.16,-0.414,3.492,290.68,61.316,100291.794,37.148,122.028
山东,德州市,77.127,134.504,12.776,33.292,1.005,136.861,2.137,4.728,298.327,58.021,100513.424,37.233,116.679
山东,日照市,23.37,45.379,6.604,12.413,0.358,96.688,-2.945,1.221,291.919,70.805,99220.912,35.566,119.108
山东,枣庄市,42.546,82.84,9.003,24.323,0.842,108.04,-2.999,0.596,294.316,72.556,99753.896,34.925,117.383
山东,泰安市,57.227,121.4,14.742,35.681,1.067,127.753,-1.096,2.394,295.174,66.125,98923.247,35.993,117.04
山东,济南市,70.025,134.889,15.665,40.111,1.162,136.978,0.954,3.609,296.711,59.759,98853.472,36.639,117.254
山东,济宁市,54.833,110.711,10.187,29.779,1.028,119.646,-1.685,2.005,295.421,69.216,100162.344,35.375,116.697
山东,淄博市,51.836,105.247,18.325,33.609,1.285,124.159,0.197,3.06,296.112,56.747,98273.021,36.623,118.062
山东,滨州市,65.787,120.322,19.222,36.675,1.194,141.094,1.026,3.886,298.376,53.503,100586.144,37.516,117.852
山东,潍坊市,26.638,56.822,9.468,19.119,0.501,102.928,-1.795,4.227,294.3,59.481,99726.966,36.53,119.092
山东,烟台市,24.504,52.291,5.791,13.811,0.322,92.574,-0.662,4.282,292.261,59.499,99747.444,37.25,120.789
山东,聊城市,71.092,127.8,10.702,29.817,1.045,121.851,0.84,4.362,297.539,62.881,100355.226,36.458,115.863
山东,菏泽市,54.828,102.475,9.181,29.591,1.065,109.021,-1.283,2.081,296.052,68.691,100295.611,35.134,115.69
山东,青岛市,20.889,46.473,5.254,16.498,0.322,92.86,-2.002,2.996,291.717,68.277,100338.654,36.46,120.172
山西,临汾市,83.621,137.413,12.436,18.973,0.68,69.431,4.371,-6.228,292.373,38.673,89891.234,36.227,111.398
山西,吕梁市,87.701,129.341,6.168,16.778,0.283,74.87,4.927,-6.492,290.76,30.824,87641.077,37.663,111.27
山西,大同市,86.564,156.466,8.799,14.46,0.495,75.258,6.482,-2.593,291.457,29.758,86947.509,39.911,113.713
山西,太原市,76.106,178.736,6.839,29.162,0.336,71.508,5.395,-4.96,291.631,30.06,87392.691,37.967,112.321
山西,忻州市,86.065,133.538,6.396,17.465,0.275,75.08,6.076,-4.66,289.858,30.963,85987.401,38.877,112.391
山西,晋中市,77.557,163.571,11.397,30.587,0.596,69.276,4.836,-2.804,292.862,31.954,88235.02,37.328,112.997
山西,晋城市,90.139,176.835,15.694,27.385,0.911,66.031,3.97,-5.025,293.488,49.238,90087.98,35.625,112.752
山西,朔州市,85.249,169.718,8.35,20.549,0.389,76.554,7.497,-2.597,290.237,29.647,86409.103,39.619,112.655
山西,运城市,71.389,166.057,13.243,25.56,0.682,62.888,4.282,-3.91,294.27,47.281,93947.169,35.205,111.071
山西,长治市,84.693,154.819,15.621,27.943,0.838,69.615,4.392,-4.148,292.858,40.619,88494.038,36.48,112.915
山西,阳泉市,76.193,148.279,11.798,34.072,0.452,66.263,7.138,-4.304,294.179,28.287,89968.659,38.031,113.512
广东,东莞市,16.15,29.628,5.516,19.798,0.536,47.609,0.76,5.713,301.444,82.954,100557.807,22.931,113.81
广东,中山市,10.716,16.309,3.522,8.927,0.33,45.133,1.701,5.866,301.882,79.656,100547.833,22.5,113.383
广东,云浮市,12.356,19.99,2.302,6.934,0.33,54.204,1.697,5.766,301.733,73.497,98506.269,22.776,111.818
广东,佛山市,14.536,24.402,6.22,16.761,0.493,53.038,1.134,4.795,302.504,75.055,100533.635,23.035,112.979
广东,广州市,20.616,35.969,7.998,24.384,0.626,62.738,0.16,4.607,301.293,80.604,99694.019,23.339,113.525
广东,惠州市,16.157,24.437,4.692,15.259,0.398,60.997,1.421,4.694,300.406,83.007,98801.987,23.244,114.485
广东,揭阳市,15.8,24.162,4.231,6.731,0.506,55.163,3.251,3.79,301.104,77.261,99397.542,23.323,116.123
广东,梅州市,18.669,28.918,5.11,10.562,0.542,67.216,2.878,3.225,300.469,73.475,97386.805,24.169,116.07
广东,汕头市,15.152,23.072,6.7,8.499,0.472,55.779,3.124,4.25,301.251,79.662,100493.597,23.339,116.614
广东,汕尾市,10.893,14.74,2.102,4.275,0.228,54.356,2.834,4.315,300.46,82.886,99163.787,23.024,115.527
广东,江门市,9.583,13.797,1.507,4.625,0.206,48.047,2.215,6.119,301.748,79.735,99983.479,22.289,112.676
广东,河源市,19.138,25.756,5.684,11.324,0.37,80.095,2.422,4.577,300.184,78.684,97566.609,24.021,114.969
广东,深圳市,13.698,24.649,5.547,19.953,0.443,41.269,1.34,5.849,300.826,85.618,100122.992,22.667,114.143
广东,清远市,18.253,26.902,4.583,13.975,0.415,69.001,0.988,5.047,300.26,77.811,97014.901,24.295,112.871
广东,湛江市,11.405,20.252,4.27,7.575,0.453,56.889,2.147,5.097,302.955,69.323,100347.015,21.091,110.163
广东,潮州市,21.754,36.379,10.218,13.933,0.797,58.428,2.803,3.13,300.587,77.522,98847.705,23.755,116.754
广东,珠海市,7.262,10.292,1.263,3.585,0.117,48.1,2.235,6.295,301.498,83.487,100655.363,22.095,113.317
广东,肇庆市,14.719,22.759,2.74,9.587,0.361,56.371,0.91,4.48,301.566,74.276,98601.635,23.505,112.199
广东,茂名市,11.826,21.117,5.697,6.731,0.385,57.334,1.008,5.715,301.382,78.437,98607.615,22.013,110.952
广东,阳江市,9.803,15.055,1.712,3.806,0.202,50.811,1.762,5.778,301.031,82.322,99152.721,22.042,111.786
广东,韶关市,22.076,31.844,9.917,16.58,0.676,90.488,2.197,5.026,299.915,76.997,96255.11,24.785,113.819
广西,北海市,9.736,19.054,2.969,4.233,0.416,65.733,2.29,6.479,302.516,77.265,100345.336,21.674,109.37
广西,南宁市,15.717,28.761,5.146,9.025,0.618,69.935,1.034,6.33,302.225,71.484,98410.041,23.051,108.469
广西,崇左市,17.2,24.581,4.373,4.157,0.477,80.028,2.496,5.771,302.555,65.602,97132.691,22.483,107.291
广西,来宾市,17.832,30.473,5.6,8.17,0.501,64.536,1.117,6.339,301.026,75.456,97296.581,23.859,109.417
广西,柳州市,17.806,27.721,6.706,7.147,0.509,68.235,0.806,5.212,300.596,75.83,96671.695,24.956,109.372
广西,桂林市,18.046,27.094,5.696,6.181,0.504,68.697,2.091,5.34,299.678,76.2,95129.049,25.353,110.513
广西,梧州市,16.987,30.646,6.012,9.708,0.546,59.523,1.714,5.304,301.579,72.866,98180.732,23.484,110.996
广西,河池市,18.563,27.332,6.736,4.835,0.553,76.647,0.947,3.437,299.751,71.925,94387.93,24.628,107.843
广西,玉林市,16.227,30.59,10.194,9.249,0.601,60.176,1.575,6.248,301.446,76.039,98604.196,22.452,110.164
广西,百色市,19.468,27.202,8.781,4.513,0.546,77.553,1.457,1.84,299.713,65.043,92365.238,23.981,106.292
广西,贵港市,20.356,39.345,9.177,11.696,0.646,60.337,1.743,5.722,301.976,73.179,98957.327,23.322,110.021
广西,贺州市,18.401,29.242,4.298,7.085,0.433,63.762,1.23,5.422,300.259,76.021,96411.129,24.364,111.394
广西,钦州市,12.561,24.321,4.067,6.616,0.582,64.797,2.029,7.043,301.958,77.955,99597.509,22.173,109.01
广西,防城港市,11.848,19.03,2.718,3.139,0.53,71.599,2.564,7.118,301.272,78.286,98024.61,21.88,108.002
新疆,乌鲁木齐市,11.158,15.991,1.84,6.108,0.217,89.307,-1.486,2.172,285.409,30.56,84736.845,43.746,87.818
新疆,五家渠市,20.49,28.257,2.987,10.08,0.287,74.697,-5.56,0.687,292.31,25.98,96823.313,44.363,87.517
新疆,伊犁哈萨克自治州,10.591,13.589,1.065,2.928,0.17,96.197,-1.319,2.145,285.066,32.565,80691.352,43.438,82.146
新疆,克孜勒苏柯尔克孜自治州,90.147,121.994,0.36,1.315,0.15,92.692,-0.177,2.412,277.326,39.366,71030.371,39.661,75.949
新疆,克拉玛依市,8.736,12.864,2.226,2.987,0.221,91.857,-3.405,-1.034,292.007,25.308,97652.471,45.457,85.207
新疆,北屯市,5.382,5.976,1.358,1.684,0.144,78.432,-3.504,0.722,288.34,36.378,95934.412,47.27,87.868
新疆,博尔塔拉蒙古自治州,9.396,14.048,3.298,2.847,0.189,88.156,-1.301,1.019,285.256,40.512,86575.926,44.714,82.114
新疆,双河市,12.62,22.058,5.426,4.418,0.222,70.366,-2.076,0.476,291.574,29.98,98061.018,44.87,82.474
新疆,可克达拉市,9.542,22.342,3.158,11.104,0.356,82.33,-6.584,0.906,294.64,23.91,94641.768,43.918,80.786
新疆,和田地区,79.5,88.59,0.299,0.996,0.129,94.868,-3.752,-0.189,281.672,24.68,74414.025,37.059,80.934
新疆,哈密市,16.043,16.969,0.839,1.344,0.152,87.947,3.284,-0.61,287.233,25.366,88800.644,43.042,93.517
新疆,喀什地区,91.238,115.586,0.486,1.535,0.155,85.862,-2.177,1.006,282.595,31.41,76571.317,38.125,77.178
新疆,图木舒克市,100.367,104.958,0.823,0.978,0.133,71.867,-3.17,-0.402,291.552,21.173,89702.06,39.892,79.182
新疆,塔城地区,9.226,11.545,2.363,2.368,0.195,91.454,-1.627,1.798,287.372,33.702,89934.929,45.642,84.789
新疆,巴音郭楞蒙古自治州,48.058,51.959,0.414,0.408,0.123,100.021,-1.407,-0.097,283.628,20.507,79691.029,39.463,87.481
新疆,新星市,14.72,27.98,3.765,13.47,0.43,84.91,0.3,-2.06,290.835,18.665,93207.61,42.75,93.68
新疆,昆玉市,114.26,226.92,2.57,7.24,0.17,83.41,-4.837,1.11,293.017,11.77,87289.08,37.457,79.093
新疆,昌吉回族自治州,9.049,11.38,1.667,3.376,0.181,86.538,-2.164,0.978,287.973,30.643,90309.636,44.342,88.608
新疆,石河子市,21.16,26.77,5.08,10.405,0.27,88.075,-4.475,1.39,292.525,24.14,94897.1,44.245,86.035
新疆,胡杨河市,15.856,20.05,3.234,4.472,0.272,92.918,-4.358,-1.57,292.672,27.292,98048.136,44.852,84.772
新疆,铁门关市,80.693,112.76,1.487,2.26,0.15,86.14,1.98,-1.88,291.877,16.13,92135.457,41.773,85.66
新疆,阿克苏地区,85.696,107.065,0.789,1.882,0.15,84.883,-0.595,0.148,287.606,24.456,85814.578,40.965,81.578
新疆,阿勒泰地区,4.794,5.145,1.174,0.9,0.146,80.728,-0.795,0.157,284.271,47.41,88973.688,46.902,88.421
新疆,阿拉尔市,103.602,140.71,0.8,3.549,0.18,77.181,-1.962,-0.008,291.525,19.986,90575.373,40.629,80.998
江苏,南京市,33.029,49.337,7.473,26.193,0.73,47.662,-2.151,-3.131,294.445,89.723,100521.925,31.899,118.876
江苏,南通市,18.573,28.13,4.198,7.718,0.314,76.977,-3.634,-3.211,292.248,93.953,100696.047,32.201,120.979
江苏,宿迁市,29.478,39.748,6.284,10.849,0.402,87.322,-3.446,-1.837,293.601,80.506,100703.169,33.765,118.495
江苏,常州市,36.511,55.442,7.877,32.041,0.941,41.727,-2.652,-3.51,294.728,90.224,100551.216,31.613,119.666
江苏,徐州市,39.665,62.387,7.291,18.269,0.66,97.325,-3.153,-0.513,293.899,77.972,100464.729,34.363,117.513
江苏,扬州市,24.375,37.011,5.694,11.089,0.398,73.403,-3.417,-2.692,293.541,86.613,100706.31,32.709,119.486
江苏,无锡市,35.234,54.26,8.231,35.229,0.961,40.696,-2.691,-3.317,294.708,90.405,100454.886,31.546,120.066
江苏,泰州市,22.618,34.403,5.135,10.668,0.398,73.402,-3.761,-2.964,292.979,89.091,100672.76,32.605,120.048
江苏,淮安市,26.464,35.511,5.674,8.517,0.354,82.503,-3.513,-2.31,293.469,82.806,100684.25,33.362,118.985
江苏,盐城市,17.962,25.351,2.971,4.188,0.236,85.665,-4.762,-2.257,291.728,86.388,100783.696,33.529,120.156
江苏,苏州市,31.812,45.678,7.281,29.977,0.764,52.745,-2.74,-3.413,294.626,90.781,100593.885,31.374,120.661
江苏,连云港市,20.282,30.675,3.871,6.668,0.288,90.122,-4.54,-1.765,292.028,79.989,100647.023,34.519,119.133
江苏,镇江市,32.067,48.902,7.09,26.532,0.676,46.393,-2.636,-3.13,294.079,90.327,100559.265,32.016,119.49
江西,上饶市,22.857,34.868,11.325,9.794,0.62,67.879,3.38,1.922,300.661,71.372,98361.549,28.778,117.47
江西,九江市,19.981,29.51,6.475,9.537,0.597,73.91,1.673,-0.202,299.695,75.264,98312.51,29.313,115.444
江西,南昌市,17.632,30.656,10.231,12.142,0.728,76.093,2.602,0.828,301.878,69.866,100106.197,28.671,116.016
江西,吉安市,22.662,30.729,10.679,8.079,0.509,86.548,3.105,3.316,302.82,61.181,97974.725,26.954,114.831
江西,宜春市,23.874,33.466,8.87,9.429,0.571,73.521,3.527,1.361,301.416,70.311,98275.091,28.29,114.974
江西,抚州市,21.641,27.697,8.365,5.923,0.347,87.559,3.04,3.271,301.565,67.088,98007.512,27.514,116.42
江西,新余市,24.975,36.399,10.769,11.476,0.609,75.393,3.241,1.707,302.873,64.346,99157.804,27.847,114.836
江西,景德镇市,20.628,32.147,10.013,9.049,0.639,66.383,1.734,0.728,300.566,73.019,99145.28,29.287,117.24
江西,萍乡市,22.695,33.265,8.766,9.64,0.536,73.378,3.998,2.51,301.481,67.124,97015.396,27.505,113.908
江西,赣州市,23.928,31.923,11.741,9.367,0.763,94.966,3.111,4.873,300.835,69.416,96519.679,25.692,115.279
江西,鹰潭市,22.876,32.467,9.373,8.475,0.477,79.005,3.821,3.483,301.65,67.891,98877.931,28.222,117.094
河北,保定市,91.931,138.441,14.837,23.051,0.734,89.094,3.321,-1.192,298.491,35.404,96888.749,39.018,115.159
河北,唐山市,67.416,128.088,18.243,39.161,1.044,135.02,0.461,3.651,295.726,59.461,99992.24,39.731,118.354
河北,廊坊市,79.52,133.034,12.88,25.508,0.927,111.128,1.362,1.733,299.242,48.27,100470.822,39.267,116.632
河北,张家口市,104.259,132.713,4.328,7.854,0.265,76.233,5.074,-2.753,291.031,33.934,87299.836,40.877,115.042
河北,承德市,79.802,114.646,9.702,15.376,0.51,99.759,3.966,0.528,291.538,54.221,90385.557,41.339,117.578
河北,沧州市,72.27,118.39,16.041,27.136,0.946,127.543,1.668,4.333,299.278,51.354,100536.476,38.258,116.744
河北,石家庄市,86.867,171.393,18.083,38.032,0.785,71.284,4.255,-1.544,299.116,31.094,97460.651,38.135,114.407
河北,秦皇岛市,64.714,115.419,21.972,33.033,1.12,148.671,2.395,3.526,294.311,61.987,97823.074,40.12,119.193
河北,衡水市,76.125,127.604,14.893,22.988,0.983,115.218,2.748,3.342,299.548,51.128,100426.274,37.755,115.813
河北,邢台市,78.229,138.964,17.507,30.287,1.203,95.841,2.241,0.606,299.444,43.481,99036.774,37.195,114.815
河北,邯郸市,68.963,128.625,16.145,31.343,1.302,107.444,1.371,1.819,298.489,50.818,98621.26,36.538,114.596
河南,三门峡市,62.298,120.467,9.287,18.85,0.47,61.883,5.148,-5.419,291.699,59.325,91614.218,34.362,111.101
河南,信阳市,38.011,64.838,10.993,9.986,0.695,86.185,-2.589,-2.815,295.679,82.921,99499.597,32.091,114.907
河南,南阳市,58.841,118.86,7.528,12.858,0.606,71.311,1.238,-5.229,296.88,60.62,97584.847,33.034,112.323
河南,周口市,45.137,92.749,9.433,19.421,0.883,91.075,-2.328,-0.415,295.739,75.031,100256.709,33.738,114.884
河南,商丘市,49.849,84.91,9.072,24.268,0.919,100.241,-2.231,0.63,294.945,76.144,100342.152,34.277,115.718
河南,安阳市,65.587,135.717,13.743,30.526,1.211,107.348,0.835,1.775,298.029,53.892,98263.372,35.888,114.318
河南,平顶山市,74.488,150.802,9.077,23.675,0.782,63.119,3.49,-4.24,297.044,59.853,98174.536,33.8,113.025
河南,开封市,56.919,135.753,8.932,27.248,1.009,88.634,-1.34,1.477,296.649,69.667,99987.85,34.594,114.514
河南,新乡市,70.006,176.694,12.955,35.518,1.157,93.68,-0.036,1.55,297.575,61.609,99071.98,35.256,114.111
河南,洛阳市,68.7,121.704,10.628,20.624,0.592,58.563,5.862,-4.458,294.089,57.189,93781.129,34.274,112.019
河南,济源市,83.367,156.573,13.254,28.274,0.859,56.525,3.093,-5.63,297.111,46.661,95479.358,35.105,112.445
河南,漯河市,63.289,173.722,9.715,23.565,0.972,77.068,-1.204,-0.685,297.175,69.5,100098.548,33.652,113.945
河南,濮阳市,55.331,109.792,9.888,29.42,1.125,102.521,-0.217,3.481,297.12,65.446,100248.893,35.809,115.283
河南,焦作市,92.066,225.966,14.779,35.898,1.11,64.662,1.79,-3.136,299.196,48.453,98888.125,35.121,113.163
河南,许昌市,74.09,204.24,9.934,31.92,1.019,70.555,0.411,-1.34,297.91,62.953,99437.296,34.075,113.707
河南,郑州市,85.46,229.88,12.339,37.439,1.022,66.577,2.461,-0.74,297.77,57.721,98174.081,34.634,113.438
河南,驻马店市,51.37,107.67,9.151,12.642,0.758,88.331,-1.638,-2.409,296.568,73.982,99801.636,32.925,114.174
河南,鹤壁市,63.367,133.051,12.382,32.098,1.193,112.158,0.728,2.756,297.971,60.294,99395.258,35.716,114.319
浙江,丽水市,26.766,35.606,6.197,9.922,0.425,66.191,4.745,2.363,298.058,76.594,93857.359,28.194,119.51
浙江,台州市,34.569,54.234,7.524,17.097,0.55,76.739,2.994,1.241,298.458,82.986,97926.929,28.742,121.109
浙江,嘉兴市,34.915,50.569,6.263,31.094,0.953,57.745,-1.213,-2.227,296.487,89.133,100554.633,30.635,120.754
浙江,宁波市,29.74,43.735,6.556,20.734,0.629,77.606,2.149,0.0,297.279,86.255,99358.045,29.706,121.49
浙江,杭州市,27.474,41.622,6.408,20.044,0.734,66.037,1.99,-0.5,298.077,80.275,97737.404,29.891,119.464
浙江,温州市,35.609,63.193,6.986,19.822,0.625,68.245,3.367,1.606,300.051,73.227,96787.565,27.897,120.411
浙江,湖州市,38.496,54.231,6.483,31.827,0.986,57.826,-0.346,-2.778,296.001,88.861,99339.293,30.757,119.871
浙江,绍兴市,34.255,49.78,5.841,25.045,0.793,66.637,1.96,0.44,297.774,83.906,98539.972,29.709,120.64
浙江,舟山市,22.235,37.258,6.792,12.562,0.435,84.732,1.132,-0.358,295.752,94.09,100329.31,30.038,122.23
浙江,衢州市,24.159,36.147,9.501,13.697,0.587,62.015,3.422,2.036,299.464,74.806,97011.541,28.912,118.675
浙江,金华市,29.365,44.023,6.611,19.644,0.635,66.271,2.658,0.655,298.366,80.841,97252.205,29.109,119.967
海南,万宁市,4.839,6.801,0.802,2.061,0.13,42.493,2.346,6.014,300.982,83.892,99489.042,18.842,110.294
海南,三亚市,7.093,11.211,1.343,4.589,0.386,44.49,-0.43,3.759,300.029,86.357,98323.347,18.413,109.407
海南,东方市,5.65,7.15,0.87,1.544,0.161,56.22,-0.87,6.686,302.286,67.344,98840.555,18.971,108.838
海南,临高县,8.499,12.193,1.566,4.997,0.279,47.997,0.753,4.059,302.993,64.584,99951.43,19.821,109.733
海南,乐东黎族自治县,6.932,8.96,0.808,2.246,0.224,50.218,-0.897,4.191,299.884,83.48,97429.706,18.659,109.072
海南,五指山市,7.628,9.178,1.25,3.49,0.182,45.546,0.814,4.754,298.15,84.656,94295.768,18.81,109.518
海南,儋州市,6.803,8.914,1.116,3.329,0.205,51.559,1.676,4.408,303.447,60.192,99607.038,19.568,109.399
海南,定安县,6.97,10.643,1.517,5.213,0.293,40.855,0.51,5.108,302.04,74.692,99708.397,19.47,110.28
海南,屯昌县,6.136,8.45,0.944,3.576,0.22,43.118,0.656,4.958,301.888,72.332,98939.924,19.342,110.076
海南,文昌市,6.01,9.344,1.046,3.123,0.19,42.864,1.228,6.197,302.305,78.413,100468.941,19.707,110.773
海南,昌江黎族自治县,6.047,7.412,1.071,2.281,0.168,55.042,1.334,6.419,302.074,64.621,97831.396,19.233,109.016
海南,海口市,8.398,13.611,2.432,7.67,0.365,41.682,0.667,4.836,302.544,72.408,100253.717,19.842,110.393
海南,澄迈县,7.977,11.936,1.993,6.203,0.323,43.916,0.346,4.161,302.673,68.136,99802.743,19.676,109.989
海南,琼中黎族苗族自治县,6.365,8.027,0.985,3.196,0.181,44.769,1.967,5.573,300.535,74.854,96818.831,19.087,109.847
海南,琼海市,5.898,8.667,1.217,3.547,0.188,41.048,1.337,5.347,301.997,78.472,100270.703,19.22,110.43
海南,白沙黎族自治县,6.139,7.396,0.916,2.505,0.174,50.939,2.19,6.048,301.131,68.186,96517.13,19.2,109.388
海南,陵水黎族自治县,5.949,8.019,0.921,3.584,0.201,42.05,1.914,3.847,300.167,86.596,98860.061,18.581,109.913
湖北,仙桃市,17.072,33.332,6.391,7.191,0.747,80.821,-1.381,-4.433,299.046,76.113,100366.585,30.284,113.417
湖北,十堰市,45.764,80.682,7.569,5.467,0.431,59.595,2.993,-4.804,292.666,69.279,93060.479,32.462,110.476
湖北,咸宁市,20.018,27.92,4.605,11.242,0.726,75.546,2.189,-0.58,299.449,73.276,98532.867,29.621,114.178
湖北,天门市,25.951,50.498,7.924,8.299,0.736,81.637,-1.218,-4.973,299.137,73.069,100350.93,30.633,113.053
湖北,孝感市,25.286,48.0,7.913,6.854,0.735,83.42,-2.053,-4.998,297.837,77.776,99776.34,31.116,113.869
湖北,宜昌市,37.548,61.487,7.859,10.785,0.598,59.564,-0.695,-4.591,294.588,74.317,93635.788,30.746,111.129
湖北,恩施土家族苗族自治州,37.277,53.841,11.064,7.62,0.871,46.589,-2.338,-2.905,291.805,84.803,89235.044,30.195,109.552
湖北,武汉市,17.536,31.092,5.24,12.255,0.868,73.778,-0.792,-4.194,298.924,75.1,100239.431,30.606,114.349
湖北,潜江市,27.727,53.873,7.351,12.067,0.822,77.334,-0.538,-4.909,298.974,74.904,100363.262,30.33,112.77
湖北,神农架林区,45.728,57.146,6.852,2.77,0.342,62.276,1.403,-6.535,286.633,87.925,82923.44,31.592,110.49
湖北,荆州市,25.327,50.552,7.272,13.891,0.861,70.152,-0.136,-4.8,298.387,77.048,100145.97,30.01,112.512
湖北,荆门市,38.442,79.336,8.9,11.407,0.685,76.575,0.246,-6.596,298.276,70.343,99418.663,31.059,112.616
湖北,襄阳市,47.591,107.376,9.187,10.313,0.602,69.866,2.728,-5.461,296.229,68.165,96876.186,31.919,111.96
湖北,鄂州市,17.86,30.183,5.531,16.293,0.917,69.27,0.981,-2.243,299.967,71.5,100250.291,30.337,114.794
湖北,随州市,42.75,76.595,9.015,8.487,0.66,82.717,-1.173,-4.683,297.506,72.967,98743.608,31.809,113.43
湖北,黄冈市,20.502,32.896,6.855,10.562,0.726,78.04,-2.1,-1.639,298.355,78.508,98592.215,30.702,115.358
湖北,黄石市,20.802,30.486,5.504,14.9,0.802,68.254,2.75,-0.487,299.933,71.889,99304.396,29.925,115.034
湖南,娄底市,24.853,38.883,9.055,11.173,0.862,54.913,0.727,-0.585,298.855,77.746,96441.192,27.715,111.632
湖南,岳阳市,20.505,31.474,5.915,9.556,0.746,71.905,1.376,-1.359,299.286,79.068,99226.609,29.081,113.275
湖南,常德市,19.515,36.524,8.666,12.48,0.909,57.67,-0.339,-4.397,296.11,86.379,98541.632,29.271,111.524
湖南,张家界市,19.83,35.126,9.097,8.667,0.784,58.953,-3.535,-2.977,294.585,85.626,94748.308,29.379,110.526
湖南,怀化市,16.674,33.315,7.978,6.38,0.791,61.312,0.293,0.856,298.098,80.611,95567.169,27.535,110.071
湖南,株洲市,20.674,30.622,7.897,9.418,0.493,71.816,3.459,3.022,301.636,66.095,97145.845,27.109,113.513
湖南,永州市,18.553,27.594,4.822,5.64,0.432,69.09,3.008,5.393,300.774,69.297,95822.154,25.748,111.723
湖南,湘潭市,23.84,35.929,7.648,11.49,0.757,60.853,1.764,-0.224,301.197,72.346,99303.15,27.744,112.619
湖南,湘西土家族苗族自治州,16.946,36.375,7.826,8.044,0.839,47.936,-2.435,-1.847,295.353,86.514,94645.092,28.708,109.718
湖南,益阳市,18.753,33.942,6.846,10.168,0.909,55.211,1.046,-2.508,296.907,88.217,98016.334,28.525,111.919
湖南,衡阳市,21.855,33.43,6.535,8.866,0.565,68.51,2.336,2.955,302.959,62.496,98825.72,26.781,112.565
湖南,邵阳市,22.748,33.56,7.391,7.607,0.593,64.921,1.969,2.063,299.309,74.094,94274.132,26.893,110.881
湖南,郴州市,16.701,28.24,6.549,10.293,0.799,78.896,2.729,5.462,300.246,70.414,95079.501,25.769,113.109
湖南,长沙市,23.121,33.724,6.535,10.952,0.732,62.863,2.415,-0.342,300.219,76.48,98752.17,28.235,113.159
甘肃,临夏回族自治州,46.453,118.468,2.729,5.944,0.247,88.775,-1.242,0.134,281.016,61.892,78164.953,35.617,103.291
甘肃,兰州市,46.237,125.054,3.023,9.258,0.268,98.992,-0.386,-1.668,282.309,47.743,79791.272,36.359,103.633
甘肃,嘉峪关市,65.2,287.098,13.583,15.568,0.475,100.913,4.927,-3.737,283.855,25.58,82394.075,39.798,98.145
甘肃,天水市,49.78,123.279,2.226,4.305,0.185,82.753,2.642,-8.02,283.933,55.318,83196.691,34.645,105.739
甘肃,定西市,42.67,101.901,2.087,3.628,0.178,86.398,0.955,-5.88,279.602,62.085,77907.42,35.124,104.432
甘肃,平凉市,56.49,138.574,2.16,6.096,0.177,83.028,2.836,-9.332,285.2,48.614,84972.914,35.304,106.644
甘肃,庆阳市,64.937,141.097,3.063,3.897,0.177,81.761,4.542,-9.403,286.208,45.234,86177.99,36.149,107.596
甘肃,张掖市,32.614,97.854,2.124,2.988,0.171,101.544,3.927,-1.151,277.437,41.98,75383.137,38.94,99.855
甘肃,武威市,46.999,120.454,1.511,1.82,0.146,96.292,5.399,-4.604,283.388,34.96,82094.574,38.163,103.073
甘肃,甘南藏族自治州,34.245,49.178,1.591,1.751,0.149,83.474,0.252,-3.609,274.729,77.726,68238.69,34.331,102.768
甘肃,白银市,39.237,92.934,1.948,3.574,0.152,95.634,3.006,-8.242,283.009,41.921,82160.914,36.59,104.646
甘肃,酒泉市,23.147,33.939,0.829,0.849,0.138,100.787,4.115,-1.368,282.025,23.012,79766.82,40.236,96.062
甘肃,金昌市,51.62,193.22,2.907,3.224,0.154,102.993,7.158,-3.698,282.581,35.028,81344.735,38.44,102.048
甘肃,陇南市,38.763,68.49,1.995,2.653,0.167,80.838,0.865,-10.884,284.343,55.978,82632.122,33.599,105.224
福建,三明市,19.326,26.858,5.781,9.58,0.553,78.678,3.63,3.047,299.365,71.869,94565.848,26.29,117.395
福建,南平市,22.446,30.079,6.726,8.008,0.438,79.828,3.283,2.458,299.193,73.839,95257.325,27.324,118.143
福建,厦门市,22.045,42.652,9.877,18.62,0.42,70.648,2.398,4.002,300.217,80.675,99674.825,24.642,118.11
福建,宁德市,27.759,41.798,6.313,9.877,0.539,87.778,4.405,2.205,298.978,75.414,94597.264,26.968,119.474
福建,泉州市,21.58,38.996,7.394,14.296,0.426,74.095,3.249,3.628,299.148,77.868,96001.927,25.201,118.249
福建,漳州市,17.854,29.939,5.641,11.929,0.386,64.724,3.699,3.036,299.966,76.712,97589.751,24.372,117.444
福建,福州市,25.934,46.232,7.412,14.642,0.539,87.063,4.048,3.717,299.791,75.908,96666.846,26.083,119.206
福建,莆田市,25.777,47.908,8.174,15.675,0.485,82.334,3.044,4.557,299.298,81.228,97467.987,25.445,118.864
福建,龙岩市,19.447,30.249,6.187,12.197,0.43,71.789,2.961,3.402,298.975,74.591,94619.671,25.256,116.739
西藏,山南市,15.74,17.617,1.825,1.24,0.173,92.802,1.844,3.044,282.219,76.689,66179.374,28.295,92.274
西藏,拉萨市,13.479,18.283,1.386,1.441,0.166,97.091,3.996,3.951,279.063,48.294,56712.234,30.043,91.093
西藏,日喀则市,16.299,17.699,0.857,0.433,0.138,101.538,6.941,1.146,275.496,37.1,55552.604,29.483,86.493
西藏,昌都市,18.137,18.995,0.969,0.456,0.141,81.121,-0.538,1.616,276.576,74.491,59340.11,30.753,97.044
西藏,林芝市,18.217,19.513,1.771,1.451,0.161,84.907,-0.551,3.044,280.743,91.224,66485.682,29.184,95.25
西藏,玉树藏族自治州,31.412,31.56,0.125,0.227,0.114,97.959,-4.14,-1.713,268.625,64.932,57815.273,34.196,94.317
西藏,那曲市,10.982,11.181,0.293,0.174,0.122,101.164,-0.889,-0.501,273.482,42.38,55695.57,32.709,89.262
西藏,阿里地区,5.93,6.484,0.368,0.341,0.134,110.778,2.216,-1.177,270.515,32.954,55125.762,33.013,82.553
贵州,六盘水市,24.05,43.861,9.135,12.848,0.497,71.374,0.432,-7.23,290.633,78.082,82944.344,26.106,104.896
贵州,安顺市,25.706,39.064,5.354,7.708,0.404,76.894,0.249,-5.7,293.92,73.462,87822.639,25.986,105.978
贵州,毕节市,25.342,42.464,6.449,6.95,0.488,77.186,1.723,-6.647,287.243,92.115,83410.249,27.063,105.211
贵州,贵阳市,34.586,48.153,4.545,15.057,0.529,72.297,2.643,-5.995,290.68,88.531,87971.071,26.845,106.71
贵州,遵义市,42.441,57.445,8.272,13.788,0.509,60.123,3.879,-4.641,291.058,87.943,90118.665,28.167,107.102
贵州,铜仁市,33.962,55.152,14.279,8.386,0.594,53.716,1.688,-2.627,294.982,86.869,92246.645,27.937,108.534
贵州,黔东南苗族侗族自治州,24.274,33.69,10.314,5.385,0.419,69.729,2.816,1.239,296.947,79.441,92099.487,26.495,108.574
贵州,黔南布依族苗族自治州,27.025,35.714,6.898,6.672,0.404,76.148,2.06,-1.29,295.087,77.807,89928.837,26.0,107.265
贵州,黔西南布依族苗族自治州,18.825,31.903,8.436,7.102,0.384,70.867,1.589,-2.995,296.374,63.978,88153.0,25.256,105.467
辽宁,丹东市,49.777,85.271,13.229,12.656,0.68,112.9,0.775,3.473,288.631,74.252,97963.402,40.554,124.376
辽宁,大连市,41.331,62.121,11.199,20.159,0.492,107.289,0.759,4.544,291.542,57.27,100054.167,39.591,122.22
辽宁,抚顺市,49.328,85.279,16.237,17.319,0.844,126.514,1.998,3.274,291.75,65.24,96160.375,41.841,124.65
辽宁,朝阳市,69.749,103.301,19.927,19.36,1.021,145.802,1.708,1.326,295.088,53.374,95504.334,41.545,120.053
辽宁,本溪市,47.619,84.875,14.794,14.757,0.851,122.62,2.045,4.422,290.479,69.489,95580.777,41.232,124.544
辽宁,沈阳市,48.594,90.847,16.646,24.851,0.973,141.77,0.148,3.464,294.721,54.28,100039.626,42.081,123.159
辽宁,盘锦市,38.445,67.663,13.765,18.337,0.848,152.902,1.773,5.988,291.405,68.564,100672.518,41.13,122.01
辽宁,营口市,34.514,59.292,10.103,15.805,0.569,132.721,2.333,6.316,293.162,51.068,98633.514,40.395,122.478
辽宁,葫芦岛市,63.663,98.423,22.527,23.857,1.133,154.956,3.836,4.913,295.057,58.191,98171.865,40.66,120.215
辽宁,辽阳市,39.684,75.838,13.217,20.297,0.952,132.226,1.952,5.667,293.434,56.828,98801.823,41.153,123.261
辽宁,铁岭市,47.598,82.27,12.76,22.714,0.719,130.869,-1.358,1.755,293.544,51.579,98594.977,42.653,124.158
辽宁,锦州市,55.834,88.842,18.502,20.141,1.018,156.423,0.013,4.16,292.664,68.291,99803.999,41.502,121.659
辽宁,阜新市,43.376,73.555,15.11,15.239,0.724,136.28,-2.921,0.977,294.237,54.266,98385.91,42.289,121.968
辽宁,鞍山市,40.632,73.036,11.267,16.359,0.745,132.863,1.24,4.856,291.732,62.151,98909.88,40.731,123.007
重庆,重庆城区,42.869,67.562,12.331,21.921,0.722,47.317,0.651,-3.901,292.862,79.289,94640.135,29.824,107.125
重庆,重庆郊县,42.075,58.168,13.445,8.978,0.62,52.609,-1.914,-4.135,291.969,82.223,90784.551,30.334,108.755
陕西,咸阳市,70.324,160.435,4.134,12.074,0.344,67.042,4.568,-6.275,289.985,49.356,91660.039,34.779,108.367
陕西,商洛市,51.289,78.539,5.781,7.219,0.3,66.32,4.043,-9.187,289.596,61.036,89277.926,33.64,109.889
陕西,安康市,36.29,57.164,5.637,5.042,0.318,53.811,0.751,-6.127,289.058,71.627,89841.385,32.735,108.932
陕西,宝鸡市,52.531,112.902,2.585,7.906,0.223,72.376,0.586,-7.158,285.769,57.895,86725.78,34.386,107.193
陕西,延安市,92.742,129.964,5.718,9.333,0.335,78.211,3.968,-8.915,289.024,38.651,87732.667,36.432,109.316
陕西,榆林市,98.915,128.321,4.957,8.572,0.323,81.702,6.841,-8.003,289.079,33.927,88070.522,38.041,109.581
陕西,汉中市,35.242,62.439,3.894,4.334,0.225,68.899,-0.662,-8.774,288.61,62.197,89059.399,33.088,107.098
陕西,渭南市,72.587,159.58,9.093,17.742,0.472,69.199,4.777,-2.524,293.14,47.445,93732.975,34.919,109.855
陕西,西安市,55.283,141.095,5.206,18.085,0.46,60.286,6.34,-2.219,288.079,64.629,90724.915,34.12,108.77
陕西,铜川市,77.661,137.637,5.467,8.515,0.289,70.626,2.845,-8.439,290.414,41.982,89281.774,35.198,109.058
青海,保亭黎族苗族自治县,8.418,11.886,2.2,6.824,0.32,41.854,0.93,3.322,299.042,87.836,96760.442,18.566,109.618
青海,吐鲁番市,34.725,37.384,1.23,1.467,0.149,84.192,0.957,0.58,289.979,20.012,90763.83,42.386,89.851
青海,果洛藏族自治州,41.175,41.692,0.248,0.389,0.113,98.842,-1.25,-4.234,270.466,59.134,60592.75,34.127,99.404
青海,海东市,32.661,43.798,2.557,3.765,0.218,82.424,-0.375,-0.503,278.778,59.524,73427.322,36.347,102.34
青海,海北藏族自治州,15.817,18.465,0.555,0.727,0.124,108.663,1.58,-2.278,271.618,52.343,65984.817,37.775,100.288
青海,海南藏族自治州,43.741,44.538,0.569,0.843,0.125,95.354,1.995,-2.171,276.185,38.036,67138.403,35.89,100.272
青海,海西蒙古族藏族自治州,35.011,35.276,0.201,0.262,0.115,114.743,0.825,-1.156,273.738,29.696,65161.836,36.677,94.519
青海,西宁市,24.459,39.687,1.935,3.863,0.312,95.86,1.096,-2.39,276.684,47.25,70217.509,36.842,101.423
青海,黄南藏族自治州,36.999,38.584,1.137,1.222,0.133,88.5,1.042,-3.101,275.242,57.676,66447.751,35.022,101.631
香港,香港特别行政区,9.23,13.03,3.115,13.26,0.16,41.92,1.63,5.69,300.725,87.64,100320.17,22.45,114.22
黑龙江,七台河市,13.211,23.419,4.646,10.058,0.327,63.697,-4.459,2.66,286.373,50.973,97909.373,45.87,130.943
黑龙江,伊春市,11.451,14.597,2.849,4.542,0.219,56.63,-4.612,1.046,282.412,82.162,96500.673,47.772,129.184
黑龙江,佳木斯市,13.575,18.096,2.747,5.792,0.247,58.588,-3.202,-1.233,285.536,58.317,99999.39,47.207,132.11
黑龙江,双鸭山市,15.793,19.577,2.494,4.131,0.228,60.666,-2.547,-0.868,285.339,59.019,99585.927,46.722,132.643
黑龙江,哈尔滨市,12.598,17.89,2.666,6.288,0.249,69.749,-1.784,0.653,289.637,46.962,97975.923,45.634,127.964
黑龙江,大兴安岭地区,4.497,4.761,0.457,0.799,0.149,63.822,-3.164,-0.301,283.419,62.731,94926.515,52.286,124.212
黑龙江,大庆市,10.693,16.554,3.005,5.669,0.225,73.431,0.284,-3.129,291.624,40.983,99236.617,46.327,124.687
黑龙江,牡丹江市,14.561,19.838,2.852,4.989,0.225,69.718,-2.219,3.733,286.286,57.311,95061.58,44.592,129.883
黑龙江,绥化市,10.894,14.544,2.419,4.033,0.215,64.721,-1.372,-1.417,288.514,57.491,98508.232,46.89,126.634
黑龙江,鸡西市,15.744,21.782,3.62,5.923,0.249,63.442,-2.472,0.646,285.497,57.828,99255.663,45.626,132.289
黑龙江,鹤岗市,14.159,22.211,3.124,7.072,0.356,54.056,-3.423,-0.409,282.984,77.562,99060.848,47.661,130.778
黑龙江,黑河市,8.949,10.152,1.641,1.828,0.204,59.016,-3.397,-2.609,282.25,85.006,96913.894,49.268,127.004
黑龙江,齐齐哈尔市,7.826,13.073,1.6,3.097,0.182,61.162,-2.003,-4.783,287.995,56.697,98583.781,47.715,124.57
