province,city,PM2.5,PM10,SO2,NO2,CO,O3,U,V,TEMP,RH,PSFC,lat,lon
上海,上海市,29.942,52.146,8.646,28.243,0.483,99.986,-3.69,-2.332,288.003,80.812,102050.242,31.173,121.42
云南,临沧市,23.725,37.001,4.386,5.189,0.358,81.932,5.153,0.257,294.528,59.97,83830.906,23.935,99.686
云南,丽江市,14.563,22.438,3.913,3.516,0.457,80.767,4.966,1.467,287.367,61.538,74572.151,26.96,100.515
云南,保山市,23.77,39.929,4.747,6.702,0.431,71.783,5.443,0.781,291.891,68.492,81825.213,24.953,98.962
云南,大理白族自治州,17.319,27.611,3.987,3.614,0.358,81.02,6.357,1.29,289.696,65.358,78057.909,25.726,100.053
云南,德宏傣族景颇族自治州,31.42,45.787,5.467,10.254,0.442,64.464,2.971,0.289,294.476,68.213,85968.156,24.535,98.052
云南,怒江傈僳族自治州,16.816,23.168,2.847,0.924,0.3,74.089,4.491,1.748,283.455,89.22,72810.072,26.916,98.885
云南,文山壮族苗族自治州,34.482,51.768,9.525,4.642,0.537,83.061,0.171,2.842,293.872,77.212,86390.16,23.696,104.735
云南,昆明市,23.623,39.589,7.953,13.925,0.475,81.041,5.274,1.975,291.447,58.644,79140.868,25.384,102.863
云南,昭通市,23.545,40.562,14.384,9.745,0.617,76.057,-1.556,-1.828,287.044,90.937,84057.845,27.667,103.985
云南,普洱市,24.47,44.104,3.914,7.193,0.286,77.672,3.91,0.285,296.2,56.817,85851.039,23.159,100.718
云南,曲靖市,22.804,35.869,10.433,11.21,0.523,73.438,-0.101,1.871,289.674,77.011,79944.46,25.737,103.929
云南,楚雄彝族自治州,20.208,28.765,4.245,4.845,0.379,85.185,6.116,1.664,293.054,53.791,80847.744,25.328,101.567
云南,玉溪市,22.667,33.663,4.629,6.084,0.337,83.188,5.233,1.603,294.59,55.771,83357.526,24.136,102.217
云南,红河哈尼族彝族自治州,22.858,35.047,5.035,4.688,0.31,85.203,3.155,1.914,295.033,61.285,85032.577,23.451,103.034
云南,西双版纳傣族自治州,30.387,60.515,3.964,9.903,0.341,69.665,2.227,0.576,298.365,54.607,88791.978,21.939,100.912
云南,迪庆藏族自治州,15.457,20.582,3.183,1.13,0.243,82.858,5.855,2.504,279.932,83.651,67288.048,27.957,99.459
内蒙古,乌兰察布市,44.708,79.584,17.121,12.433,0.468,109.109,4.679,6.011,288.834,37.02,86234.512,41.691,112.44
内蒙古,乌海市,52.834,168.11,16.434,16.33,0.506,101.999,1.241,3.116,290.269,35.536,87781.986,39.396,106.856
内蒙古,兴安盟,15.711,22.436,3.607,4.709,0.211,77.496,-2.017,6.564,287.679,31.585,95167.074,46.244,121.341
内蒙古,包头市,41.942,71.505,13.549,10.608,0.426,99.974,3.361,5.839,288.421,42.878,86136.539,41.549,110.276
内蒙古,呼伦贝尔市,19.988,25.576,2.835,2.309,0.193,76.7,0.786,6.772,287.078,36.379,93590.518,49.636,121.171
内蒙古,呼和浩特市,44.015,115.425,16.523,19.432,0.671,128.114,3.692,7.506,289.175,36.795,86635.947,40.578,111.513
内蒙古,巴彦淖尔市,47.783,74.318,5.814,2.504,0.204,79.405,2.228,1.954,288.639,39.765,87431.752,41.446,107.582
内蒙古,赤峰市,33.341,54.513,13.973,11.91,0.405,89.703,-1.224,4.658,289.09,32.774,92255.608,43.226,118.892
内蒙古,通辽市,18.881,27.158,5.261,7.315,0.225,83.987,-2.993,2.463,289.751,28.342,98287.425,43.814,121.591
内蒙古,鄂尔多斯市,38.318,84.527,12.408,6.646,0.421,109.374,1.928,7.545,289.297,43.729,87232.56,39.407,108.63
内蒙古,锡林郭勒盟,45.06,56.459,11.567,4.413,0.3,84.871,2.147,6.08,289.883,36.032,89143.282,44.179,115.482
内蒙古,阿拉善盟,32.864,38.92,1.282,0.991,0.137,81.504,2.13,-1.05,286.244,32.002,87705.101,40.473,102.467
北京,北京市,40.664,82.178,10.006,34.371,0.58,112.097,0.038,4.536,291.863,28.573,98207.737,40.158,116.395
台湾,台湾省,23.801,28.836,6.417,14.512,0.208,79.725,-1.673,-2.784,293.222,83.617,93067.26,23.757,120.975
吉林,吉林市,15.64,19.607,2.609,6.584,0.262,72.659,-2.163,-0.527,284.958,47.825,97706.809,43.573,126.859
吉林,四平市,21.78,38.12,3.267,16.601,0.322,77.755,-2.994,-0.324,288.37,35.833,99904.621,43.472,124.386
吉林,延边朝鲜族自治州,15.381,19.339,2.899,3.039,0.233,73.091,-0.775,-0.458,280.744,65.032,94787.805,43.141,129.147
吉林,松原市,15.849,23.896,2.516,10.134,0.257,71.449,-3.493,0.886,288.73,34.409,100305.631,44.785,124.496
吉林,白城市,15.79,24.329,3.801,8.891,0.233,75.765,-3.204,3.48,290.001,29.862,100342.514,45.35,123.031
吉林,白山市,17.622,22.721,3.707,7.119,0.303,70.245,-1.251,-1.182,281.888,54.334,92807.376,42.063,127.256
吉林,辽源市,22.25,33.487,3.729,14.679,0.35,70.727,-1.575,-0.625,286.239,42.957,98046.125,42.836,125.32
吉林,通化市,21.089,29.295,5.111,11.726,0.342,68.606,-0.479,-1.238,285.024,44.082,96244.02,41.939,125.927
吉林,长春市,18.279,29.672,2.867,15.768,0.328,73.208,-2.726,-0.233,287.098,42.311,99873.597,44.268,125.611
四川,乐山市,30.339,39.785,9.969,13.482,0.523,64.904,0.442,-3.814,287.22,93.743,89543.073,29.218,103.569
四川,内江市,21.27,30.456,6.72,15.5,0.527,59.086,-3.633,-0.57,290.72,93.79,96549.578,29.62,104.95
四川,凉山彝族自治州,22.284,33.493,10.6,5.372,0.454,82.428,-0.452,1.567,284.441,78.938,74142.166,27.883,102.065
四川,南充市,24.276,36.484,10.507,13.653,0.496,70.149,-2.842,0.177,292.351,67.786,96680.389,31.19,106.199
四川,宜宾市,26.498,38.003,10.919,16.212,0.65,62.103,0.814,-2.602,290.918,90.041,94884.166,28.573,104.621
四川,巴中市,26.843,36.971,8.611,9.683,0.385,73.196,-4.232,1.34,290.882,60.547,92505.935,32.033,107.031
四川,广元市,19.47,29.924,9.974,9.838,0.393,66.399,-3.918,-0.911,287.172,85.019,91640.052,32.261,105.788
四川,广安市,28.596,40.587,8.835,11.689,0.49,73.942,-2.562,1.313,292.952,66.993,96676.051,30.43,106.628
四川,德阳市,12.323,22.13,6.764,10.166,0.447,63.825,-3.095,-3.514,287.779,94.047,93125.326,31.13,104.436
四川,成都市,13.341,22.854,8.723,15.043,0.49,62.399,-2.128,-2.925,288.111,93.206,93248.804,30.64,103.929
四川,攀枝花市,21.118,36.928,14.362,17.67,0.948,74.795,1.257,2.085,293.14,49.946,81277.25,26.791,101.734
四川,泸州市,27.044,37.537,10.233,10.855,0.432,69.066,-4.629,3.015,290.545,82.906,93296.77,28.424,105.675
四川,甘孜藏族自治州,12.936,15.037,2.141,0.792,0.176,90.622,3.798,4.105,276.949,66.344,61159.21,30.936,100.009
四川,眉山市,20.522,28.708,8.525,16.427,0.531,56.819,0.214,-3.209,288.453,95.018,93683.856,29.912,103.766
四川,绵阳市,20.613,29.05,9.162,6.821,0.371,68.676,-2.882,-1.46,285.135,93.799,88001.076,31.86,104.704
四川,自贡市,22.905,30.319,7.968,17.609,0.605,55.396,-2.187,-2.264,290.89,92.477,96505.235,29.307,104.659
四川,资阳市,19.571,29.916,6.165,11.509,0.487,62.795,-3.172,-0.696,290.561,94.034,96829.461,30.102,105.149
四川,达州市,31.337,42.673,10.523,12.92,0.383,81.346,-4.501,2.54,292.624,57.08,94063.428,31.335,107.636
四川,遂宁市,18.326,29.571,7.905,12.388,0.516,65.79,-2.802,-0.745,290.911,87.608,97102.115,30.642,105.457
四川,阿坝藏族羌族自治州,22.773,28.767,7.842,1.823,0.254,83.433,-1.358,6.241,277.243,82.758,65470.956,32.406,102.61
四川,雅安市,30.849,43.794,13.882,7.612,0.405,82.568,-1.234,-0.408,282.26,96.79,80092.863,29.932,102.689
天津,天津市,38.868,82.773,12.758,56.412,0.737,97.306,-1.44,3.869,292.213,28.038,101931.731,39.315,117.308
宁夏,中卫市,45.79,90.58,9.418,4.898,0.291,84.369,-1.214,3.816,285.265,64.705,83772.642,37.018,105.509
宁夏,吴忠市,39.126,88.758,10.884,5.099,0.306,86.532,-0.158,6.385,286.383,63.596,85357.334,37.454,106.577
宁夏,固原市,28.28,40.266,9.068,10.381,0.363,81.259,-3.29,5.099,281.214,91.366,81256.842,35.905,106.183
宁夏,石嘴山市,59.126,201.774,16.831,14.449,0.563,99.444,0.582,3.278,289.906,37.0,86878.188,39.013,106.499
宁夏,银川市,57.21,180.8,13.7,10.949,0.453,87.989,0.542,5.105,289.588,42.668,87214.048,38.287,106.342
安徽,亳州市,41.043,73.87,9.467,20.82,0.588,131.517,-5.47,0.558,292.477,39.016,101784.585,33.44,116.162
安徽,六安市,34.008,60.316,9.177,23.068,0.544,124.384,-4.787,-1.102,291.348,47.244,99238.964,31.617,116.209
安徽,合肥市,30.736,61.111,8.253,27.364,0.557,118.532,-4.813,-2.045,291.766,45.363,101617.127,31.766,117.359
安徽,安庆市,32.764,59.896,11.16,20.945,0.622,119.522,-4.83,-4.232,291.841,49.277,99599.21,30.557,116.473
安徽,宣城市,32.675,57.801,8.791,20.1,0.645,102.937,-4.387,-1.68,289.823,49.282,99578.338,30.676,118.846
安徽,宿州市,43.316,77.143,10.162,29.946,0.613,121.72,-4.921,-0.597,291.313,46.424,101779.998,33.844,117.23
安徽,池州市,28.581,49.714,9.393,14.774,0.55,105.466,-4.882,-2.741,291.711,47.301,99744.202,30.296,117.379
安徽,淮北市,44.49,80.996,11.633,28.776,0.64,131.222,-5.266,-0.016,291.872,42.195,101812.169,33.722,116.747
安徽,淮南市,37.497,65.514,10.85,24.804,0.554,128.414,-5.397,-1.698,291.944,42.511,101809.558,32.463,116.746
安徽,滁州市,30.778,54.192,7.018,24.232,0.425,107.463,-4.567,-2.851,290.419,52.651,101558.48,32.55,118.076
安徽,芜湖市,35.178,67.049,10.842,27.56,0.707,112.833,-4.719,-2.183,290.97,49.472,101770.937,31.167,118.162
安徽,蚌埠市,40.002,63.62,8.576,25.75,0.527,118.635,-5.388,-1.522,291.292,46.272,101831.903,33.121,117.263
安徽,铜陵市,35.755,66.678,12.099,27.369,0.734,112.419,-4.661,-2.93,291.588,48.858,101594.566,30.883,117.531
安徽,阜阳市,40.644,79.282,11.331,21.326,0.652,134.945,-5.698,0.558,292.68,40.536,101734.816,32.937,115.723
安徽,马鞍山市,31.805,67.269,9.939,31.456,0.623,119.709,-4.417,-2.142,290.565,50.905,101799.405,31.622,118.386
安徽,黄山市,24.655,46.545,9.011,12.486,0.549,89.17,-5.062,-2.059,290.716,45.722,97526.152,29.869,118.09
山东,东营市,37.142,76.121,17.36,30.876,0.626,106.9,-2.937,2.102,290.98,39.874,102120.813,37.57,118.572
山东,临沂市,33.281,75.162,12.03,33.627,0.556,101.087,-3.885,-0.396,289.855,49.083,100379.944,35.289,118.27
山东,威海市,23.75,47.458,8.74,19.83,0.44,91.308,-0.132,-1.602,288.015,59.289,101533.062,37.148,122.028
山东,德州市,41.752,96.594,19.293,44.21,0.813,116.195,-1.885,3.041,293.713,30.121,101911.543,37.233,116.679
山东,日照市,32.19,69.66,9.64,40.105,0.47,86.931,-2.974,-0.41,288.907,55.665,100509.364,35.566,119.108
山东,枣庄市,41.632,95.925,18.024,34.543,0.642,122.071,-4.467,0.628,291.468,42.848,101070.922,34.925,117.383
山东,泰安市,39.725,86.866,18.099,40.065,0.763,115.964,-3.032,1.322,292.299,34.228,100214.924,35.993,117.04
山东,济南市,38.215,92.009,17.284,48.51,0.8,104.837,-2.238,1.909,292.991,30.041,100170.763,36.639,117.254
山东,济宁市,44.766,96.304,20.827,35.565,0.753,130.704,-3.454,1.618,292.772,36.612,101479.265,35.375,116.697
山东,淄博市,37.148,83.594,17.081,43.712,0.858,101.195,-3.293,1.807,291.371,35.882,99591.241,36.623,118.062
山东,滨州市,41.144,89.375,20.87,44.992,0.896,108.979,-2.698,2.702,292.527,34.789,102022.605,37.516,117.852
山东,潍坊市,38.366,80.085,12.505,42.252,0.628,94.663,-2.009,1.385,290.073,45.552,101064.036,36.53,119.092
山东,烟台市,28.548,66.0,8.377,30.285,0.486,80.59,-1.399,-1.363,289.215,47.748,101039.182,37.25,120.789
山东,聊城市,46.807,98.153,21.532,42.729,0.916,127.859,-2.213,2.939,293.866,30.281,101696.014,36.458,115.863
山东,菏泽市,50.345,108.064,19.541,34.558,0.899,143.804,-3.34,2.185,293.364,33.427,101603.369,35.134,115.69
山东,青岛市,29.494,66.708,8.125,34.838,0.451,88.119,-1.625,0.251,289.427,52.006,101623.786,36.46,120.172
山西,临汾市,58.738,107.522,18.198,32.125,1.174,122.624,-1.839,3.915,289.013,40.663,90549.509,36.227,111.398
山西,吕梁市,53.147,86.515,19.24,32.996,1.042,107.619,1.051,5.961,288.187,42.798,88160.622,37.663,111.27
山西,大同市,45.7,99.2,18.095,21.717,0.712,138.648,2.496,5.626,288.914,36.277,87678.789,39.911,113.713
山西,太原市,51.101,109.525,20.928,39.17,0.856,117.359,1.858,5.025,288.52,37.326,88074.634,37.967,112.321
山西,忻州市,45.722,86.154,16.637,19.317,0.589,137.717,1.532,5.404,287.966,37.936,86575.811,38.877,112.391
山西,晋中市,47.134,97.118,17.656,37.295,0.796,116.922,0.995,4.201,288.885,34.412,89015.462,37.328,112.997
山西,晋城市,52.392,109.892,19.224,35.338,1.068,134.576,-3.095,3.349,289.434,29.692,90981.184,35.625,112.752
山西,朔州市,44.103,98.286,16.314,17.976,0.651,143.161,2.748,6.025,288.861,35.295,86999.86,39.619,112.655
山西,运城市,61.496,115.738,18.306,28.608,1.038,140.542,-4.383,2.532,292.331,34.111,94619.806,35.205,111.071
山西,长治市,47.948,103.624,17.597,34.88,0.966,126.773,-0.353,3.607,288.532,32.544,89332.006,36.48,112.915
山西,阳泉市,46.718,100.006,21.069,37.313,0.745,125.782,1.303,2.906,290.648,32.15,90831.192,38.031,113.512
广东,东莞市,24.601,37.043,8.328,28.211,0.787,49.324,-5.907,-0.721,299.013,75.396,100951.379,22.931,113.81
广东,中山市,24.564,40.633,9.322,34.763,0.749,52.152,-6.239,-0.491,298.79,83.267,100930.2,22.5,113.383
广东,云浮市,29.069,42.301,11.071,24.608,0.815,36.418,-5.759,-0.588,297.854,79.377,98914.741,22.776,111.818
广东,佛山市,29.066,45.994,10.959,46.287,0.971,25.972,-4.906,-1.267,299.072,73.149,100979.585,23.035,112.979
广东,广州市,25.893,38.387,9.299,25.922,0.79,44.879,-4.784,-1.37,298.454,72.72,100118.934,23.339,113.525
广东,惠州市,21.53,33.31,8.162,10.937,0.655,64.492,-5.507,-1.75,297.711,77.327,99188.141,23.244,114.485
广东,揭阳市,21.814,40.446,10.108,17.105,0.809,90.496,-7.549,-2.498,297.268,79.841,99875.141,23.323,116.123
广东,梅州市,22.103,37.167,9.506,15.722,0.845,66.733,-5.706,-0.624,296.245,76.413,97885.048,24.169,116.07
广东,汕头市,18.832,36.138,8.437,12.654,0.608,105.436,-9.267,-4.757,297.595,78.805,101000.112,23.339,116.614
广东,汕尾市,21.324,37.894,8.152,11.061,0.658,82.604,-7.118,-2.43,297.572,82.971,99553.702,23.024,115.527
广东,江门市,26.164,41.644,10.523,33.015,0.734,41.478,-5.434,-0.97,298.697,84.761,100343.275,22.289,112.676
广东,河源市,25.208,37.875,10.134,11.053,0.73,64.029,-4.195,-2.57,296.308,76.552,98035.626,24.021,114.969
广东,深圳市,20.782,34.508,7.034,24.928,0.647,63.248,-7.329,-0.937,298.537,82.706,100475.331,22.667,114.143
广东,清远市,28.253,40.704,10.187,9.605,0.62,70.739,-3.941,-3.229,295.894,72.582,97524.382,24.295,112.871
广东,湛江市,11.759,17.806,4.541,9.804,0.466,57.455,-4.83,2.027,300.411,87.851,100594.261,21.091,110.163
广东,潮州市,19.481,35.841,8.702,12.416,0.699,94.536,-8.279,-3.394,296.582,74.179,99358.608,23.755,116.754
广东,珠海市,19.107,31.287,7.477,20.823,0.458,62.91,-5.885,-0.862,298.787,89.707,100987.53,22.095,113.317
广东,肇庆市,29.229,40.173,9.818,15.575,0.712,51.784,-5.976,-2.154,297.481,72.009,99068.327,23.505,112.199
广东,茂名市,24.807,36.726,11.385,14.598,0.649,52.969,-5.995,0.906,298.709,85.366,98906.922,22.013,110.952
广东,阳江市,28.331,41.854,11.282,22.483,0.675,45.03,-4.825,-0.78,298.361,87.732,99474.863,22.042,111.786
广东,韶关市,29.523,42.595,10.928,9.235,0.854,77.344,-4.402,-3.244,294.701,76.014,96815.079,24.785,113.819
广西,北海市,18.545,27.304,6.129,11.076,0.716,56.316,-5.409,1.41,300.159,85.564,100611.631,21.674,109.37
广西,南宁市,25.561,34.905,10.46,10.339,0.781,63.406,-5.397,-2.117,298.293,77.708,98873.614,23.051,108.469
广西,崇左市,26.138,38.631,11.766,8.543,0.765,71.802,-3.907,-2.61,297.566,86.044,97573.345,22.483,107.291
广西,来宾市,31.184,39.093,9.336,6.694,0.58,75.312,-6.045,-2.12,297.135,71.795,97801.559,23.859,109.417
广西,柳州市,31.212,42.053,9.964,5.988,0.562,83.251,-4.686,-3.24,294.952,72.611,97309.461,24.956,109.372
广西,桂林市,36.761,46.84,11.699,6.64,0.57,94.286,-5.651,-3.694,293.4,75.301,95781.833,25.353,110.513
广西,梧州市,31.953,41.897,11.814,10.594,0.795,55.623,-6.103,-1.733,297.565,72.918,98654.167,23.484,110.996
广西,河池市,27.23,41.643,12.219,4.451,0.69,64.609,-5.528,-2.254,293.136,82.319,94964.709,24.628,107.843
广西,玉林市,21.452,34.219,13.065,14.614,0.854,47.569,-5.531,0.339,298.752,82.992,98949.576,22.452,110.164
广西,百色市,30.43,47.747,14.749,5.016,0.86,66.583,-4.591,0.889,293.982,87.973,92819.67,23.981,106.292
广西,贵港市,28.172,36.106,11.711,8.964,0.728,62.647,-6.826,-2.524,298.42,71.858,99424.42,23.322,110.021
广西,贺州市,36.801,46.899,11.116,6.955,0.606,74.969,-4.781,-2.932,295.571,72.543,96938.742,24.364,111.394
广西,钦州市,21.677,32.224,9.206,11.459,0.977,50.533,-4.96,0.59,299.401,84.455,99922.139,22.173,109.01
广西,防城港市,28.188,36.352,9.312,10.856,0.954,58.606,-3.22,-0.718,298.196,90.795,98346.865,21.88,108.002
新疆,乌鲁木齐市,20.551,30.44,2.276,9.7,0.286,95.184,-1.723,3.678,283.536,21.583,84206.146,43.746,87.818
新疆,五家渠市,18.03,30.06,3.343,9.19,0.337,83.35,-4.973,0.743,290.597,20.153,96239.18,44.363,87.517
新疆,伊犁哈萨克自治州,8.724,10.406,1.393,4.155,0.19,99.464,1.336,1.779,281.186,32.799,80358.95,43.438,82.146
新疆,克孜勒苏柯尔克孜自治州,57.266,87.872,0.394,2.001,0.166,100.15,2.601,0.264,275.169,41.523,70651.122,39.661,75.949
新疆,克拉玛依市,9.506,15.137,3.341,5.203,0.27,88.001,-2.064,-1.819,288.675,22.646,97138.599,45.457,85.207
新疆,北屯市,4.894,5.968,1.15,1.77,0.486,91.46,-3.686,2.462,286.218,25.238,95326.222,47.27,87.868
新疆,博尔塔拉蒙古自治州,9.598,13.976,3.726,3.903,0.211,92.255,1.84,1.957,282.762,33.307,86071.682,44.714,82.114
新疆,双河市,13.048,22.268,6.338,6.074,0.272,92.556,-1.11,-0.518,289.064,26.986,97583.728,44.87,82.474
新疆,可克达拉市,14.346,23.818,3.618,15.992,0.482,77.474,-3.148,-0.538,291.056,21.412,94450.246,43.918,80.786
新疆,和田地区,141.192,142.256,0.319,0.913,0.134,77.707,-1.265,-1.018,279.39,35.474,74026.511,37.059,80.934
新疆,哈密市,13.989,17.672,0.873,1.525,0.132,100.584,-0.034,1.331,285.861,14.382,88326.275,43.042,93.517
新疆,喀什地区,140.867,171.816,0.608,2.629,0.175,79.818,0.653,0.442,280.439,31.9,76198.446,38.125,77.178
新疆,图木舒克市,225.255,208.622,0.892,1.147,0.14,55.642,-1.617,0.392,290.042,21.007,89267.44,39.892,79.182
新疆,塔城地区,8.653,11.203,2.81,3.12,0.191,90.579,0.727,1.267,284.406,29.373,89394.469,45.642,84.789
新疆,巴音郭楞蒙古自治州,53.73,66.325,0.608,0.592,0.133,85.761,-1.047,-0.857,281.477,32.212,79213.809,39.463,87.481
新疆,新星市,21.335,46.89,2.94,12.095,0.205,88.07,-0.5,0.27,289.55,11.775,92725.2,42.75,93.68
新疆,昆玉市,287.86,304.113,1.253,5.04,0.167,59.173,-1.827,-0.677,291.35,18.573,86932.217,37.457,79.093
新疆,昌吉回族自治州,14.491,18.155,1.592,4.283,0.194,94.764,-1.866,1.122,286.435,21.26,89738.412,44.342,88.608
新疆,石河子市,20.43,35.19,11.01,25.07,0.49,75.915,-1.605,-0.185,289.055,23.13,94386.85,44.245,86.035
新疆,胡杨河市,11.758,16.924,4.048,6.204,0.256,86.574,-3.86,-1.444,289.126,24.978,97572.698,44.852,84.772
新疆,铁门关市,97.027,191.09,1.34,3.177,0.187,79.57,2.917,-2.697,291.157,14.677,91635.223,41.773,85.66
新疆,阿克苏地区,150.731,117.38,0.887,1.778,0.146,79.149,0.526,-0.638,286.114,24.582,85351.994,40.965,81.578
新疆,阿勒泰地区,5.204,5.708,0.923,1.016,0.211,92.067,-1.992,2.951,282.388,29.449,88383.367,46.902,88.421
新疆,阿拉尔市,204.443,122.999,1.122,3.639,0.171,69.474,-0.321,-1.317,289.757,20.659,90124.129,40.629,80.998
江苏,南京市,31.828,64.294,9.833,33.073,0.587,108.526,-4.106,-2.443,289.924,55.974,101868.334,31.899,118.876
江苏,南通市,28.011,40.112,5.421,10.303,0.34,106.021,-3.593,-2.41,287.769,80.209,102077.422,32.201,120.979
江苏,宿迁市,32.118,55.468,7.146,26.144,0.472,102.719,-4.582,-2.546,289.745,60.964,102054.249,33.765,118.495
江苏,常州市,39.532,73.068,12.981,35.147,0.817,110.243,-3.718,-2.294,289.051,64.379,101930.402,31.613,119.666
江苏,徐州市,42.638,83.755,12.781,33.868,0.629,117.878,-4.772,-0.56,291.074,48.533,101798.392,34.363,117.513
江苏,扬州市,30.668,55.015,7.049,22.31,0.441,97.286,-3.903,-2.87,288.614,67.623,102067.481,32.709,119.486
江苏,无锡市,39.984,76.756,15.117,39.113,0.879,109.312,-3.489,-1.951,288.664,68.437,101843.29,31.546,120.066
江苏,泰州市,31.771,51.753,6.887,18.41,0.45,98.548,-3.742,-2.738,287.98,73.668,102038.691,32.605,120.048
江苏,淮安市,29.771,51.83,6.158,22.958,0.428,95.449,-4.217,-2.79,289.032,66.028,102037.373,33.362,118.985
江苏,盐城市,28.336,40.715,3.862,8.674,0.312,97.618,-3.699,-2.741,286.941,82.409,102136.632,33.529,120.156
江苏,苏州市,35.088,66.876,11.817,35.437,0.644,106.946,-3.404,-2.058,288.346,74.332,102007.172,31.374,120.661
江苏,连云港市,29.345,49.286,5.655,16.998,0.373,98.047,-4.411,-2.764,288.44,70.074,101988.352,34.519,119.133
江苏,镇江市,35.378,66.729,10.818,34.229,0.63,103.372,-3.813,-2.432,289.038,62.906,101918.231,32.016,119.49
江西,上饶市,26.564,50.563,13.176,13.83,0.648,104.241,-5.473,-2.902,293.115,49.099,99474.181,28.778,117.47
江西,九江市,30.714,57.608,10.455,14.377,0.569,115.902,-5.051,-2.949,292.671,54.719,99460.497,29.313,115.444
江西,南昌市,23.038,51.971,11.475,15.938,0.68,112.093,-4.615,-3.761,294.626,54.035,101274.972,28.671,116.016
江西,吉安市,36.42,51.468,13.336,8.991,0.706,97.967,-3.121,-3.589,293.769,75.193,98906.92,26.954,114.831
江西,宜春市,28.514,50.131,12.522,13.432,0.613,103.902,-5.213,-3.417,293.302,61.847,99343.895,28.29,114.974
江西,抚州市,31.607,46.654,11.183,8.334,0.575,105.995,-3.584,-3.098,293.854,68.52,98940.097,27.514,116.42
江西,新余市,32.891,55.662,18.529,17.757,0.701,100.725,-4.181,-3.991,293.703,67.331,100232.955,27.847,114.836
江西,景德镇市,24.406,47.451,10.814,12.492,0.58,92.033,-5.158,-2.798,293.463,45.116,100328.858,29.287,117.24
江西,萍乡市,33.948,50.491,15.659,12.067,0.654,97.895,-6.258,-2.454,293.199,69.747,97943.407,27.505,113.908
江西,赣州市,37.098,48.992,11.505,8.471,1.026,79.708,-2.399,-3.38,293.657,81.099,97207.27,25.692,115.279
江西,鹰潭市,28.893,50.335,15.129,13.687,0.653,111.927,-5.811,-2.829,293.955,54.075,99934.168,28.222,117.094
河北,保定市,42.352,85.807,16.575,31.508,0.551,134.182,0.625,3.746,292.798,30.153,98183.169,39.018,115.159
河北,唐山市,40.331,80.623,18.831,52.398,0.902,90.194,0.394,2.778,291.073,29.022,101473.239,39.731,118.354
河北,廊坊市,38.473,80.113,12.497,44.966,0.645,105.44,-0.36,4.353,294.03,23.426,101926.085,39.267,116.632
河北,张家口市,41.592,89.665,14.15,15.218,0.629,144.801,1.698,5.442,288.924,35.373,88109.165,40.877,115.042
河北,承德市,39.14,72.581,12.868,21.105,0.576,116.946,2.626,4.975,287.997,35.575,91478.781,41.339,117.578
河北,沧州市,39.035,80.201,17.32,37.448,0.679,119.32,-1.357,4.354,293.85,26.756,101990.141,38.258,116.744
河北,石家庄市,45.528,107.272,24.059,37.532,0.728,128.624,-1.146,3.575,293.636,29.932,98692.752,38.135,114.407
河北,秦皇岛市,35.554,73.357,17.936,47.454,0.915,90.16,2.982,2.106,291.084,26.163,99205.391,40.12,119.193
河北,衡水市,39.92,83.208,19.064,30.962,0.709,129.323,-1.32,4.373,294.634,25.752,101833.193,37.755,115.813
河北,邢台市,41.572,98.688,22.532,38.943,0.821,124.975,-0.719,4.146,294.461,26.436,100348.081,37.195,114.815
河北,邯郸市,44.646,108.115,23.795,43.33,1.046,131.019,-0.885,3.154,293.931,27.237,99904.048,36.538,114.596
河南,三门峡市,55.736,97.013,13.92,19.089,0.756,123.644,-4.072,3.189,290.693,40.279,92242.447,34.362,111.101
河南,信阳市,37.791,67.007,9.919,19.745,0.537,117.457,-5.412,-0.474,292.9,46.059,100705.819,32.091,114.907
河南,南阳市,38.633,73.561,9.311,23.077,0.614,115.092,-3.664,0.653,293.946,39.814,98610.187,33.034,112.323
河南,周口市,48.451,102.508,12.487,29.796,0.781,128.439,-4.704,1.983,293.583,36.492,101512.394,33.738,114.884
河南,商丘市,49.87,103.657,15.348,31.356,0.78,138.275,-4.406,1.82,292.992,35.781,101630.314,34.277,115.718
河南,安阳市,47.272,107.633,21.983,40.799,1.053,141.745,-0.998,2.56,293.792,27.076,99524.825,35.888,114.318
河南,平顶山市,56.111,111.737,16.61,38.036,0.858,122.375,-3.458,1.267,293.951,34.935,99292.643,33.8,113.025
河南,开封市,53.525,108.634,17.703,32.901,0.839,138.068,-3.891,2.162,294.113,30.247,101252.878,34.594,114.514
河南,新乡市,49.594,107.705,21.117,38.251,0.999,142.793,-2.505,1.054,294.216,27.295,100337.767,35.256,114.111
河南,洛阳市,57.589,107.858,17.284,25.917,0.904,132.219,-3.437,1.696,291.77,35.683,94656.535,34.274,112.019
河南,济源市,59.888,131.547,23.746,38.34,1.32,142.392,-4.925,0.104,292.904,27.047,96532.655,35.105,112.445
河南,漯河市,53.506,114.629,15.001,41.227,0.877,119.003,-4.468,2.378,294.318,36.176,101320.932,33.652,113.945
河南,濮阳市,50.752,107.812,21.929,37.372,1.022,146.133,-2.597,2.663,293.739,30.907,101565.802,35.809,115.283
河南,焦作市,55.666,126.812,22.487,42.814,1.236,138.449,-3.926,-0.643,294.731,25.483,100119.811,35.121,113.163
河南,许昌市,60.858,122.557,18.453,41.958,0.944,120.803,-4.065,1.995,294.225,31.848,100652.288,34.075,113.707
河南,郑州市,62.48,127.493,21.006,41.214,1.043,130.463,-3.643,1.935,293.906,28.302,99357.343,34.634,113.438
河南,驻马店市,43.042,91.701,10.993,30.072,0.672,118.188,-4.802,1.209,293.679,41.458,101008.931,32.925,114.174
河南,鹤壁市,45.852,102.671,21.519,40.973,1.063,143.583,-0.973,1.658,294.293,26.854,100689.933,35.716,114.319
浙江,丽水市,23.186,41.714,8.46,11.921,0.472,100.565,-3.302,-2.08,289.278,64.358,94810.077,28.194,119.51
浙江,台州市,22.32,36.889,5.847,11.975,0.395,89.236,-2.55,-4.542,288.886,73.437,99148.611,28.742,121.109
浙江,嘉兴市,30.399,57.627,9.085,32.093,0.585,99.094,-3.551,-2.028,288.155,73.712,101993.776,30.635,120.754
浙江,宁波市,24.062,39.101,5.432,14.698,0.414,95.275,-2.46,-3.807,288.131,83.727,100721.359,29.706,121.49
浙江,杭州市,30.266,61.853,10.701,26.127,0.647,102.162,-3.754,-3.025,289.024,55.623,99007.911,29.891,119.464
浙江,温州市,21.643,38.043,8.437,15.878,0.438,91.471,-2.668,-3.647,289.862,68.613,97913.128,27.897,120.411
浙江,湖州市,34.757,67.041,10.279,30.916,0.702,108.758,-3.117,-1.842,288.721,62.705,100697.037,30.757,119.871
浙江,绍兴市,29.412,51.024,8.408,25.382,0.583,97.049,-2.984,-3.157,288.651,71.459,99848.452,29.709,120.64
浙江,舟山市,19.475,28.82,1.79,2.152,0.195,93.352,-3.25,-5.075,287.892,90.48,101752.308,30.038,122.23
浙江,衢州市,25.762,52.626,12.355,19.794,0.643,104.389,-5.436,-3.168,291.073,50.609,98142.281,28.912,118.675
浙江,金华市,27.182,50.638,8.961,23.334,0.556,99.585,-3.258,-3.307,289.702,61.615,98448.215,29.109,119.967
海南,万宁市,5.954,8.911,1.001,3.173,0.209,55.079,0.42,4.443,300.393,89.428,99617.888,18.842,110.294
海南,三亚市,10.223,15.396,2.014,3.964,0.467,63.231,-1.517,2.376,300.383,83.556,98421.496,18.413,109.407
海南,东方市,8.137,10.472,1.359,2.737,0.236,67.809,-0.425,4.743,302.521,65.143,98965.336,18.971,108.838
海南,临高县,17.429,24.48,3.117,12.201,0.484,68.28,-1.121,1.249,301.924,74.461,100115.027,19.821,109.733
海南,乐东黎族自治县,9.736,12.563,1.31,3.083,0.304,65.577,-1.156,2.918,300.396,78.265,97532.517,18.659,109.072
海南,五指山市,12.256,14.91,1.926,5.178,0.292,63.398,-0.396,3.398,298.53,81.632,94404.786,18.81,109.518
海南,儋州市,15.249,19.571,2.519,6.832,0.341,74.403,0.573,0.561,302.43,68.058,99772.72,19.568,109.399
海南,定安县,9.887,15.395,1.857,10.45,0.413,52.295,-1.478,4.133,301.092,84.035,99858.47,19.47,110.28
海南,屯昌县,10.092,13.988,1.434,7.646,0.354,56.896,-1.142,3.836,301.08,79.68,99079.632,19.342,110.076
海南,文昌市,3.799,8.127,0.909,4.683,0.232,48.026,-1.793,4.722,300.988,88.363,100643.07,19.707,110.773
海南,昌江黎族自治县,10.702,13.097,2.044,4.181,0.253,68.49,0.898,3.547,301.966,65.36,97971.281,19.233,109.016
海南,海口市,10.562,17.959,2.519,14.571,0.464,49.316,-1.97,3.565,301.392,83.992,100419.762,19.842,110.393
海南,澄迈县,14.033,20.801,2.861,13.98,0.49,57.681,-1.427,2.81,301.737,77.519,99955.766,19.676,109.989
海南,琼中黎族苗族自治县,11.231,14.106,1.465,5.857,0.288,61.155,0.841,3.937,300.381,75.938,96948.858,19.087,109.847
海南,琼海市,6.853,10.898,1.353,6.295,0.278,51.758,-0.657,4.173,301.105,86.433,100418.852,19.22,110.43
海南,白沙黎族自治县,12.212,14.634,1.769,4.84,0.275,67.164,0.881,3.496,301.06,68.295,96656.608,19.2,109.388
海南,陵水黎族自治县,8.81,11.697,1.106,3.677,0.3,58.96,0.406,2.161,300.03,88.397,98968.277,18.581,109.913
湖北,仙桃市,33.349,68.507,10.747,32.064,0.711,118.219,-4.427,-0.799,294.664,51.135,101552.279,30.284,113.417
湖北,十堰市,35.84,53.359,9.955,9.098,0.481,101.097,-5.395,1.833,291.276,50.389,93674.608,32.462,110.476
湖北,咸宁市,32.429,56.608,9.035,16.411,0.642,116.69,-5.841,-0.667,293.347,52.037,99659.023,29.621,114.178
湖北,天门市,36.155,75.219,10.763,36.607,0.756,110.742,-4.029,-0.908,294.873,49.535,101514.633,30.633,113.053
湖北,孝感市,31.491,62.42,9.019,22.679,0.611,105.508,-3.845,-1.397,294.419,44.993,100960.127,31.116,113.869
湖北,宜昌市,36.375,58.914,9.321,15.596,0.587,96.597,-3.867,-0.107,290.753,59.33,94509.274,30.746,111.129
湖北,恩施土家族苗族自治州,35.635,46.406,9.93,6.824,0.45,84.685,-5.809,2.165,287.785,73.413,89904.246,30.195,109.552
湖北,武汉市,33.372,69.353,10.629,34.816,0.787,105.087,-3.627,-0.472,294.371,46.117,101472.257,30.606,114.349
湖北,潜江市,38.594,73.646,12.727,32.203,0.799,117.113,-4.381,-0.982,294.983,52.527,101500.388,30.33,112.77
湖北,神农架林区,34.202,44.245,7.179,3.521,0.325,99.477,-4.801,5.232,283.995,72.235,83413.415,31.592,110.49
湖北,荆州市,36.134,63.729,10.73,21.585,0.747,116.66,-4.528,-1.711,295.063,53.3,101247.411,30.01,112.512
湖北,荆门市,34.058,62.573,9.66,22.024,0.651,104.042,-3.845,-0.784,294.748,45.25,100519.23,31.059,112.616
湖北,襄阳市,35.117,60.171,8.338,14.754,0.538,108.239,-3.421,1.594,293.239,47.061,97826.887,31.919,111.96
湖北,鄂州市,32.651,64.961,11.304,32.689,0.816,108.324,-4.431,0.291,294.181,46.763,101515.634,30.337,114.794
湖北,随州市,32.577,58.829,8.4,15.952,0.525,108.283,-4.227,-0.689,293.923,43.665,99873.47,31.809,113.43
湖北,黄冈市,30.891,55.186,10.198,18.04,0.584,112.244,-5.125,-1.67,293.572,43.341,99806.391,30.702,115.358
湖北,黄石市,33.482,65.45,12.147,26.154,0.756,116.576,-5.226,-0.393,293.057,50.56,100534.354,29.925,115.034
湖南,娄底市,28.834,45.356,10.524,11.159,0.892,90.481,-4.237,-2.857,292.886,74.29,97375.951,27.715,111.632
湖南,岳阳市,32.22,49.474,8.354,11.715,0.575,104.109,-5.48,-1.582,294.535,55.731,100293.554,29.081,113.275
湖南,常德市,33.779,56.172,11.26,13.468,0.762,98.221,-4.305,-2.738,294.145,61.47,99523.332,29.271,111.524
湖南,张家界市,35.552,54.182,11.617,10.552,0.637,88.902,-6.008,-1.971,291.481,67.273,95626.544,29.379,110.526
湖南,怀化市,31.545,50.229,10.308,7.119,0.738,93.543,-4.628,-2.812,291.746,79.375,96430.713,27.535,110.071
湖南,株洲市,32.336,47.582,12.672,9.969,0.659,94.471,-5.874,-2.167,294.096,67.944,98026.805,27.109,113.513
湖南,永州市,39.54,54.387,11.725,9.835,0.662,86.266,-3.865,-3.924,293.5,74.356,96572.774,25.748,111.723
湖南,湘潭市,25.983,42.338,10.4,20.244,0.839,90.294,-4.296,-2.823,295.083,64.605,100325.092,27.744,112.619
湖南,湘西土家族苗族自治州,33.155,50.793,9.061,7.993,0.709,85.123,-5.509,-1.685,290.528,79.437,95510.526,28.708,109.718
湖南,益阳市,29.236,48.568,8.179,9.96,0.768,96.568,-3.955,-2.552,293.608,68.672,98984.603,28.525,111.919
湖南,衡阳市,33.944,50.056,11.585,12.9,0.796,87.322,-3.675,-3.845,295.161,66.54,99766.38,26.781,112.565
湖南,邵阳市,36.022,49.889,12.351,8.915,0.717,92.191,-5.257,-2.453,291.357,80.45,95122.068,26.893,110.881
湖南,郴州市,32.789,50.147,10.583,10.123,0.956,82.938,-3.182,-2.499,293.888,71.105,95744.792,25.769,113.109
湖南,长沙市,26.668,42.935,9.216,14.827,0.684,92.288,-4.933,-1.751,294.407,62.007,99770.776,28.235,113.159
甘肃,临夏回族自治州,36.249,79.504,9.757,8.366,0.478,73.746,-3.754,0.054,280.969,84.077,77515.882,35.617,103.291
甘肃,兰州市,49.546,109.2,8.595,8.444,0.367,78.061,-4.895,-0.218,281.963,71.525,79217.789,36.359,103.633
甘肃,嘉峪关市,54.025,232.698,9.292,26.18,0.575,87.822,-1.257,1.633,281.742,47.923,81858.363,39.798,98.145
甘肃,天水市,26.804,34.425,7.416,5.45,0.309,72.744,-4.726,4.483,281.883,89.212,82917.72,34.645,105.739
甘肃,定西市,26.238,41.138,8.977,4.287,0.342,75.67,-5.161,5.429,279.907,90.948,77368.494,35.124,104.432
甘肃,平凉市,29.364,42.04,7.282,9.657,0.4,76.707,-2.405,3.918,282.834,89.01,84845.481,35.304,106.644
甘肃,庆阳市,31.422,49.222,10.298,10.273,0.422,85.898,-1.493,4.699,284.281,78.478,86184.14,36.149,107.596
甘肃,张掖市,30.726,72.126,1.57,2.584,0.173,84.318,-0.977,-0.803,277.327,62.07,74835.255,38.94,99.855
甘肃,武威市,60.46,97.13,3.256,1.787,0.179,75.602,-0.649,-1.808,283.162,45.354,81577.513,38.163,103.073
甘肃,甘南藏族自治州,28.133,36.574,8.2,2.016,0.304,77.971,-3.269,2.901,276.645,90.7,67641.647,34.331,102.768
甘肃,白银市,46.457,93.395,9.335,4.987,0.295,81.93,-2.994,2.507,283.233,72.135,81672.968,36.59,104.646
甘肃,酒泉市,26.546,38.153,1.081,1.56,0.143,92.156,-1.451,-0.133,280.424,30.747,79250.023,40.236,96.062
甘肃,金昌市,45.495,126.396,4.963,3.526,0.183,86.518,-1.213,-1.307,282.352,43.564,80802.726,38.44,102.048
甘肃,陇南市,24.82,33.078,8.728,5.854,0.319,67.648,-3.734,2.349,280.948,96.363,82425.267,33.599,105.224
福建,三明市,25.495,39.411,10.763,9.842,0.657,72.226,-4.149,-1.171,292.369,81.675,95257.289,26.29,117.395
福建,南平市,23.454,37.545,10.071,7.272,0.516,92.971,-3.34,-1.454,292.397,67.338,96076.108,27.324,118.143
福建,厦门市,20.738,39.72,8.788,16.758,0.517,106.597,-7.538,-6.077,295.063,73.747,100392.582,24.642,118.11
福建,宁德市,21.451,35.335,8.508,8.321,0.438,107.75,-3.489,-2.461,290.085,76.139,95492.351,26.968,119.474
福建,泉州市,21.512,39.14,8.276,11.233,0.52,104.266,-6.114,-3.119,292.666,81.396,96692.421,25.201,118.249
福建,漳州市,22.091,38.7,8.127,14.775,0.589,91.378,-6.696,-3.481,294.362,79.579,98209.549,24.372,117.444
福建,福州市,19.025,35.539,6.797,8.918,0.452,122.215,-5.498,-3.857,291.69,80.018,97549.641,26.083,119.206
福建,莆田市,18.965,36.514,7.141,8.685,0.448,122.419,-6.182,-5.029,292.899,78.596,98252.301,25.445,118.864
福建,龙岩市,26.256,39.53,9.917,14.026,0.718,62.717,-4.04,-0.37,293.539,81.46,95172.394,25.256,116.739
西藏,山南市,15.937,18.042,1.43,1.187,0.193,102.216,4.585,2.356,278.841,67.85,66148.652,28.295,92.274
西藏,拉萨市,10.488,16.593,0.891,1.37,0.185,110.287,7.942,3.977,272.638,46.423,56586.436,30.043,91.093
西藏,日喀则市,6.423,8.785,0.654,0.418,0.168,108.874,9.591,3.222,269.195,56.967,55360.766,29.483,86.493
西藏,昌都市,10.854,11.719,0.92,0.513,0.169,94.959,4.555,5.008,274.862,64.0,59111.266,30.753,97.044
西藏,林芝市,19.029,20.599,1.613,1.307,0.187,92.402,0.459,2.936,277.527,87.361,66418.891,29.184,95.25
西藏,玉树藏族自治州,9.446,9.621,0.271,0.267,0.138,90.65,0.816,2.27,270.193,69.453,57221.691,34.196,94.317
西藏,那曲市,6.085,7.162,0.339,0.218,0.152,103.516,4.406,1.373,269.718,62.547,55322.203,32.709,89.262
西藏,阿里地区,4.377,4.67,0.382,0.371,0.142,106.755,4.303,-1.383,266.024,62.726,54773.578,33.013,82.553
贵州,六盘水市,15.529,29.795,8.074,9.763,0.546,62.703,-3.68,1.217,288.725,92.211,83123.033,26.106,104.896
贵州,安顺市,24.177,36.583,8.014,4.499,0.406,76.297,-6.111,2.21,289.462,93.125,88161.221,25.986,105.978
贵州,毕节市,18.772,32.871,9.251,12.092,0.576,64.167,-3.608,0.935,286.498,94.127,83529.367,27.063,105.211
贵州,贵阳市,23.473,36.252,6.698,12.72,0.497,74.118,-6.077,1.38,287.437,92.725,88298.2,26.845,106.71
贵州,遵义市,34.036,41.853,10.679,6.07,0.378,82.629,-7.155,2.613,287.707,88.541,90533.113,28.167,107.102
贵州,铜仁市,30.337,47.532,11.741,5.1,0.526,87.225,-6.04,-1.232,288.68,88.051,92959.058,27.937,108.534
贵州,黔东南苗族侗族自治州,31.347,47.231,13.465,6.291,0.504,78.669,-4.623,-3.033,289.083,88.904,92766.923,26.495,108.574
贵州,黔南布依族苗族自治州,27.503,40.044,10.358,5.338,0.444,73.781,-5.611,-0.677,288.739,91.594,90431.534,26.0,107.265
贵州,黔西南布依族苗族自治州,22.56,36.599,9.976,2.966,0.468,72.126,-4.466,2.046,291.478,90.989,88480.637,25.256,105.467
辽宁,丹东市,23.953,38.793,6.696,10.205,0.436,78.987,1.063,1.551,285.723,56.335,99182.951,40.554,124.376
辽宁,大连市,27.985,50.056,7.236,15.326,0.429,91.259,-0.891,0.699,287.227,53.871,101392.885,39.591,122.22
辽宁,抚顺市,22.591,32.667,4.537,11.013,0.311,79.108,-0.586,-0.893,286.893,37.46,97413.214,41.841,124.65
辽宁,朝阳市,37.059,73.919,16.279,24.966,0.739,104.306,1.413,3.381,290.892,28.501,96847.774,41.545,120.053
辽宁,本溪市,24.12,37.724,6.429,13.393,0.407,82.761,0.588,-0.584,286.519,42.124,96770.295,41.232,124.544
辽宁,沈阳市,35.1,70.355,12.74,41.915,0.547,75.547,-1.54,0.11,290.584,31.116,101484.927,42.081,123.159
辽宁,盘锦市,32.97,75.104,19.767,32.464,0.734,102.214,0.831,1.923,291.326,29.377,102100.367,41.13,122.01
辽宁,营口市,28.675,51.071,8.484,16.796,0.518,92.401,-0.169,1.404,289.311,38.739,99960.645,40.395,122.478
辽宁,葫芦岛市,35.736,71.617,16.137,35.709,0.83,94.294,2.832,2.559,291.43,26.421,99598.572,40.66,120.215
辽宁,辽阳市,31.591,62.307,13.148,28.494,0.763,88.438,-0.771,1.325,289.706,36.597,100149.365,41.153,123.261
辽宁,铁岭市,24.261,41.956,4.364,20.083,0.33,77.657,-2.329,-0.509,288.619,33.423,99980.043,42.653,124.158
辽宁,锦州市,33.58,70.475,16.391,29.317,0.626,99.28,0.357,1.619,291.665,26.902,101270.954,41.502,121.659
辽宁,阜新市,27.248,48.955,9.67,20.696,0.342,88.993,-1.279,0.833,291.192,26.161,99815.398,42.289,121.968
辽宁,鞍山市,29.361,54.867,10.19,21.164,0.651,86.946,-0.479,1.412,288.732,43.608,100237.573,40.731,123.007
重庆,重庆城区,30.538,39.315,10.016,11.599,0.415,73.907,-5.131,2.407,291.768,70.935,95019.897,29.824,107.125
重庆,重庆郊县,33.71,42.369,11.529,5.454,0.379,83.981,-6.589,2.587,289.437,68.921,91360.323,30.334,108.755
陕西,咸阳市,43.265,78.012,9.417,26.627,0.804,64.134,-2.89,1.081,288.442,65.896,91806.474,34.779,108.367
陕西,商洛市,40.074,63.87,9.36,10.279,0.523,86.392,-4.513,2.81,288.343,54.061,89784.438,33.64,109.889
陕西,安康市,33.328,45.664,9.645,5.414,0.374,89.192,-6.373,1.195,289.242,55.252,90191.656,32.735,108.932
陕西,宝鸡市,32.398,46.402,6.335,13.644,0.488,63.078,-3.466,2.703,283.989,80.928,86696.104,34.386,107.193
陕西,延安市,43.482,72.078,14.986,27.165,0.832,83.335,-1.033,5.264,286.697,57.52,87999.285,36.432,109.316
陕西,榆林市,42.122,68.577,15.898,19.389,0.81,109.372,0.946,7.532,288.269,49.147,88289.975,38.041,109.581
陕西,汉中市,29.322,37.928,8.25,8.5,0.371,64.453,-4.884,0.869,286.316,71.288,89242.786,33.088,107.098
陕西,渭南市,55.544,104.705,15.067,34.627,0.939,89.247,-2.792,0.887,291.858,44.497,94156.219,34.919,109.855
陕西,西安市,44.582,79.473,9.586,23.881,0.754,64.431,-3.435,2.77,288.861,58.075,90852.33,34.12,108.77
陕西,铜川市,46.656,83.299,13.224,31.091,0.879,72.174,-2.084,1.671,287.266,62.294,89587.418,35.198,109.058
青海,保亭黎族苗族自治县,12.722,17.084,2.642,5.808,0.432,61.82,-0.52,1.86,299.186,87.164,96864.784,18.566,109.618
青海,吐鲁番市,27.168,35.515,1.406,1.984,0.154,97.154,0.008,0.95,288.021,11.997,90283.337,42.386,89.851
青海,果洛藏族自治州,10.304,10.547,0.635,0.467,0.142,89.533,0.752,1.397,273.534,76.463,59962.119,34.127,99.404
青海,海东市,48.414,68.003,8.928,4.677,0.293,74.764,-5.21,-0.244,277.803,80.911,72849.258,36.347,102.34
青海,海北藏族自治州,24.99,30.575,3.067,1.389,0.161,81.761,-2.899,0.121,272.203,81.486,65443.112,37.775,100.288
青海,海南藏族自治州,27.196,29.451,4.624,1.322,0.187,81.225,-3.124,0.217,275.65,80.374,66481.045,35.89,100.272
青海,海西蒙古族藏族自治州,23.999,24.333,0.416,0.326,0.127,90.768,0.573,-0.763,273.242,54.132,64523.789,36.677,94.519
青海,西宁市,51.668,101.323,7.706,7.161,0.416,80.583,-4.201,1.075,275.811,83.424,69658.652,36.842,101.423
青海,黄南藏族自治州,34.134,37.472,7.67,2.091,0.256,75.927,-3.255,-0.389,274.856,92.01,65813.477,35.022,101.631
香港,香港特别行政区,18.545,31.885,4.945,19.165,0.43,74.41,-8.245,-1.645,298.56,88.36,100653.92,22.45,114.22
黑龙江,七台河市,14.802,27.561,3.656,8.141,0.331,80.436,0.728,-2.135,285.402,44.107,98925.837,45.87,130.943
黑龙江,伊春市,7.681,9.8,1.405,2.2,0.191,76.738,0.432,0.197,286.359,36.288,97529.789,47.772,129.184
黑龙江,佳木斯市,11.318,18.406,2.594,5.666,0.31,76.846,0.112,-1.29,286.985,40.986,100892.416,47.207,132.11
黑龙江,双鸭山市,12.81,19.09,3.355,5.269,0.315,72.869,0.149,-1.357,286.244,45.528,100448.972,46.722,132.643
黑龙江,哈尔滨市,12.576,17.779,2.153,6.24,0.244,76.235,-1.028,-0.19,286.036,41.054,99304.294,45.634,127.964
黑龙江,大兴安岭地区,12.242,13.162,1.599,1.075,0.166,76.444,2.169,8.424,287.905,32.969,94986.209,52.286,124.212
黑龙江,大庆市,16.968,29.586,5.907,14.915,0.321,82.559,-1.598,3.729,288.992,33.191,100543.117,46.327,124.687
黑龙江,牡丹江市,12.904,18.031,2.274,3.72,0.218,75.331,0.441,-1.475,282.76,53.11,96155.69,44.592,129.883
黑龙江,绥化市,14.3,22.682,3.249,9.214,0.296,76.7,-0.353,2.509,287.674,36.367,99810.109,46.89,126.634
黑龙江,鸡西市,15.785,22.991,3.839,6.04,0.259,68.924,0.399,-0.316,284.5,54.029,100169.59,45.626,132.289
黑龙江,鹤岗市,11.073,20.197,2.604,5.943,0.427,78.288,0.268,-0.673,287.193,37.97,99933.183,47.661,130.778
黑龙江,黑河市,12.899,17.396,1.79,2.064,0.201,77.848,0.832,5.221,288.047,30.688,97780.478,49.268,127.004
黑龙江,齐齐哈尔市,14.593,23.662,4.432,8.115,0.255,79.499,0.396,5.5,289.324,29.408,99654.679,47.715,124.57
