province,city,PM2.5,PM10,SO2,NO2,CO,O3,U,V,TEMP,RH,PSFC,lat,lon
上海,上海市,22.62,34.636,5.378,53.604,0.537,34.03,-2.482,-1.983,288.291,83.564,102164.314,31.173,121.42
云南,临沧市,14.708,19.943,4.038,5.174,0.484,44.181,2.785,1.436,287.567,86.317,84087.593,23.935,99.686
云南,丽江市,8.442,11.549,3.222,5.785,0.488,66.438,6.404,2.737,280.518,56.612,74632.892,26.96,100.515
云南,保山市,14.997,25.006,4.078,6.814,0.479,45.999,3.643,1.207,285.528,75.827,82033.435,24.953,98.962
云南,大理白族自治州,10.039,15.497,3.263,4.941,0.425,61.95,6.068,2.44,283.145,67.081,78206.698,25.726,100.053
云南,德宏傣族景颇族自治州,17.712,25.787,6.288,7.204,0.366,45.54,1.247,0.758,288.061,77.435,86253.223,24.535,98.052
云南,怒江傈僳族自治州,8.131,12.925,1.076,1.766,0.264,67.439,4.383,2.8,277.259,78.551,72815.92,26.916,98.885
云南,文山壮族苗族自治州,29.546,42.311,10.773,4.654,0.472,52.443,0.428,2.753,289.579,89.721,86700.362,23.696,104.735
云南,昆明市,13.705,23.14,7.467,14.363,0.557,49.675,6.185,4.542,285.326,77.87,79352.164,25.384,102.863
云南,昭通市,36.483,54.315,13.192,17.703,0.749,35.074,-1.5,-1.508,280.548,90.487,84324.327,27.667,103.985
云南,普洱市,14.979,20.993,4.416,5.116,0.346,37.599,1.354,1.356,289.09,90.96,86155.024,23.159,100.718
云南,曲靖市,12.01,21.484,8.773,11.127,0.417,52.09,4.651,4.156,285.243,76.636,80128.908,25.737,103.929
云南,楚雄彝族自治州,12.918,15.211,4.013,6.129,0.488,57.712,5.417,3.985,286.193,71.435,81091.909,25.328,101.567
云南,玉溪市,14.145,19.272,4.862,5.951,0.351,52.756,2.988,3.318,288.132,86.491,83640.775,24.136,102.217
云南,红河哈尼族彝族自治州,16.417,23.628,7.53,4.11,0.332,53.009,1.659,2.797,289.589,88.157,85325.037,23.451,103.034
云南,西双版纳傣族自治州,18.68,31.913,6.68,6.709,0.39,30.094,0.248,1.026,291.709,89.999,89126.125,21.939,100.912
云南,迪庆藏族自治州,5.874,7.376,1.135,1.435,0.235,76.366,7.714,3.576,273.005,78.103,67145.203,27.957,99.459
内蒙古,乌兰察布市,2.839,4.325,2.016,1.524,0.205,62.678,2.553,-4.693,266.556,53.845,86750.961,41.691,112.44
内蒙古,乌海市,25.33,77.528,14.759,20.145,0.552,42.275,0.1,-2.984,271.422,40.234,88631.566,39.396,106.856
内蒙古,兴安盟,2.721,3.134,2.112,1.372,0.186,66.142,7.02,-5.591,265.554,51.456,95562.573,46.244,121.341
内蒙古,包头市,2.342,4.515,1.901,1.897,0.204,62.246,0.199,-4.33,266.546,44.865,86802.373,41.549,110.276
内蒙古,呼伦贝尔市,1.885,2.254,2.728,1.396,0.183,62.557,6.6,-2.957,261.052,59.296,94100.062,49.636,121.171
内蒙古,呼和浩特市,6.397,14.377,4.165,6.365,0.382,54.89,-0.182,-5.416,268.855,49.754,87065.239,40.578,111.513
内蒙古,巴彦淖尔市,3.553,5.411,2.007,1.815,0.195,56.383,-1.753,-2.962,267.933,34.44,88348.48,41.446,107.582
内蒙古,赤峰市,7.021,10.234,3.518,3.319,0.23,60.164,3.995,-5.648,267.846,58.085,92766.08,43.226,118.892
内蒙古,通辽市,10.205,14.338,4.287,3.879,0.227,57.182,4.717,-6.732,270.568,48.78,98892.28,43.814,121.591
内蒙古,鄂尔多斯市,7.787,18.286,5.318,7.38,0.305,45.833,-0.489,-4.244,270.6,45.173,87888.163,39.407,108.63
内蒙古,锡林郭勒盟,1.391,1.82,1.38,0.805,0.172,67.468,3.757,-3.488,264.706,61.623,89920.071,44.179,115.482
内蒙古,阿拉善盟,5.241,7.464,1.537,0.998,0.161,56.626,0.299,-1.542,268.716,33.227,88566.53,40.473,102.467
北京,北京市,43.442,51.697,4.465,22.024,0.582,33.824,0.247,-5.578,278.654,48.568,98782.909,40.158,116.395
台湾,台湾省,14.507,18.47,6.981,18.698,0.228,61.012,-1.175,-1.76,291.89,71.021,93327.099,23.757,120.975
吉林,吉林市,42.723,61.266,15.445,20.568,0.769,29.838,3.623,2.184,273.624,83.345,97783.066,43.573,126.859
吉林,四平市,36.347,48.291,7.873,12.275,0.542,39.416,4.35,-2.84,273.318,66.551,100260.855,43.472,124.386
吉林,延边朝鲜族自治州,46.281,67.768,19.262,24.969,0.646,27.229,4.986,2.453,274.378,71.75,94682.078,43.141,129.147
吉林,松原市,19.045,25.918,6.668,7.298,0.353,42.793,5.051,-4.389,271.617,54.855,100621.102,44.785,124.496
吉林,白城市,9.02,10.669,4.089,3.587,0.234,57.865,4.914,-6.224,270.671,46.809,100873.896,45.35,123.031
吉林,白山市,48.138,80.959,29.305,25.835,1.111,24.366,3.496,3.844,273.957,81.563,92860.667,42.063,127.256
吉林,辽源市,42.465,63.791,12.643,20.108,0.738,29.411,4.625,0.171,274.335,82.883,98245.359,42.836,125.32
吉林,通化市,42.802,80.242,26.09,27.884,1.278,18.605,2.666,2.742,274.897,86.369,96421.367,41.939,125.927
吉林,长春市,32.58,43.158,8.1,14.963,0.609,34.788,4.657,-1.564,272.984,67.583,100060.001,44.268,125.611
四川,乐山市,44.179,61.899,11.495,25.488,0.687,18.685,-0.754,-3.07,280.469,90.995,89994.5,29.218,103.569
四川,内江市,44.895,61.334,8.899,18.022,0.71,21.626,-0.941,-4.692,285.142,73.019,97202.165,29.62,104.95
四川,凉山彝族自治州,16.746,24.279,8.503,10.244,0.565,57.807,3.759,3.827,278.74,64.373,74132.398,27.883,102.065
四川,南充市,29.557,44.588,11.329,14.631,0.677,33.301,-2.632,-4.996,284.097,74.112,97231.331,31.19,106.199
四川,宜宾市,61.13,74.756,11.613,23.802,0.778,19.211,0.452,-3.443,284.624,83.442,95513.715,28.573,104.621
四川,巴中市,35.926,53.952,15.278,10.093,0.652,42.882,-5.98,-4.811,281.049,77.854,92895.504,32.033,107.031
四川,广元市,24.452,36.767,12.278,8.619,0.503,41.621,-2.829,-7.043,279.842,71.197,92074.262,32.261,105.788
四川,广安市,28.944,45.71,8.029,24.068,0.812,17.828,-0.553,-3.071,284.556,85.589,97188.958,30.43,106.628
四川,德阳市,24.306,38.751,6.938,16.878,0.532,29.832,-3.609,-5.084,282.157,66.611,93661.658,31.13,104.436
四川,成都市,26.404,43.391,8.581,23.138,0.598,26.122,-2.588,-3.862,282.188,72.525,93812.93,30.64,103.929
四川,攀枝花市,18.955,29.367,21.034,29.249,1.437,43.432,3.175,3.921,286.342,50.15,81521.142,26.791,101.734
四川,泸州市,38.182,54.633,11.547,23.954,0.715,18.753,0.156,-2.697,284.711,84.749,93823.442,28.424,105.675
四川,甘孜藏族自治州,5.422,6.583,1.359,1.396,0.158,76.849,4.789,3.916,268.106,71.511,60852.687,30.936,100.009
四川,眉山市,34.292,50.268,9.954,24.019,0.634,22.109,-1.291,-3.774,282.673,77.914,94269.489,29.912,103.766
四川,绵阳市,27.295,38.001,10.808,8.528,0.453,40.683,-2.786,-5.128,278.372,73.058,88351.915,31.86,104.704
四川,自贡市,51.399,65.841,9.162,20.493,0.718,20.521,-0.485,-4.082,285.384,73.247,97180.105,29.307,104.659
四川,资阳市,38.04,53.575,9.249,16.176,0.681,23.981,-1.467,-4.943,284.766,71.955,97467.106,30.102,105.149
四川,达州市,35.057,54.414,13.839,20.756,0.738,33.077,-4.016,-2.238,282.987,84.766,94466.461,31.335,107.636
四川,遂宁市,30.402,45.103,10.736,15.99,0.658,26.978,-1.825,-5.329,284.568,69.875,97712.382,30.642,105.457
四川,阿坝藏族羌族自治州,19.94,26.178,6.735,3.554,0.267,61.034,0.877,2.96,268.886,83.638,65232.724,32.406,102.61
四川,雅安市,34.869,51.631,17.107,13.493,0.542,45.811,-1.559,-0.736,274.79,96.247,80229.619,29.932,102.689
天津,天津市,110.042,154.978,12.88,49.761,1.583,8.469,-1.51,-2.534,280.816,61.876,102525.797,39.315,117.308
宁夏,中卫市,25.939,59.025,6.3,9.797,0.272,45.336,0.665,-2.525,269.701,58.331,84289.494,37.018,105.509
宁夏,吴忠市,35.605,89.713,12.065,15.682,0.373,35.638,0.59,-2.345,270.91,55.254,85891.619,37.454,106.577
宁夏,固原市,26.06,64.387,8.157,11.726,0.319,47.784,-0.184,-4.08,268.646,72.235,81502.809,35.905,106.183
宁夏,石嘴山市,29.437,103.697,15.086,18.692,0.463,44.061,0.618,-3.78,271.671,39.637,87651.787,39.013,106.499
宁夏,银川市,44.879,143.217,18.455,24.772,0.575,32.656,-1.156,-1.041,272.28,42.9,87960.841,38.287,106.342
安徽,亳州市,49.072,67.037,8.882,28.914,0.573,44.995,-3.677,-0.866,285.418,82.491,102062.662,33.44,116.162
安徽,六安市,48.922,70.528,7.588,29.695,0.692,34.315,-2.855,-1.372,285.217,88.732,99414.093,31.617,116.209
安徽,合肥市,36.969,53.605,6.605,36.085,0.675,36.262,-4.97,-1.505,286.416,83.692,101820.335,31.766,117.359
安徽,安庆市,45.227,50.951,7.967,24.307,0.648,32.323,-3.055,-3.898,286.477,83.411,99772.0,30.557,116.473
安徽,宣城市,31.32,47.923,7.112,34.604,0.593,32.374,-4.195,0.698,285.988,87.631,99718.386,30.676,118.846
安徽,宿州市,48.811,69.547,9.664,34.085,0.596,49.183,-3.115,-0.506,285.111,82.128,102040.864,33.844,117.23
安徽,池州市,33.396,43.146,8.203,21.081,0.57,31.519,-2.568,-1.772,286.595,86.191,99911.882,30.296,117.379
安徽,淮北市,48.26,66.672,10.282,34.338,0.567,49.678,-3.642,-0.418,285.122,82.798,102081.64,33.722,116.747
安徽,淮南市,40.746,57.572,8.725,32.952,0.6,41.156,-4.793,-1.073,286.063,83.697,102041.776,32.463,116.746
安徽,滁州市,31.197,45.976,7.213,27.888,0.479,44.535,-4.622,-1.228,285.531,82.74,101777.415,32.55,118.076
安徽,芜湖市,34.853,51.754,7.384,40.982,0.674,32.768,-5.308,-1.304,286.794,86.016,101942.897,31.167,118.162
安徽,蚌埠市,38.317,53.934,9.23,29.237,0.507,55.566,-3.958,-0.932,285.33,84.157,102076.983,33.121,117.263
安徽,铜陵市,42.014,58.717,8.147,37.534,0.678,27.447,-3.998,-2.159,287.045,84.076,101770.196,30.883,117.531
安徽,阜阳市,53.951,77.084,8.384,28.942,0.655,31.518,-3.357,-1.905,285.791,82.67,102009.009,32.937,115.723
安徽,马鞍山市,28.332,47.814,7.367,40.635,0.695,32.959,-5.458,-1.616,286.435,83.701,101989.385,31.622,118.386
安徽,黄山市,24.482,37.183,8.7,16.144,0.559,31.623,-3.623,-0.011,285.577,90.825,97664.06,29.869,118.09
山东,东营市,98.614,143.328,18.072,56.71,1.114,28.82,0.738,0.263,283.87,71.11,102467.673,37.57,118.572
山东,临沂市,70.342,112.196,10.787,41.24,0.77,59.558,-1.356,-0.339,284.022,75.932,100612.887,35.289,118.27
山东,威海市,54.568,89.332,11.724,34.822,1.015,70.222,-0.065,0.045,284.551,65.316,101820.869,37.148,122.028
山东,德州市,99.405,144.47,11.791,53.241,1.015,22.224,-0.001,-0.16,282.832,73.116,102369.113,37.233,116.679
山东,日照市,70.721,107.407,8.954,46.083,0.72,59.942,-1.249,-0.629,284.395,80.474,100728.235,35.566,119.108
山东,枣庄市,60.971,107.442,16.635,39.804,0.68,52.896,-2.661,-0.138,284.125,75.384,101344.081,34.925,117.383
山东,泰安市,61.596,99.48,10.025,43.107,0.802,38.637,-1.969,0.413,283.132,77.944,100528.838,35.993,117.04
山东,济南市,75.127,113.006,11.491,49.255,0.936,34.306,-0.512,1.248,283.001,76.596,100522.372,36.639,117.254
山东,济宁市,56.707,96.497,14.447,39.956,0.77,35.645,-2.331,1.026,284.198,76.956,101809.033,35.375,116.697
山东,淄博市,87.232,126.701,17.463,53.272,1.184,33.325,1.027,1.523,283.224,75.152,99889.057,36.623,118.062
山东,滨州市,103.526,138.823,17.742,55.751,1.144,27.074,0.828,-0.306,283.583,72.514,102424.547,37.516,117.852
山东,潍坊市,83.613,130.663,12.772,52.689,1.036,46.188,0.286,0.902,283.949,74.881,101344.516,36.53,119.092
山东,烟台市,58.814,96.422,11.162,36.873,0.894,66.059,0.643,1.075,284.023,70.049,101319.458,37.25,120.789
山东,聊城市,94.478,139.996,11.553,46.594,0.994,29.355,-0.672,-0.078,283.565,71.061,102124.96,36.458,115.863
山东,菏泽市,71.885,106.126,11.757,38.543,0.87,39.584,-1.462,-0.048,284.821,72.71,101949.689,35.134,115.69
山东,青岛市,65.377,102.576,10.215,40.473,0.896,65.614,-0.881,-0.013,284.688,72.125,101900.145,36.46,120.172
山西,临汾市,74.274,106.925,15.523,32.299,1.246,22.962,1.113,-3.529,276.188,78.064,90704.681,36.227,111.398
山西,吕梁市,53.732,85.6,18.708,32.355,0.865,23.191,0.642,-3.851,273.484,73.481,88319.103,37.663,111.27
山西,大同市,13.033,19.728,4.907,4.869,0.366,50.142,-0.128,-5.478,270.77,61.438,87920.725,39.911,113.713
山西,太原市,77.518,123.595,22.44,43.433,1.07,21.254,0.303,-3.978,274.252,76.091,88168.134,37.967,112.321
山西,忻州市,48.964,74.66,13.596,25.116,0.812,29.985,-0.065,-4.062,271.879,73.531,86689.742,38.877,112.391
山西,晋中市,107.517,156.777,24.783,50.779,1.484,19.145,0.224,-2.513,275.171,86.797,89082.168,37.328,112.997
山西,晋城市,87.034,122.291,12.578,37.921,1.293,30.77,-0.022,-2.273,277.593,85.866,91022.794,35.625,112.752
山西,朔州市,19.366,36.528,8.437,12.501,0.562,41.633,-0.622,-3.898,270.916,68.267,87248.817,39.619,112.655
山西,运城市,75.011,121.656,9.771,34.307,0.955,18.453,2.617,-2.859,279.389,69.338,95000.32,35.205,111.071
山西,长治市,97.096,135.027,18.764,42.222,1.506,26.119,0.068,-1.635,275.644,89.749,89350.54,36.48,112.915
山西,阳泉市,134.814,178.796,23.958,49.866,1.603,21.479,0.893,-1.936,275.759,77.214,91049.108,38.031,113.512
广东,东莞市,26.316,46.652,7.217,26.901,0.529,61.697,-6.656,1.453,296.252,79.097,101392.956,22.931,113.81
广东,中山市,22.081,40.733,6.736,20.468,0.426,68.467,-7.403,1.418,296.766,85.109,101367.096,22.5,113.383
广东,云浮市,28.244,40.568,6.035,16.51,0.487,52.634,-5.18,3.586,295.645,86.346,99319.878,22.776,111.818
广东,佛山市,28.982,56.33,8.28,44.797,0.603,39.725,-5.35,2.375,296.736,80.207,101402.841,23.035,112.979
广东,广州市,31.076,52.001,7.773,36.264,0.579,49.498,-5.302,2.776,295.928,78.254,100534.697,23.339,113.525
广东,惠州市,26.28,39.299,7.728,12.448,0.485,72.42,-5.738,1.24,294.894,79.07,99601.548,23.244,114.485
广东,揭阳市,31.032,50.343,13.075,17.464,0.713,79.186,-5.929,-2.305,293.735,80.994,100288.613,23.323,116.123
广东,梅州市,29.86,44.115,10.344,14.444,0.623,72.751,-4.409,1.386,293.242,75.932,98240.713,24.169,116.07
广东,汕头市,22.152,37.264,10.833,13.416,0.52,85.508,-6.968,-3.813,294.509,80.678,101414.72,23.339,116.614
广东,汕尾市,26.74,42.28,9.445,11.583,0.531,79.645,-6.893,-2.447,294.115,82.031,99979.079,23.024,115.527
广东,江门市,21.164,34.504,5.072,13.025,0.368,69.14,-7.16,1.558,296.548,86.595,100777.373,22.289,112.676
广东,河源市,33.375,48.838,9.976,15.343,0.654,65.962,-3.653,1.391,293.807,78.633,98400.857,24.021,114.969
广东,深圳市,21.294,40.818,6.622,20.236,0.453,74.09,-8.499,0.464,295.931,84.818,100913.3,22.667,114.143
广东,清远市,37.53,52.567,10.048,28.361,0.732,32.451,-2.021,1.096,292.99,85.918,97872.493,24.295,112.871
广东,湛江市,16.21,28.101,4.218,6.403,0.381,68.885,-6.658,2.829,298.165,84.224,101076.155,21.091,110.163
广东,潮州市,25.597,41.672,10.231,13.444,0.587,77.817,-6.411,-2.784,293.281,78.176,99741.956,23.755,116.754
广东,珠海市,16.082,27.72,3.81,5.865,0.278,85.77,-8.762,0.268,296.787,87.715,101430.365,22.095,113.317
广东,肇庆市,33.78,52.845,9.236,34.804,0.619,33.003,-4.228,2.745,295.323,83.894,99451.392,23.505,112.199
广东,茂名市,23.264,32.698,5.293,9.194,0.428,65.656,-6.705,2.906,296.58,84.466,99343.869,22.013,110.952
广东,阳江市,22.563,32.737,4.041,8.821,0.372,68.765,-6.194,1.333,296.126,88.883,99909.282,22.042,111.786
广东,韶关市,39.044,46.215,11.117,21.181,0.97,34.258,-1.825,-0.17,291.762,86.527,97129.201,24.785,113.819
广西,北海市,17.681,29.109,5.151,8.67,0.451,63.809,-5.36,3.141,298.497,81.496,101101.733,21.674,109.37
广西,南宁市,23.841,35.198,7.666,16.52,0.777,35.378,-2.956,-0.896,293.85,89.49,99351.148,23.051,108.469
广西,崇左市,20.684,33.266,6.278,9.353,0.508,45.521,-2.112,-0.779,294.83,89.408,98017.208,22.483,107.291
广西,来宾市,29.028,39.446,9.527,14.409,0.882,27.498,-2.395,-1.796,291.864,90.373,98240.341,23.859,109.417
广西,柳州市,18.219,33.807,13.359,11.798,0.835,25.139,-1.816,-4.508,289.217,90.154,97710.497,24.956,109.372
广西,桂林市,19.413,32.765,8.746,13.94,0.804,27.609,-3.234,-2.862,287.985,93.563,96115.921,25.353,110.513
广西,梧州市,32.231,45.643,10.123,17.36,0.69,39.256,-3.54,1.377,294.849,84.693,99038.487,23.484,110.996
广西,河池市,22.472,36.139,13.612,8.264,0.76,30.923,-2.782,-1.605,289.651,90.431,95324.781,24.628,107.843
广西,玉林市,26.611,37.882,8.624,12.469,0.596,55.324,-3.836,3.295,296.679,82.014,99389.304,22.452,110.164
广西,百色市,40.046,57.971,13.231,8.959,0.618,46.398,-1.774,0.469,291.094,89.267,93188.37,23.981,106.292
广西,贵港市,32.056,45.815,10.995,16.641,0.832,36.028,-2.392,-1.143,295.119,83.228,99858.877,23.322,110.021
广西,贺州市,29.183,46.88,12.934,17.991,0.769,29.966,-2.524,-0.807,291.839,87.665,97289.735,24.364,111.394
广西,钦州市,19.991,32.133,6.801,13.829,0.649,47.915,-3.841,1.311,296.729,84.913,100417.482,22.173,109.01
广西,防城港市,16.628,26.062,5.629,10.688,0.458,53.55,-3.002,1.964,296.35,89.4,98820.15,21.88,108.002
新疆,乌鲁木齐市,15.64,20.284,2.251,12.385,0.327,61.702,0.368,-0.094,264.835,45.539,85155.281,43.746,87.818
新疆,五家渠市,7.873,10.02,2.73,5.63,0.257,66.02,0.947,-1.547,268.707,59.113,98362.44,44.363,87.517
新疆,伊犁哈萨克自治州,19.477,23.857,4.001,6.52,0.481,70.897,0.3,0.991,265.232,48.232,80886.733,43.438,82.146
新疆,克孜勒苏柯尔克孜自治州,15.432,48.956,1.374,1.533,0.208,63.825,3.701,-0.866,261.483,71.371,70545.507,39.661,75.949
新疆,克拉玛依市,12.862,20.4,3.258,7.676,0.308,58.15,-1.734,-2.253,265.97,52.262,99343.212,45.457,85.207
新疆,北屯市,5.374,5.69,4.388,21.186,1.066,4.444,-2.996,1.552,262.182,56.452,97313.238,47.27,87.868
新疆,博尔塔拉蒙古自治州,15.962,23.862,5.589,5.897,0.294,64.267,0.214,1.239,262.854,60.1,87282.465,44.714,82.114
新疆,双河市,21.728,36.022,9.438,9.154,0.298,54.396,0.402,-0.556,266.046,60.982,99885.674,44.87,82.474
新疆,可克达拉市,55.332,71.584,10.214,18.174,1.326,49.698,2.222,-0.034,270.226,51.58,96135.348,43.918,80.786
新疆,和田地区,33.032,46.429,1.172,0.798,0.175,56.58,3.052,-1.096,265.159,64.468,74329.326,37.059,80.934
新疆,哈密市,2.817,3.966,1.675,1.046,0.181,73.997,-0.737,-0.649,267.439,31.271,89343.676,43.042,93.517
新疆,喀什地区,30.918,55.707,2.202,2.284,0.209,54.453,2.314,-0.373,266.07,61.509,76580.261,38.125,77.178
新疆,图木舒克市,42.903,48.562,5.08,2.888,0.218,41.357,-2.633,-1.767,271.807,50.405,90354.078,39.892,79.182
新疆,塔城地区,9.408,12.535,3.229,3.959,0.242,71.661,-0.213,0.108,264.286,49.576,90865.611,45.642,84.789
新疆,巴音郭楞蒙古自治州,14.406,20.392,1.261,0.829,0.162,61.18,-0.734,-0.601,266.284,46.181,79698.097,39.463,87.481
新疆,新星市,15.615,35.1,6.05,12.675,0.665,34.04,1.205,-1.93,270.895,20.67,94010.655,42.75,93.68
新疆,昆玉市,73.78,153.37,2.4,2.637,0.263,39.377,-1.157,-0.997,273.16,71.033,87865.417,37.457,79.093
新疆,昌吉回族自治州,7.157,10.098,2.233,3.908,0.233,71.359,-0.151,-0.537,266.367,50.311,91194.263,44.342,88.608
新疆,石河子市,44.925,63.42,9.745,31.02,0.63,31.685,-1.225,-1.075,266.385,71.39,96343.585,44.245,86.035
新疆,胡杨河市,14.894,21.708,2.49,5.63,0.306,58.056,-3.068,-2.224,266.708,60.668,99852.626,44.852,84.772
新疆,铁门关市,62.63,261.457,6.84,20.037,0.53,45.177,-0.017,-0.88,272.803,31.533,92905.7,41.773,85.66
新疆,阿克苏地区,36.202,58.757,3.119,2.374,0.222,58.14,-0.693,-0.362,268.933,54.674,86167.602,40.965,81.578
新疆,阿勒泰地区,2.51,2.727,2.146,4.241,0.368,65.362,-2.234,0.537,263.084,45.798,89724.305,46.902,88.421
新疆,阿拉尔市,44.652,101.872,4.109,4.512,0.322,46.536,-1.839,-1.001,271.812,63.917,91265.738,40.629,80.998
江苏,南京市,28.076,46.295,7.519,39.303,0.577,33.562,-4.957,-1.475,286.377,81.027,102069.101,31.899,118.876
江苏,南通市,19.071,28.428,7.939,18.301,0.394,66.392,-2.665,-2.041,287.405,78.781,102229.808,32.201,120.979
江苏,宿迁市,37.197,55.362,7.599,24.013,0.588,62.194,-2.991,-0.539,286.013,75.656,102285.37,33.765,118.495
江苏,常州市,25.594,44.108,8.329,43.368,0.596,38.109,-5.386,-1.647,287.243,79.344,102105.86,31.613,119.666
江苏,徐州市,58.237,88.609,11.372,38.924,0.691,47.881,-2.562,-0.444,284.78,77.97,102063.529,34.363,117.513
江苏,扬州市,28.351,44.673,6.601,23.028,0.481,53.055,-3.398,-2.104,285.914,78.28,102278.742,32.709,119.486
江苏,无锡市,24.971,42.662,8.586,46.54,0.582,36.154,-4.934,-2.078,287.364,80.451,102010.005,31.546,120.066
江苏,泰州市,26.18,40.857,8.175,24.375,0.487,58.018,-2.415,-2.307,286.272,77.737,102233.057,32.605,120.048
江苏,淮安市,30.92,49.342,6.937,21.311,0.51,59.842,-2.942,-1.355,285.738,78.52,102260.794,33.362,118.985
江苏,盐城市,20.878,28.936,5.819,11.095,0.368,71.983,-2.12,-1.198,286.969,71.816,102314.587,33.529,120.156
江苏,苏州市,24.5,38.224,7.267,49.006,0.512,35.795,-3.939,-2.853,287.805,82.334,102156.394,31.374,120.661
江苏,连云港市,39.488,56.985,7.393,23.359,0.567,66.044,-1.995,-0.259,286.074,73.149,102193.197,34.519,119.133
江苏,镇江市,27.124,45.876,8.242,37.398,0.569,40.869,-4.734,-1.76,286.713,77.544,102114.47,32.016,119.49
江西,上饶市,23.647,30.713,10.208,17.554,0.547,27.772,-2.446,-1.301,287.95,89.922,99687.062,28.778,117.47
江西,九江市,40.053,36.96,7.953,16.216,0.562,34.195,-2.352,-3.143,287.183,89.882,99685.571,29.313,115.444
江西,南昌市,28.203,34.792,7.669,20.66,0.627,26.956,-1.979,-3.449,288.825,90.172,101544.394,28.671,116.016
江西,吉安市,20.551,31.658,11.531,17.817,0.769,22.254,-0.864,-2.573,287.76,97.952,99211.233,26.954,114.831
江西,宜春市,26.805,35.693,8.438,19.441,0.649,27.643,-2.062,-2.705,287.359,95.169,99606.121,28.29,114.974
江西,抚州市,20.982,29.516,11.128,14.099,0.491,31.866,-1.481,-1.071,288.643,95.785,99212.788,27.514,116.42
江西,新余市,19.303,30.421,10.412,26.104,0.772,19.268,-1.878,-3.194,287.651,96.509,100531.355,27.847,114.836
江西,景德镇市,20.522,27.936,9.411,14.106,0.521,28.061,-2.262,-1.828,287.935,87.797,100537.954,29.287,117.24
江西,萍乡市,15.123,26.728,9.288,20.153,0.835,21.083,-2.773,-1.518,287.046,96.612,98230.189,27.505,113.908
江西,赣州市,24.754,32.502,12.979,12.621,0.832,37.977,-0.953,-0.816,289.775,93.229,97503.614,25.692,115.279
江西,鹰潭市,21.691,29.876,10.997,19.189,0.515,25.283,-2.199,-1.187,288.403,93.211,100187.402,28.222,117.094
河北,保定市,73.674,95.412,8.258,31.067,0.768,24.796,-1.346,-4.564,279.77,51.514,98699.869,39.018,115.159
河北,唐山市,102.914,141.438,18.203,44.493,1.512,13.824,-2.293,-2.953,279.953,63.699,102019.023,39.731,118.354
河北,廊坊市,90.261,129.244,9.039,44.402,1.198,11.817,-1.5,-3.895,280.98,58.896,102585.083,39.267,116.632
河北,张家口市,8.605,10.48,2.982,5.902,0.25,53.026,2.82,-5.849,269.759,59.036,88386.95,40.877,115.042
河北,承德市,28.167,40.711,5.252,13.893,0.46,42.691,1.025,-4.559,271.698,67.166,91745.191,41.339,117.578
河北,沧州市,117.861,161.21,12.81,55.822,1.3,10.364,-1.076,-2.082,282.146,66.472,102530.28,38.258,116.744
河北,石家庄市,134.624,179.751,11.833,43.511,1.348,19.279,-0.26,-3.3,280.553,57.239,99234.995,38.135,114.407
河北,秦皇岛市,78.603,106.628,14.047,32.737,1.278,27.295,-1.545,-4.212,277.673,64.561,99678.552,40.12,119.193
河北,衡水市,111.118,155.322,10.929,48.536,1.08,12.926,-1.365,-1.212,281.897,65.282,102382.386,37.755,115.813
河北,邢台市,149.64,209.453,12.806,48.887,1.46,18.721,0.448,-3.3,281.653,64.288,100849.399,37.195,114.815
河北,邯郸市,150.384,208.413,13.763,48.648,1.59,22.706,0.598,-3.433,281.617,68.773,100335.452,36.538,114.596
河南,三门峡市,81.687,122.241,10.636,30.868,0.778,23.398,3.409,-3.554,277.959,76.528,92525.064,34.362,111.101
河南,信阳市,62.236,88.039,10.388,27.985,0.748,38.387,-2.356,-3.432,285.62,83.671,100985.914,32.091,114.907
河南,南阳市,89.103,120.11,11.83,29.875,0.92,51.43,-1.113,-3.592,284.873,64.907,98975.683,33.034,112.323
河南,周口市,83.781,104.276,10.623,32.521,0.782,47.981,-1.591,-2.503,285.533,72.917,101844.987,33.738,114.884
河南,商丘市,64.383,85.003,9.344,34.518,0.686,45.454,-2.233,-0.595,285.109,76.552,101943.394,34.277,115.718
河南,安阳市,142.335,187.529,14.94,49.065,1.615,28.322,0.754,-3.833,281.928,69.522,99913.087,35.888,114.318
河南,平顶山市,110.638,149.622,14.144,40.822,1.091,26.043,1.413,-4.62,284.081,65.781,99666.064,33.8,113.025
河南,开封市,142.549,173.19,15.313,46.53,1.205,42.526,-0.094,-3.396,284.554,67.206,101633.666,34.594,114.514
河南,新乡市,149.472,189.804,16.15,50.918,1.549,29.4,-0.196,-3.916,283.11,68.321,100718.212,35.256,114.111
河南,洛阳市,95.344,134.076,13.368,33.048,0.876,23.942,3.151,-2.75,280.415,71.843,94927.303,34.274,112.019
河南,济源市,98.363,140.541,12.628,39.478,1.045,26.005,0.0,-1.703,281.796,70.98,96804.655,35.105,112.445
河南,漯河市,111.518,145.969,12.833,46.644,1.088,41.708,-0.53,-3.997,285.093,67.844,101712.341,33.652,113.945
河南,濮阳市,119.804,158.91,13.981,47.319,1.214,32.884,0.014,-1.428,283.998,68.617,101969.887,35.809,115.283
河南,焦作市,130.919,165.452,14.356,48.032,1.375,24.791,-1.057,-1.352,283.767,65.486,100506.656,35.121,113.163
河南,许昌市,132.971,167.524,15.56,49.27,1.314,30.575,-0.256,-3.741,284.555,67.201,101042.688,34.075,113.707
河南,郑州市,152.737,184.288,15.507,51.545,1.447,20.612,0.723,-2.427,283.19,70.694,99724.267,34.634,113.438
河南,驻马店市,80.085,108.133,9.418,32.807,0.8,48.555,-1.4,-4.028,285.715,72.421,101347.251,32.925,114.174
河南,鹤壁市,148.614,196.881,14.59,51.283,1.696,25.058,1.297,-4.019,282.624,68.093,101114.898,35.716,114.319
浙江,丽水市,29.556,38.837,7.809,21.117,0.51,38.876,-2.225,1.621,286.598,91.393,94955.961,28.194,119.51
浙江,台州市,27.835,40.595,6.263,29.855,0.501,38.921,-2.037,-1.879,288.601,85.04,99294.862,28.742,121.109
浙江,嘉兴市,27.768,43.219,5.484,56.397,0.617,22.595,-2.487,-2.623,287.486,86.572,102128.215,30.635,120.754
浙江,宁波市,31.361,46.098,7.028,42.743,0.563,32.556,-1.537,-2.237,288.335,85.431,100843.263,29.706,121.49
浙江,杭州市,38.004,60.729,8.292,41.491,0.736,19.199,-2.766,-1.058,285.494,92.208,99151.553,29.891,119.464
浙江,温州市,34.122,51.828,8.409,36.941,0.629,30.054,-1.691,-1.547,288.065,87.93,98081.459,27.897,120.411
浙江,湖州市,30.923,48.809,6.044,50.23,0.624,23.835,-3.837,-0.561,286.325,88.697,100840.486,30.757,119.871
浙江,绍兴市,40.741,59.898,8.135,52.711,0.755,14.743,-2.546,-0.884,286.924,86.405,99994.23,29.709,120.64
浙江,舟山市,11.535,14.848,3.222,8.582,0.272,66.885,-2.095,-2.668,290.112,83.015,101846.872,30.038,122.23
浙江,衢州市,27.198,39.026,9.956,28.926,0.609,26.296,-3.063,-1.006,286.9,89.513,98304.547,28.912,118.675
浙江,金华市,34.387,48.29,6.961,37.216,0.663,22.03,-2.777,-0.326,286.833,88.32,98601.765,29.109,119.967
海南,万宁市,14.686,25.671,1.674,1.926,0.281,68.389,-4.61,0.21,297.596,90.061,100039.599,18.842,110.294
海南,三亚市,15.653,24.957,2.449,7.009,0.406,45.266,-5.413,0.149,297.071,85.316,98789.994,18.413,109.407
海南,东方市,17.36,24.261,2.328,3.029,0.271,62.639,-1.862,1.253,298.056,78.971,99392.045,18.971,108.838
海南,临高县,12.069,23.037,3.149,6.267,0.391,40.403,-5.269,2.266,298.484,80.793,100591.95,19.821,109.733
海南,乐东黎族自治县,16.097,23.608,1.612,3.346,0.302,53.27,-3.938,1.097,296.884,82.988,97899.568,18.659,109.072
海南,五指山市,15.664,23.844,1.534,2.794,0.296,54.16,-4.962,1.546,294.832,90.006,94724.004,18.81,109.518
海南,儋州市,14.439,24.351,2.372,3.888,0.327,55.277,-3.799,1.666,298.279,82.449,100236.634,19.568,109.399
海南,定安县,11.742,23.783,2.027,4.485,0.383,41.413,-4.95,1.515,297.945,85.033,100315.88,19.47,110.28
海南,屯昌县,12.718,24.26,1.958,3.706,0.346,44.652,-4.486,1.732,297.47,86.268,99531.746,19.342,110.076
海南,文昌市,12.868,25.277,1.65,1.947,0.308,53.926,-6.172,0.943,298.099,88.007,101104.034,19.707,110.773
海南,昌江黎族自治县,17.437,25.213,2.668,3.252,0.286,66.529,-2.044,0.316,297.327,82.526,98390.944,19.233,109.016
海南,海口市,11.075,23.313,2.696,6.161,0.421,38.718,-5.592,1.497,298.37,83.045,100893.843,19.842,110.393
海南,澄迈县,10.914,22.586,3.014,6.617,0.429,36.679,-5.036,2.033,298.276,82.017,100429.927,19.676,109.989
海南,琼中黎族苗族自治县,14.895,25.063,1.801,2.817,0.311,51.46,-4.273,1.719,296.043,90.435,97356.165,19.087,109.847
海南,琼海市,13.358,25.34,1.54,2.218,0.298,55.05,-4.803,0.625,298.118,87.647,100870.317,19.22,110.43
海南,白沙黎族自治县,15.47,23.864,1.804,2.492,0.292,60.266,-3.609,1.564,296.475,86.04,97054.304,19.2,109.388
海南,陵水黎族自治县,15.623,25.504,1.39,2.929,0.32,57.537,-4.07,-0.606,297.196,88.939,99362.427,18.581,109.913
湖北,仙桃市,42.905,63.218,7.812,18.367,0.8,35.233,-2.441,-5.811,286.865,82.715,101912.972,30.284,113.417
湖北,十堰市,55.071,79.932,17.801,17.612,0.79,41.552,0.123,-2.293,281.344,80.774,94023.769,32.462,110.476
湖北,咸宁市,39.478,48.019,6.655,21.052,0.735,29.12,-2.194,-3.045,286.869,89.256,99933.004,29.621,114.178
湖北,天门市,48.723,74.636,11.42,17.955,0.868,47.473,-2.06,-5.539,286.298,80.414,101911.03,30.633,113.053
湖北,孝感市,49.762,70.471,9.196,19.671,0.824,45.505,-2.018,-5.515,285.969,82.538,101299.363,31.116,113.869
湖北,宜昌市,44.937,57.9,13.098,19.919,0.792,33.528,-1.714,-2.677,282.357,87.062,94756.836,30.746,111.129
湖北,恩施土家族苗族自治州,36.653,56.34,13.184,14.392,0.76,25.989,-2.191,0.179,280.838,95.124,90060.193,30.195,109.552
湖北,武汉市,45.081,57.276,6.827,25.464,0.815,27.283,-1.742,-5.012,287.277,82.167,101781.804,30.606,114.349
湖北,潜江市,47.741,77.163,9.616,19.417,0.898,41.383,-2.271,-5.912,286.407,80.85,101907.053,30.33,112.77
湖北,神农架林区,61.447,75.746,21.232,12.384,0.725,40.463,-1.285,-1.53,275.979,98.685,83383.124,31.592,110.49
湖北,荆州市,45.468,68.186,9.402,20.643,0.896,35.871,-1.891,-5.99,286.504,82.256,101653.773,30.01,112.512
湖北,荆门市,68.408,81.748,13.512,23.081,0.903,50.567,-0.866,-5.83,285.449,78.532,100915.018,31.059,112.616
湖北,襄阳市,80.644,88.62,13.47,24.964,0.898,50.548,-0.009,-3.64,284.105,78.547,98190.597,31.919,111.96
湖北,鄂州市,39.78,50.999,5.956,25.89,0.807,24.264,-0.964,-3.374,288.074,80.799,101791.206,30.337,114.794
湖北,随州市,60.697,83.006,10.686,22.588,0.796,59.334,-2.056,-4.429,285.405,75.556,100207.992,31.809,113.43
湖北,黄冈市,43.993,50.895,8.284,19.402,0.678,37.335,-2.4,-2.563,287.038,80.374,100035.611,30.702,115.358
湖北,黄石市,42.214,44.06,6.502,22.815,0.71,28.755,-2.022,-1.842,287.586,85.53,100778.965,29.925,115.034
湖南,娄底市,18.508,30.787,5.546,15.05,1.109,25.049,-1.118,-4.567,284.541,95.753,97712.683,27.715,111.632
湖南,岳阳市,34.713,47.369,7.27,14.542,0.744,37.39,-2.203,-3.85,287.222,90.159,100635.016,29.081,113.275
湖南,常德市,31.231,49.109,8.257,19.368,0.938,31.933,-1.447,-6.116,284.745,89.5,99927.271,29.271,111.524
湖南,张家界市,22.553,36.436,7.456,17.163,0.708,31.134,-3.684,-3.445,283.076,91.825,95915.26,29.379,110.526
湖南,怀化市,15.539,26.702,5.588,12.333,0.861,32.324,-2.456,-3.745,284.399,94.394,96789.219,27.535,110.071
湖南,株洲市,20.518,30.687,8.765,17.42,0.811,23.711,-1.156,-2.059,287.512,96.395,98356.188,27.109,113.513
湖南,永州市,19.956,30.424,6.721,16.635,0.859,25.002,-1.783,-2.861,287.107,95.406,96928.282,25.748,111.723
湖南,湘潭市,23.101,27.475,5.017,20.834,0.97,15.505,0.313,-5.048,286.522,96.272,100716.269,27.744,112.619
湖南,湘西土家族苗族自治州,20.951,30.889,4.805,14.043,0.745,27.813,-3.227,-2.276,283.254,94.085,95824.478,28.708,109.718
湖南,益阳市,28.062,43.588,5.501,15.015,1.073,30.942,-0.284,-5.028,284.836,95.778,99353.002,28.525,111.919
湖南,衡阳市,15.259,21.396,6.115,22.01,0.936,16.659,0.036,-4.222,287.119,96.163,100180.905,26.781,112.565
湖南,邵阳市,19.629,28.152,7.324,15.746,0.929,25.958,-2.546,-2.738,284.678,96.129,95423.598,26.893,110.881
湖南,郴州市,26.018,32.749,8.101,17.13,0.984,23.076,-0.172,-1.731,287.578,96.857,96075.388,25.769,113.109
湖南,长沙市,27.579,36.113,6.53,16.955,0.814,27.765,-0.522,-3.486,286.838,95.011,100110.16,28.235,113.159
甘肃,临夏回族自治州,26.089,41.159,16.244,17.552,0.509,51.92,-1.693,-0.607,267.854,85.098,77856.712,35.617,103.291
甘肃,兰州市,20.9,34.322,13.859,15.976,0.327,50.962,-2.006,-0.145,268.269,77.481,79587.335,36.359,103.633
甘肃,嘉峪关市,20.038,68.607,11.555,35.732,0.675,50.98,-3.29,1.705,266.802,40.25,82273.905,39.798,98.145
甘肃,天水市,25.525,45.094,9.113,13.023,0.392,44.91,-0.838,-3.303,271.136,84.182,83226.4,34.645,105.739
甘肃,定西市,23.136,37.035,9.235,8.834,0.333,54.815,-1.199,-1.903,267.351,87.167,77606.792,35.124,104.432
甘肃,平凉市,27.935,65.39,8.118,13.84,0.384,42.34,-0.034,-5.083,271.417,74.384,85181.205,35.304,106.644
甘肃,庆阳市,26.298,65.267,9.565,10.396,0.349,40.51,-0.017,-4.921,272.111,64.838,86515.008,36.149,107.596
甘肃,张掖市,9.987,16.725,3.116,4.026,0.231,60.745,0.457,-0.439,265.389,54.563,74938.213,38.94,99.855
甘肃,武威市,13.853,19.978,3.529,3.697,0.226,52.425,-0.922,-0.756,268.723,54.724,82047.095,38.163,103.073
甘肃,甘南藏族自治州,21.778,26.663,6.693,3.873,0.315,61.286,-1.317,-0.304,265.914,89.847,67528.709,34.331,102.768
甘肃,白银市,21.201,34.56,8.183,9.282,0.248,49.203,-0.704,-2.274,268.967,68.006,82099.144,36.59,104.646
甘肃,酒泉市,3.913,5.921,1.669,1.918,0.168,64.706,-0.985,-0.097,265.837,49.6,79612.025,40.236,96.062
甘肃,金昌市,15.133,28.46,8.197,5.427,0.262,53.961,-1.822,0.621,268.072,54.515,81194.99,38.44,102.048
甘肃,陇南市,23.82,34.9,9.857,9.675,0.415,46.407,-1.841,-4.521,272.135,84.825,82666.285,33.599,105.224
福建,三明市,22.017,29.984,10.421,13.435,0.481,42.519,-2.647,1.171,288.554,93.1,95513.455,26.29,117.395
福建,南平市,21.361,27.52,9.508,10.238,0.417,48.641,-1.801,0.859,288.267,91.048,96315.769,27.324,118.143
福建,厦门市,22.657,43.242,8.753,19.025,0.488,69.428,-4.998,-5.357,292.857,80.538,100702.615,24.642,118.11
福建,宁德市,26.783,34.99,7.774,14.974,0.439,48.025,-1.966,-0.753,287.876,91.094,95682.806,26.968,119.474
福建,泉州市,23.435,37.591,7.647,14.122,0.448,65.085,-4.06,-2.613,290.287,88.052,96951.561,25.201,118.249
福建,漳州市,24.227,41.803,8.66,14.689,0.479,70.309,-4.128,-2.887,291.628,84.376,98526.015,24.372,117.444
福建,福州市,22.647,34.61,6.511,17.627,0.448,58.251,-3.432,-2.888,289.844,90.344,97764.091,26.083,119.206
福建,莆田市,22.338,34.646,7.044,14.015,0.422,69.201,-4.1,-4.093,291.148,86.358,98499.28,25.445,118.864
福建,龙岩市,26.415,36.179,10.466,14.089,0.476,57.764,-2.314,1.104,290.638,84.863,95456.499,25.256,116.739
西藏,山南市,14.566,17.638,1.234,1.516,0.183,85.995,6.084,0.959,272.805,65.677,65983.543,28.295,92.274
西藏,拉萨市,5.85,8.944,0.404,1.844,0.177,82.971,9.408,0.79,267.097,46.281,56193.494,30.043,91.093
西藏,日喀则市,3.839,5.046,0.463,0.356,0.147,85.59,11.91,-1.604,265.073,45.65,55089.84,29.483,86.493
西藏,昌都市,6.853,8.569,0.67,0.552,0.172,82.391,4.726,5.942,266.731,69.41,58737.234,30.753,97.044
西藏,林芝市,11.105,12.056,1.125,1.553,0.162,85.37,1.682,3.885,270.87,84.238,66236.204,29.184,95.25
西藏,玉树藏族自治州,3.59,3.984,0.436,0.612,0.157,75.421,3.162,1.535,261.12,75.95,56845.705,34.196,94.317
西藏,那曲市,3.5,3.906,0.548,0.223,0.147,82.526,7.109,-0.565,261.755,62.263,55009.306,32.709,89.262
西藏,阿里地区,5.985,6.741,1.185,0.617,0.151,81.838,11.697,-1.737,259.712,54.69,54480.392,33.013,82.553
贵州,六盘水市,16.328,31.14,10.83,14.521,0.584,40.875,-1.565,1.261,284.286,87.252,83353.259,26.106,104.896
贵州,安顺市,14.818,30.147,8.895,12.981,0.596,35.419,-3.279,-2.558,285.935,84.39,88462.07,25.986,105.978
贵州,毕节市,15.574,28.181,8.172,16.739,0.67,36.264,-1.926,-1.148,281.458,91.535,83750.187,27.063,105.211
贵州,贵阳市,20.401,29.422,8.362,15.082,0.684,25.355,-2.289,-2.991,282.661,93.946,88590.143,26.845,106.71
贵州,遵义市,35.942,48.925,19.412,14.504,0.694,23.829,-1.936,-0.918,282.598,93.618,90853.239,28.167,107.102
贵州,铜仁市,22.272,36.663,13.778,12.273,0.817,25.819,-2.63,-2.094,282.708,95.83,93259.845,27.937,108.534
贵州,黔东南苗族侗族自治州,15.361,30.232,17.28,12.376,0.847,26.906,-2.046,-3.794,283.755,96.092,93071.789,26.495,108.574
贵州,黔南布依族苗族自治州,17.525,28.176,15.489,8.807,0.682,34.218,-2.328,-2.767,285.419,91.457,90710.916,26.0,107.265
贵州,黔西南布依族苗族自治州,22.56,40.261,11.926,8.61,0.535,46.209,-1.698,0.575,288.165,85.05,88813.423,25.256,105.467
辽宁,丹东市,64.958,94.743,24.86,33.091,1.137,19.468,1.379,-0.565,277.069,86.119,99452.381,40.554,124.376
辽宁,大连市,80.866,94.46,15.352,29.101,0.764,38.006,1.529,-2.605,280.278,77.938,101751.951,39.591,122.22
辽宁,抚顺市,49.194,77.719,18.201,25.292,0.893,26.524,3.557,1.152,274.862,88.613,97674.18,41.841,124.65
辽宁,朝阳市,30.15,42.985,11.962,12.805,0.562,44.946,1.457,-6.772,273.468,51.134,97410.101,41.545,120.053
辽宁,本溪市,55.097,83.86,20.678,28.494,1.067,22.358,2.784,0.897,274.954,90.413,97017.754,41.232,124.544
辽宁,沈阳市,33.315,50.376,10.196,15.439,0.546,43.021,2.934,-4.184,275.424,63.569,102069.285,42.081,123.159
辽宁,盘锦市,42.259,59.779,11.392,16.427,0.661,48.637,1.499,-5.165,276.919,54.969,102777.605,41.13,122.01
辽宁,营口市,63.125,79.202,12.488,21.687,0.718,42.323,1.407,-3.203,276.953,79.449,100395.199,40.395,122.478
辽宁,葫芦岛市,55.148,73.994,14.985,20.432,0.946,37.077,0.667,-5.516,276.687,52.277,100191.199,40.66,120.215
辽宁,辽阳市,48.327,71.831,13.429,23.88,0.866,36.637,2.515,-1.872,276.012,80.761,100626.075,41.153,123.261
辽宁,铁岭市,39.411,58.349,10.926,17.182,0.596,36.522,3.629,-2.264,274.406,72.889,100385.575,42.653,124.158
辽宁,锦州市,32.927,46.566,11.12,13.889,0.572,47.132,2.059,-6.041,275.914,47.248,101957.794,41.502,121.659
辽宁,阜新市,21.493,29.968,7.143,8.844,0.357,48.311,3.117,-6.99,273.627,49.018,100434.959,42.289,121.968
辽宁,鞍山市,58.562,78.606,14.161,23.308,0.852,37.411,2.274,-2.86,276.678,78.931,100675.989,40.731,123.007
重庆,重庆城区,42.066,62.368,16.414,23.962,0.752,18.84,-1.323,-1.094,284.475,84.39,95490.848,29.824,107.125
重庆,重庆郊县,41.863,63.988,21.178,15.221,0.744,25.73,-3.208,-0.674,281.797,88.828,91623.68,30.334,108.755
陕西,咸阳市,43.404,96.399,10.726,24.18,0.629,26.453,0.867,-3.854,276.425,70.206,92325.452,34.779,108.367
陕西,商洛市,50.21,83.997,11.847,18.975,0.629,33.505,1.234,-4.861,277.349,74.18,89994.156,33.64,109.889
陕西,安康市,47.244,70.194,18.427,16.348,0.767,30.336,-1.602,-3.011,278.547,79.31,90520.761,32.735,108.932
陕西,宝鸡市,28.274,54.455,7.724,17.297,0.394,34.85,-0.221,-4.722,272.91,81.184,87049.907,34.386,107.193
陕西,延安市,28.499,75.186,13.772,21.454,0.583,34.646,0.448,-5.776,273.164,62.345,88280.482,36.432,109.316
陕西,榆林市,15.586,39.438,12.437,22.04,0.546,32.121,0.241,-5.569,272.639,54.288,88710.146,38.041,109.581
陕西,汉中市,38.403,55.673,14.812,12.735,0.655,32.935,-1.729,-3.208,277.272,78.138,89571.771,33.088,107.098
陕西,渭南市,55.047,106.3,10.286,31.098,0.71,23.67,2.376,-2.504,278.976,62.759,94671.023,34.919,109.855
陕西,西安市,42.643,89.086,8.338,27.28,0.688,22.497,3.702,-0.931,275.827,79.675,91343.877,34.12,108.77
陕西,铜川市,41.627,89.72,12.932,23.549,0.576,30.596,0.343,-7.101,274.758,66.42,89905.342,35.198,109.058
青海,保亭黎族苗族自治县,15.952,25.136,2.024,5.92,0.368,46.916,-4.442,-0.298,295.716,91.634,97223.15,18.566,109.618
青海,吐鲁番市,13.428,24.882,2.508,3.42,0.272,68.865,-0.813,-0.541,268.939,20.126,91485.276,42.386,89.851
青海,果洛藏族自治州,2.893,3.221,0.34,0.784,0.129,70.112,1.638,1.035,261.959,85.423,59643.523,34.127,99.404
青海,海东市,26.564,37.656,17.921,17.71,0.45,50.251,-2.253,0.885,265.991,88.652,72932.175,36.347,102.34
青海,海北藏族自治州,7.331,9.946,3.358,3.573,0.205,70.264,1.921,-0.21,262.536,69.652,65198.261,37.775,100.288
青海,海南藏族自治州,5.821,6.996,1.851,1.837,0.174,70.81,0.082,-0.666,265.272,82.025,66378.632,35.89,100.272
青海,海西蒙古族藏族自治州,2.726,3.083,0.714,0.568,0.14,71.134,1.874,-0.252,263.117,63.642,64336.027,36.677,94.519
青海,西宁市,23.252,42.407,14.63,19.767,0.625,55.874,-0.93,0.947,264.619,90.086,69597.277,36.842,101.423
青海,黄南藏族自治州,11.215,12.756,3.687,3.505,0.254,68.242,-0.269,-0.906,264.425,89.428,65673.092,35.022,101.631
香港,香港特别行政区,17.565,29.52,4.695,9.9,0.31,85.235,-9.635,-0.51,296.25,87.655,101093.855,22.45,114.22
黑龙江,七台河市,36.637,60.927,11.287,31.425,0.681,22.374,3.565,3.121,272.275,78.575,98759.518,45.87,130.943
黑龙江,伊春市,21.229,31.058,7.731,9.467,0.486,37.864,3.341,0.807,268.713,82.229,97168.013,47.772,129.184
黑龙江,佳木斯市,41.137,56.561,9.407,20.9,0.557,26.547,1.435,3.207,271.261,82.144,100781.64,47.207,132.11
黑龙江,双鸭山市,34.899,50.397,10.432,19.406,0.525,28.032,1.333,4.309,272.182,79.677,100359.126,46.722,132.643
黑龙江,哈尔滨市,33.738,46.956,13.483,17.395,0.549,32.706,4.343,1.583,271.866,75.215,99212.671,45.634,127.964
黑龙江,大兴安岭地区,0.748,0.951,1.106,0.787,0.191,63.963,7.288,-2.927,258.227,59.584,95352.857,52.286,124.212
黑龙江,大庆市,12.568,17.857,5.754,7.559,0.286,51.289,5.553,-5.393,270.375,52.629,100807.703,46.327,124.687
黑龙江,牡丹江市,42.016,61.567,13.836,25.854,0.624,22.786,4.601,2.986,272.963,76.848,95957.568,44.592,129.883
黑龙江,绥化市,16.027,22.718,6.394,8.829,0.422,42.6,4.351,-1.906,269.554,72.893,99764.494,46.89,126.634
黑龙江,鸡西市,31.621,49.039,11.365,20.269,0.54,27.76,1.818,3.205,273.277,79.718,100128.309,45.626,132.289
黑龙江,鹤岗市,38.699,58.188,9.278,22.792,0.587,27.172,1.338,0.649,269.12,86.421,99706.011,47.661,130.778
黑龙江,黑河市,11.772,18.564,4.557,4.229,0.309,50.615,4.166,-2.525,265.827,75.139,97646.412,49.268,127.004
黑龙江,齐齐哈尔市,8.789,12.138,4.486,3.997,0.256,55.799,5.331,-5.214,268.384,53.974,99919.41,47.715,124.57
