province,city,PM2.5,PM10,SO2,NO2,CO,O3,U,V,TEMP,RH,PSFC,lat,lon
上海,上海市,54.66,67.757,10.614,47.974,0.863,44.465,-3.346,0.836,287.054,74.996,102365.483,31.173,121.42
云南,临沧市,19.16,23.79,5.375,5.635,0.511,55.799,4.442,1.998,287.477,64.988,84162.933,23.935,99.686
云南,丽江市,11.564,16.31,3.21,6.208,0.563,67.431,7.96,1.215,280.896,51.515,74630.696,26.96,100.515
云南,保山市,26.74,37.294,5.747,8.538,0.572,52.735,4.479,1.016,285.006,61.622,82100.967,24.953,98.962
云南,大理白族自治州,15.379,23.596,4.177,5.459,0.512,65.991,7.072,2.17,283.062,57.171,78238.111,25.726,100.053
云南,德宏傣族景颇族自治州,33.588,38.793,9.146,10.692,0.494,45.578,1.425,0.287,287.136,62.446,86351.254,24.535,98.052
云南,怒江傈僳族自治州,12.738,19.681,1.993,2.223,0.335,69.274,3.929,1.058,277.115,73.554,72874.89,26.916,98.885
云南,文山壮族苗族自治州,21.598,34.232,11.26,4.371,0.461,50.839,3.618,5.424,288.474,86.532,86748.211,23.696,104.735
云南,昆明市,14.994,24.04,8.215,13.388,0.541,55.773,10.301,5.479,285.324,64.632,79331.669,25.384,102.863
云南,昭通市,31.927,45.259,10.981,13.293,0.546,39.828,1.063,0.568,279.684,75.837,84190.126,27.667,103.985
云南,普洱市,16.564,23.364,5.372,6.012,0.333,50.407,3.012,2.233,289.544,72.105,86235.112,23.159,100.718
云南,曲靖市,12.276,20.131,8.478,8.462,0.368,56.683,9.909,5.309,286.071,61.36,80053.113,25.737,103.929
云南,楚雄彝族自治州,16.258,19.421,5.215,8.091,0.537,60.819,7.408,4.476,286.059,58.192,81113.329,25.328,101.567
云南,玉溪市,17.24,24.018,7.298,6.287,0.405,57.867,5.475,4.409,288.152,75.681,83687.354,24.136,102.217
云南,红河哈尼族彝族自治州,19.336,29.602,10.49,4.109,0.383,56.372,3.157,4.579,288.706,85.508,85399.398,23.451,103.034
云南,西双版纳傣族自治州,20.198,38.628,7.096,8.44,0.383,35.028,1.467,2.224,292.105,79.724,89231.986,21.939,100.912
云南,迪庆藏族自治州,8.203,10.058,1.768,1.868,0.294,75.489,7.318,1.26,273.449,73.856,67213.256,27.957,99.459
内蒙古,乌兰察布市,11.101,20.754,6.797,7.305,0.404,47.903,5.095,-1.854,266.77,49.207,86153.186,41.691,112.44
内蒙古,乌海市,16.951,41.925,19.886,22.408,0.615,53.458,6.175,-4.174,271.028,44.904,88282.869,39.396,106.856
内蒙古,兴安盟,4.542,6.205,2.611,2.118,0.215,55.046,4.995,-2.987,262.06,51.589,95218.872,46.244,121.341
内蒙古,包头市,7.146,13.046,3.143,5.196,0.247,48.07,4.372,-2.055,266.793,43.69,86202.293,41.549,110.276
内蒙古,呼伦贝尔市,2.408,3.17,2.9,1.931,0.199,55.506,5.986,-0.474,257.112,61.998,93637.462,49.636,121.171
内蒙古,呼和浩特市,23.683,53.132,12.138,24.21,0.701,37.801,4.436,-1.146,268.865,44.921,86559.051,40.578,111.513
内蒙古,巴彦淖尔市,4.921,7.612,2.121,1.726,0.181,49.934,5.343,-1.564,267.941,44.534,87763.25,41.446,107.582
内蒙古,赤峰市,12.526,20.547,7.514,6.795,0.315,48.227,2.812,-3.529,264.93,55.674,92307.941,43.226,118.892
内蒙古,通辽市,13.045,20.754,7.116,6.976,0.303,45.654,1.718,-3.478,266.798,45.872,98584.776,43.814,121.591
内蒙古,鄂尔多斯市,11.162,20.579,10.405,13.622,0.312,46.687,5.508,-2.842,270.773,42.174,87486.211,39.407,108.63
内蒙古,锡林郭勒盟,3.853,4.916,2.587,1.304,0.181,57.816,2.822,-1.736,262.682,60.047,89330.18,44.179,115.482
内蒙古,阿拉善盟,3.885,4.835,1.839,0.956,0.156,58.121,6.011,-3.458,269.374,45.503,88297.314,40.473,102.467
北京,北京市,34.935,63.792,7.585,37.709,0.636,26.231,0.702,-1.962,276.096,31.616,98411.532,40.158,116.395
台湾,台湾省,19.718,24.838,7.47,16.848,0.263,60.746,-1.995,-1.829,291.568,79.54,93399.567,23.757,120.975
吉林,吉林市,25.183,38.011,10.914,16.517,0.621,38.317,2.036,-0.605,267.084,65.99,97672.368,43.573,126.859
吉林,四平市,23.475,34.53,6.259,13.99,0.45,35.543,0.874,-2.733,268.294,44.198,100129.737,43.472,124.386
吉林,延边朝鲜族自治州,31.047,41.608,11.169,15.11,0.506,35.386,2.921,-0.169,266.493,76.277,94488.753,43.141,129.147
吉林,松原市,18.405,29.999,5.26,8.263,0.344,42.322,2.372,-1.948,266.115,38.459,100543.981,44.785,124.496
吉林,白城市,12.307,17.48,4.691,5.674,0.289,46.794,2.498,-2.289,265.689,37.6,100698.77,45.35,123.031
吉林,白山市,26.768,37.587,13.763,17.928,0.752,34.808,2.295,1.514,267.388,81.109,92524.423,42.063,127.256
吉林,辽源市,29.498,41.535,8.034,17.794,0.605,35.586,1.019,-1.664,268.311,66.211,98084.984,42.836,125.32
吉林,通化市,29.525,43.36,13.847,21.177,0.911,31.973,0.891,0.182,268.752,78.762,96162.805,41.939,125.927
吉林,长春市,22.989,37.437,7.548,17.01,0.514,36.029,2.282,-1.934,266.946,46.638,100017.386,44.268,125.611
四川,乐山市,48.183,57.988,9.413,15.234,0.519,39.042,-0.718,-0.242,279.932,72.851,89868.539,29.218,103.569
四川,内江市,35.02,50.511,6.825,24.759,0.721,25.614,-1.207,-1.978,283.479,66.672,97148.949,29.62,104.95
四川,凉山彝族自治州,16.502,19.867,5.477,8.149,0.51,62.416,6.306,2.969,280.316,50.798,74056.194,27.883,102.065
四川,南充市,39.485,59.479,8.563,23.361,0.746,30.298,-1.198,-1.461,282.354,72.79,97189.373,31.19,106.199
四川,宜宾市,36.949,50.971,12.825,25.102,0.68,25.027,0.241,-0.619,282.406,68.578,95461.342,28.573,104.621
四川,巴中市,43.846,60.837,9.6,12.409,0.654,46.395,-1.452,-0.919,280.378,70.993,92805.783,32.033,107.031
四川,广元市,36.272,54.355,9.802,16.543,0.558,30.645,-0.802,-0.273,279.831,72.227,91902.897,32.261,105.788
四川,广安市,32.482,54.021,8.565,27.527,0.755,17.898,-1.269,-1.848,283.272,70.326,97183.334,30.43,106.628
四川,德阳市,54.213,82.417,6.658,38.76,0.708,15.783,-0.978,0.264,281.14,69.143,93530.51,31.13,104.436
四川,成都市,44.036,69.919,7.519,33.903,0.613,24.854,-0.545,0.202,281.577,67.569,93676.303,30.64,103.929
四川,攀枝花市,24.821,38.168,13.707,30.587,1.231,44.483,5.813,4.317,287.145,40.236,81467.784,26.791,101.734
四川,泸州市,30.515,44.207,12.039,22.516,0.671,20.879,-0.404,-1.449,282.153,75.296,93776.132,28.424,105.675
四川,甘孜藏族自治州,2.857,3.206,0.433,1.467,0.133,72.548,5.773,-0.403,267.194,57.509,61053.792,30.936,100.009
四川,眉山市,42.688,58.347,7.517,20.935,0.567,34.039,-0.902,-0.169,281.932,68.809,94138.983,29.912,103.766
四川,绵阳市,43.92,61.575,7.514,23.367,0.551,28.858,-0.25,-0.091,278.643,69.989,88219.003,31.86,104.704
四川,自贡市,39.602,54.314,7.157,26.979,0.743,25.294,-1.146,-1.693,283.888,63.87,97118.733,29.307,104.659
四川,资阳市,31.319,48.065,7.037,22.205,0.675,26.094,-1.501,-1.507,283.05,70.314,97410.653,30.102,105.149
四川,达州市,46.265,68.827,11.224,20.8,0.792,41.122,-1.418,-0.862,281.629,71.214,94425.888,31.335,107.636
四川,遂宁市,29.96,50.203,7.389,24.68,0.708,25.383,-1.841,-1.44,282.924,70.692,97656.83,30.642,105.457
四川,阿坝藏族羌族自治州,3.832,4.604,0.528,2.661,0.158,65.194,5.427,-0.344,268.152,52.033,65366.885,32.406,102.61
四川,雅安市,41.15,47.731,8.375,9.301,0.38,54.522,-0.02,-0.368,276.334,74.158,80106.547,29.932,102.689
天津,天津市,79.7,113.182,15.404,60.342,1.195,15.834,-1.379,-1.314,277.61,34.323,102238.98,39.315,117.308
宁夏,中卫市,18.074,29.623,9.169,15.971,0.353,51.477,1.209,-3.634,270.855,42.345,84051.153,37.018,105.509
宁夏,吴忠市,18.799,31.665,14.158,16.708,0.369,51.324,2.049,-3.386,271.733,39.187,85624.55,37.454,106.577
宁夏,固原市,26.896,50.614,10.963,20.307,0.597,46.914,0.011,-3.002,270.413,48.624,81249.81,35.905,106.183
宁夏,石嘴山市,17.719,43.121,18.478,17.332,0.464,55.195,5.184,-4.278,271.283,42.277,87319.953,39.013,106.499
宁夏,银川市,23.753,54.724,24.912,25.68,0.611,51.013,2.455,-2.286,272.456,35.682,87662.476,38.287,106.342
安徽,亳州市,65.978,89.535,8.242,28.062,0.915,42.182,-0.82,2.561,282.816,70.252,102043.305,33.44,116.162
安徽,六安市,36.295,55.111,9.161,26.665,0.738,53.682,-1.65,1.137,283.951,66.094,99453.341,31.617,116.209
安徽,合肥市,52.149,68.1,8.816,40.469,0.911,41.255,-3.34,1.355,284.802,66.745,101899.776,31.766,117.359
安徽,安庆市,31.704,42.406,9.453,24.63,0.742,41.78,-1.274,-0.841,283.768,74.949,99899.115,30.557,116.473
安徽,宣城市,36.873,56.115,10.358,29.707,0.826,47.35,-3.208,2.788,284.49,69.854,99850.486,30.676,118.846
安徽,宿州市,76.726,103.235,10.413,35.204,1.092,41.747,-0.633,2.959,282.542,65.6,102021.727,33.844,117.23
安徽,池州市,25.419,36.372,9.417,20.143,0.693,36.698,-1.851,1.039,284.555,73.289,100050.773,30.296,117.379
安徽,淮北市,75.143,100.766,9.697,34.885,1.0,32.373,-0.794,3.085,282.626,69.836,102058.72,33.722,116.747
安徽,淮南市,58.727,80.217,10.335,37.311,0.918,40.815,-2.755,1.944,284.415,69.264,102081.401,32.463,116.746
安徽,滁州市,70.57,91.179,10.342,42.705,1.021,47.999,-2.575,1.507,283.83,63.792,101836.557,32.55,118.076
安徽,芜湖市,43.75,55.735,8.686,33.419,0.873,46.897,-3.434,1.174,285.395,66.85,102066.376,31.167,118.162
安徽,蚌埠市,73.647,96.17,11.578,35.373,1.033,43.19,-1.927,2.279,283.255,66.13,102096.195,33.121,117.263
安徽,铜陵市,34.169,47.747,8.187,32.933,0.807,37.524,-2.256,0.444,285.261,69.054,101901.766,30.883,117.531
安徽,阜阳市,56.872,79.125,7.835,24.502,0.879,48.777,-0.947,2.002,283.269,68.914,102009.728,32.937,115.723
安徽,马鞍山市,51.809,66.844,8.629,38.659,0.997,47.745,-3.856,1.508,284.969,64.348,102095.832,31.622,118.386
安徽,黄山市,19.978,34.517,10.091,16.825,0.71,34.836,-3.585,1.208,283.541,79.775,97802.455,29.869,118.09
山东,东营市,95.634,134.656,22.332,46.18,0.976,34.346,1.784,0.541,281.668,52.479,102270.99,37.57,118.572
山东,临沂市,117.859,169.518,13.438,52.412,1.268,35.637,1.757,2.845,280.774,60.296,100530.433,35.289,118.27
山东,威海市,38.23,69.269,10.852,24.402,0.799,77.903,3.614,2.058,282.749,50.781,101654.629,37.148,122.028
山东,德州市,97.567,136.478,14.303,43.32,0.9,37.933,0.96,1.537,281.409,47.816,102137.715,37.233,116.679
山东,日照市,129.139,188.427,14.982,62.85,1.334,41.859,3.407,3.117,280.921,53.999,100643.493,35.566,119.108
山东,枣庄市,93.509,138.319,11.96,44.075,1.088,31.8,-0.208,3.315,281.376,65.488,101271.908,34.925,117.383
山东,泰安市,100.147,146.359,13.533,44.854,1.094,40.975,0.696,3.255,280.436,60.627,100373.065,35.993,117.04
山东,济南市,100.37,142.75,17.032,43.893,0.978,44.964,1.465,3.253,280.769,53.764,100322.1,36.639,117.254
山东,济宁市,74.99,116.275,10.795,38.833,1.033,40.32,0.338,3.964,281.744,60.342,101687.263,35.375,116.697
山东,淄博市,107.879,151.301,23.599,47.578,1.117,40.896,3.425,3.157,280.889,52.387,99693.46,36.623,118.062
山东,滨州市,100.867,133.352,19.834,43.14,0.933,39.712,1.752,0.918,281.615,50.904,102213.553,37.516,117.852
山东,潍坊市,104.098,154.13,19.806,51.203,1.188,46.338,3.317,2.438,281.79,48.986,101174.455,36.53,119.092
山东,烟台市,59.511,102.484,14.327,39.832,1.057,55.865,2.954,2.132,281.138,55.441,101145.17,37.25,120.789
山东,聊城市,94.83,131.95,11.183,43.256,0.971,34.907,0.577,2.036,281.837,47.409,101910.038,36.458,115.863
山东,菏泽市,69.52,94.103,9.425,33.859,0.951,39.299,1.392,3.472,282.061,55.607,101808.932,35.134,115.69
山东,青岛市,88.361,138.959,16.402,52.94,1.26,52.381,3.307,2.175,281.908,51.155,101765.589,36.46,120.172
山西,临汾市,72.777,107.281,28.903,48.039,1.805,27.215,1.054,-2.114,276.163,44.473,90461.109,36.227,111.398
山西,吕梁市,35.91,72.306,23.836,30.333,0.836,35.383,2.442,-2.091,273.645,38.983,88052.555,37.663,111.27
山西,大同市,24.726,50.723,20.262,22.513,0.846,36.147,5.404,-1.249,270.962,41.556,87461.089,39.911,113.713
山西,太原市,42.935,91.811,23.594,39.807,0.804,32.436,3.714,-2.044,274.263,31.403,87883.936,37.967,112.321
山西,忻州市,32.214,64.13,21.18,29.115,0.594,35.226,4.452,-1.544,271.055,38.267,86352.511,38.877,112.391
山西,晋中市,57.489,106.941,31.166,57.814,1.181,24.064,2.08,-0.564,275.129,37.348,88825.797,37.328,112.997
山西,晋城市,66.75,111.658,21.65,50.083,1.699,22.218,0.567,-1.485,277.425,38.844,90805.489,35.625,112.752
山西,朔州市,27.827,66.992,26.909,31.267,0.706,34.618,6.018,-1.073,270.445,43.566,86823.523,39.619,112.655
山西,运城市,98.629,151.49,24.822,53.773,2.035,14.805,1.047,-1.223,278.727,43.18,94736.658,35.205,111.071
山西,长治市,58.938,106.506,27.703,55.804,1.441,22.101,0.777,-0.337,275.76,39.915,89117.681,36.48,112.915
山西,阳泉市,60.626,108.223,31.859,58.937,0.999,23.013,4.447,-1.213,275.65,30.068,90745.62,38.031,113.512
广东,东莞市,28.777,48.469,9.118,36.844,0.846,31.818,-4.808,-1.444,293.807,69.888,101602.45,22.931,113.81
广东,中山市,31.116,56.944,11.063,50.06,0.886,23.229,-5.063,-2.298,294.234,75.921,101586.006,22.5,113.383
广东,云浮市,34.896,59.051,14.345,40.173,0.944,16.148,-4.322,-0.911,291.379,75.041,99573.287,22.776,111.818
广东,佛山市,35.128,65.615,12.337,51.177,1.027,5.389,-2.376,-3.263,292.626,69.251,101665.411,23.035,112.979
广东,广州市,29.025,46.898,9.828,33.876,0.841,22.634,-3.037,-1.885,292.736,69.497,100758.351,23.339,113.525
广东,惠州市,20.4,33.855,10.683,15.735,0.697,48.055,-4.053,-2.057,292.556,72.943,99783.898,23.244,114.485
广东,揭阳市,26.232,41.629,13.113,20.323,0.84,57.686,-5.262,-3.074,292.882,77.326,100420.692,23.323,116.123
广东,梅州市,22.077,37.276,13.259,18.195,0.827,38.883,-3.125,-0.567,291.222,75.342,98394.843,24.169,116.07
广东,汕头市,20.294,36.227,11.71,16.868,0.7,68.486,-6.554,-4.763,293.658,77.499,101546.569,23.339,116.614
广东,汕尾市,23.128,37.403,12.335,15.589,0.72,60.195,-5.81,-3.195,293.237,77.981,100117.751,23.024,115.527
广东,江门市,36.841,61.187,13.299,46.073,0.906,21.949,-4.577,-2.992,293.767,76.491,101005.534,22.289,112.676
广东,河源市,21.788,35.661,14.73,15.581,0.775,38.941,-2.062,-2.099,290.54,74.045,98583.437,24.021,114.969
广东,深圳市,23.18,44.817,8.001,31.503,0.751,43.103,-5.954,-2.278,293.737,75.56,101102.599,22.667,114.143
广东,清远市,24.857,36.711,13.024,17.563,0.728,25.187,-1.815,-2.65,288.168,80.136,98095.375,24.295,112.871
广东,湛江市,25.415,40.125,9.247,11.737,0.687,72.565,-6.313,0.116,296.649,79.638,101307.139,21.091,110.163
广东,潮州市,20.242,35.816,11.401,17.119,0.758,57.101,-6.253,-3.8,292.254,75.642,99869.224,23.755,116.754
广东,珠海市,26.155,46.008,11.428,31.8,0.678,42.965,-5.873,-3.048,295.008,81.237,101633.472,22.095,113.317
广东,肇庆市,29.802,47.822,14.168,25.554,0.79,18.71,-4.104,-2.278,290.369,73.234,99708.411,23.505,112.199
广东,茂名市,29.691,48.208,12.062,18.384,0.789,54.641,-5.624,-0.048,294.646,74.875,99559.131,22.013,110.952
广东,阳江市,37.615,57.507,13.139,31.183,0.853,37.143,-4.297,-2.927,293.361,77.172,100136.458,22.042,111.786
广东,韶关市,21.22,29.069,11.144,14.374,0.81,31.97,-1.99,-1.585,287.212,80.873,97332.682,24.785,113.819
广西,北海市,33.552,47.361,15.013,15.436,1.017,53.249,-3.471,-1.471,295.381,75.54,101374.089,21.674,109.37
广西,南宁市,24.683,37.765,9.563,14.555,0.875,20.392,-1.641,-3.375,288.435,87.713,99640.116,23.051,108.469
广西,崇左市,30.77,46.501,13.031,11.188,0.782,28.519,-1.792,-1.841,288.054,91.618,98321.271,22.483,107.291
广西,来宾市,23.637,34.199,9.907,10.987,0.719,24.316,-1.577,-2.531,287.61,88.436,98478.134,23.859,109.417
广西,柳州市,21.904,32.486,12.136,9.114,0.62,33.54,-1.479,-2.705,285.814,88.353,97898.681,24.956,109.372
广西,桂林市,23.706,34.615,10.352,12.21,0.631,37.326,-2.082,-1.564,285.055,88.349,96265.641,25.353,110.513
广西,梧州市,25.117,44.515,14.791,17.331,0.835,23.413,-4.236,-1.115,290.712,76.913,99295.251,23.484,110.996
广西,河池市,23.576,31.532,12.647,5.615,0.599,32.644,-2.302,-0.108,285.218,92.028,95484.984,24.628,107.843
广西,玉林市,29.343,47.11,13.802,17.06,1.002,37.508,-3.124,-0.898,293.854,75.897,99628.8,22.452,110.164
广西,百色市,24.874,38.895,13.635,6.484,0.581,37.406,-1.684,2.299,286.937,92.601,93308.123,23.981,106.292
广西,贵港市,24.633,41.577,13.035,13.502,0.854,21.629,-3.215,-3.588,290.796,76.76,100131.73,23.322,110.021
广西,贺州市,20.344,37.06,14.873,11.757,0.678,28.967,-2.567,-1.668,288.154,84.127,97496.222,24.364,111.394
广西,钦州市,26.479,41.061,12.098,16.17,1.045,24.109,-1.487,-4.368,292.128,77.61,100709.16,22.173,109.01
广西,防城港市,32.04,46.998,11.873,16.637,0.912,20.196,-0.764,-4.148,289.835,87.23,99116.674,21.88,108.002
新疆,乌鲁木齐市,25.008,38.6,2.644,16.78,0.507,61.762,-0.236,-0.028,266.735,45.305,84931.379,43.746,87.818
新疆,五家渠市,32.587,49.303,3.703,13.637,0.57,55.787,-5.503,-0.157,270.9,64.293,97923.653,44.363,87.517
新疆,伊犁哈萨克自治州,10.606,13.267,3.147,8.469,0.481,66.444,-0.822,2.087,268.991,40.91,80702.405,43.438,82.146
新疆,克孜勒苏柯尔克孜自治州,4.816,9.977,0.937,2.289,0.22,70.064,3.869,0.115,266.739,55.161,70631.669,39.661,75.949
新疆,克拉玛依市,14.788,22.054,4.262,9.149,0.447,52.045,-3.903,-3.729,267.965,74.051,98935.039,45.457,85.207
新疆,北屯市,7.35,8.154,9.374,11.308,1.174,13.83,-2.584,1.48,263.226,74.144,97018.41,47.27,87.868
新疆,博尔塔拉蒙古自治州,18.153,22.844,5.645,7.099,0.406,59.823,-0.043,1.476,266.458,57.327,86973.177,44.714,82.114
新疆,双河市,29.518,38.436,9.59,9.594,0.46,44.356,-0.254,0.152,269.312,74.492,99380.972,44.87,82.474
新疆,可克达拉市,39.396,52.876,12.054,34.818,1.528,42.552,-8.096,1.65,275.62,41.522,95495.192,43.918,80.786
新疆,和田地区,5.318,7.754,1.113,1.264,0.188,67.936,2.388,-0.05,269.493,43.484,74343.427,37.059,80.934
新疆,哈密市,4.579,6.333,2.685,1.374,0.194,64.869,2.186,-1.27,267.304,48.036,89241.751,43.042,93.517
新疆,喀什地区,11.085,17.611,2.387,3.499,0.25,64.549,2.541,0.599,270.138,48.949,76543.216,38.125,77.178
新疆,图木舒克市,15.323,18.71,4.377,2.813,0.237,46.417,-5.215,-2.825,274.623,54.343,90071.08,39.892,79.182
新疆,塔城地区,11.841,15.115,4.513,6.707,0.419,60.812,-1.211,0.849,266.146,64.048,90509.01,45.642,84.789
新疆,巴音郭楞蒙古自治州,6.758,8.107,1.058,0.79,0.147,63.3,1.327,-0.605,268.194,44.483,79735.182,39.463,87.481
新疆,新星市,10.255,18.29,3.58,4.945,0.39,45.125,-3.915,1.625,270.72,41.54,93949.685,42.75,93.68
新疆,昆玉市,21.953,44.713,8.637,9.32,0.67,54.857,0.62,-0.697,278.987,34.857,87529.42,37.457,79.093
新疆,昌吉回族自治州,14.98,22.006,3.074,6.799,0.357,62.39,-1.115,0.487,267.789,57.619,90907.926,44.342,88.608
新疆,石河子市,67.315,84.325,8.685,34.45,0.88,39.21,-3.69,0.225,270.15,64.81,95879.65,44.245,86.035
新疆,胡杨河市,17.66,22.194,3.82,8.72,0.434,50.858,-5.574,-3.304,269.198,78.468,99367.456,44.852,84.772
新疆,铁门关市,25.463,71.337,5.773,18.323,0.527,49.843,-3.517,0.613,274.377,33.517,92775.207,41.773,85.66
新疆,阿克苏地区,15.674,30.406,2.83,4.156,0.281,55.551,-2.017,-1.034,271.91,47.239,86009.627,40.965,81.578
新疆,阿勒泰地区,4.178,4.642,3.926,2.781,0.383,60.347,-3.162,1.185,262.334,60.079,89440.255,46.902,88.421
新疆,阿拉尔市,30.468,66.413,3.794,8.583,0.464,42.393,-4.41,-1.931,273.728,55.255,91016.96,40.629,80.998
江苏,南京市,63.354,86.212,10.106,45.549,1.051,46.089,-2.934,1.433,284.749,63.027,102172.796,31.899,118.876
江苏,南通市,65.579,83.725,15.425,34.855,0.815,56.402,-2.336,1.159,286.268,66.042,102374.62,32.201,120.979
江苏,宿迁市,85.4,112.94,9.748,39.535,1.223,44.615,-0.508,1.818,283.166,60.412,102309.548,33.765,118.495
江苏,常州市,61.318,86.76,11.906,53.131,1.117,41.97,-2.914,1.813,285.819,66.479,102235.886,31.613,119.666
江苏,徐州市,83.949,113.708,10.07,38.186,1.111,40.955,-0.047,3.024,282.092,63.805,102025.483,34.363,117.513
江苏,扬州市,78.256,106.241,10.902,44.698,1.088,48.62,-1.944,0.942,284.382,62.626,102360.763,32.709,119.486
江苏,无锡市,60.869,89.856,12.384,56.898,1.15,35.191,-3.01,1.772,286.157,69.052,102148.574,31.546,120.066
江苏,泰州市,73.697,101.578,12.644,44.705,1.028,50.095,-2.068,0.968,284.964,64.753,102330.137,32.605,120.048
江苏,淮安市,82.054,114.121,9.666,39.259,1.214,47.287,-1.244,1.248,283.493,59.589,102310.823,33.362,118.985
江苏,盐城市,77.924,104.268,13.622,34.729,0.906,58.131,-0.223,1.145,284.076,59.878,102391.903,33.529,120.156
江苏,苏州市,62.128,85.984,12.132,56.402,0.998,36.218,-3.322,1.351,286.778,73.074,102319.947,31.374,120.661
江苏,连云港市,103.152,130.301,12.426,49.611,1.177,38.589,0.546,1.94,282.149,57.018,102205.939,34.519,119.133
江苏,镇江市,68.497,92.731,11.205,54.119,1.116,42.104,-2.545,1.426,285.241,64.779,102221.304,32.016,119.49
江西,上饶市,24.08,33.859,12.059,17.913,0.681,22.386,-2.888,-0.376,284.895,81.907,99875.004,28.778,117.47
江西,九江市,28.63,40.216,11.28,19.54,0.668,25.807,-2.162,-0.553,283.642,84.983,99832.413,29.313,115.444
江西,南昌市,21.666,33.14,10.229,23.609,0.759,18.137,-1.334,-0.489,284.934,84.748,101752.906,28.671,116.016
江西,吉安市,19.909,33.153,13.176,14.572,0.796,32.569,-1.122,-1.248,284.052,90.835,99410.077,26.954,114.831
江西,宜春市,24.43,38.076,12.512,22.318,0.755,24.039,-1.771,-1.035,283.4,88.613,99783.396,28.29,114.974
江西,抚州市,24.294,34.491,13.889,15.289,0.643,27.237,-1.526,-0.587,284.705,89.804,99415.533,27.514,116.42
江西,新余市,24.698,39.979,16.422,30.198,0.92,19.799,-1.299,-1.341,283.701,89.984,100735.056,27.847,114.836
江西,景德镇市,19.745,30.959,12.431,16.139,0.685,22.229,-2.357,-0.715,284.61,80.337,100736.339,29.287,117.24
江西,萍乡市,21.246,35.095,13.387,20.425,0.873,26.434,-2.801,-0.001,283.694,88.447,98381.198,27.505,113.908
江西,赣州市,20.128,30.269,12.219,11.557,0.881,33.844,-0.926,-1.731,285.878,88.281,97688.62,25.692,115.279
江西,鹰潭市,29.113,35.931,13.315,22.126,0.694,16.758,-2.501,-0.627,284.975,84.894,100395.589,28.222,117.094
河北,保定市,52.525,92.035,12.732,51.529,0.802,20.083,0.75,-1.751,277.293,29.278,98384.41,39.018,115.159
河北,唐山市,69.995,110.136,23.073,50.018,1.298,17.497,-1.391,-2.681,277.082,36.381,101719.048,39.731,118.354
河北,廊坊市,72.011,121.145,11.612,64.837,1.13,17.24,-1.425,-1.532,277.563,29.13,102287.235,39.267,116.632
河北,张家口市,15.095,28.801,6.569,10.784,0.387,45.664,4.053,-2.562,269.345,47.325,87894.091,40.877,115.042
河北,承德市,21.155,35.055,7.065,17.041,0.521,39.552,2.27,-2.882,269.65,45.951,91311.53,41.339,117.578
河北,沧州市,87.494,133.889,15.105,55.4,1.094,21.995,-0.26,-1.255,279.612,38.078,102273.393,38.258,116.744
河北,石家庄市,81.023,140.162,21.351,64.69,1.111,19.064,0.938,-1.814,278.921,27.188,98946.437,38.135,114.407
河北,秦皇岛市,55.758,89.037,19.241,36.31,1.193,22.687,-0.564,-3.868,275.039,38.307,99349.222,40.12,119.193
河北,衡水市,88.858,146.469,14.763,56.909,1.112,19.912,-0.394,-0.989,280.001,33.282,102133.224,37.755,115.813
河北,邢台市,91.249,154.458,20.488,60.782,1.275,20.499,0.28,-1.877,280.9,30.513,100587.965,37.195,114.815
河北,邯郸市,88.518,143.676,19.883,58.294,1.304,18.591,1.163,-1.141,281.305,34.715,100081.355,36.538,114.596
河南,三门峡市,60.555,89.862,9.095,37.57,0.884,22.79,2.712,-0.324,277.775,52.53,92268.745,34.362,111.101
河南,信阳市,47.197,65.377,10.159,22.855,0.705,57.403,-0.497,0.733,283.755,63.114,100994.9,32.091,114.907
河南,南阳市,45.989,64.845,9.973,30.414,0.726,37.596,-0.006,-0.186,281.401,57.213,98835.342,33.034,112.323
河南,周口市,65.626,77.593,10.302,32.934,0.912,42.6,0.756,2.752,282.278,58.466,101770.149,33.738,114.884
河南,商丘市,74.484,89.195,8.595,30.996,0.93,40.729,0.658,3.6,282.274,62.215,101859.952,34.277,115.718
河南,安阳市,78.639,119.322,17.343,55.535,1.263,17.672,1.132,-1.135,281.47,36.247,99669.387,35.888,114.318
河南,平顶山市,53.365,74.631,11.302,38.377,0.763,26.027,1.946,0.07,281.944,49.122,99491.262,33.8,113.025
河南,开封市,73.35,85.031,12.479,42.156,0.804,23.205,1.521,2.494,281.696,53.13,101475.368,34.594,114.514
河南,新乡市,75.375,108.063,16.03,57.054,1.122,16.578,0.306,-0.442,281.689,41.947,100502.801,35.256,114.111
河南,洛阳市,55.642,80.882,9.778,33.764,0.795,25.255,2.716,-0.619,279.914,48.691,94700.403,34.274,112.019
河南,济源市,64.192,102.74,16.015,48.086,1.371,15.51,0.112,-2.03,280.992,34.394,96592.455,35.105,112.445
河南,漯河市,61.275,80.91,10.992,40.87,0.843,31.63,1.636,2.062,282.248,53.309,101593.67,33.652,113.945
河南,濮阳市,84.581,109.776,10.781,42.657,1.003,31.319,1.154,2.344,281.831,49.418,101767.609,35.809,115.283
河南,焦作市,69.391,115.529,19.028,61.658,1.508,10.353,-0.297,-1.248,282.596,33.42,100293.996,35.121,113.163
河南,许昌市,61.001,80.631,12.975,48.173,0.851,17.51,1.817,1.322,281.903,51.48,100879.98,34.075,113.707
河南,郑州市,67.071,94.9,14.828,59.587,0.965,9.272,1.536,0.475,281.816,44.675,99515.435,34.634,113.438
河南,驻马店市,50.597,69.197,8.063,32.268,0.762,49.805,0.469,1.607,282.439,58.329,101289.464,32.925,114.174
河南,鹤壁市,80.938,122.071,17.107,59.014,1.272,13.381,1.257,-1.438,281.789,36.627,100870.524,35.716,114.319
浙江,丽水市,25.57,37.403,9.061,22.247,0.637,30.745,-3.192,2.028,283.62,88.44,95105.851,28.194,119.51
浙江,台州市,33.518,48.59,9.99,28.085,0.72,32.47,-2.086,-1.94,286.166,83.57,99499.435,28.742,121.109
浙江,嘉兴市,52.965,76.536,10.056,51.448,0.961,32.419,-2.701,0.445,286.202,76.505,102317.192,30.635,120.754
浙江,宁波市,43.434,59.8,10.955,44.238,0.832,32.296,-1.948,-0.661,286.795,80.771,101057.403,29.706,121.49
浙江,杭州市,35.687,60.685,10.136,36.744,0.905,31.124,-2.73,0.384,284.145,76.409,99307.839,29.891,119.464
浙江,温州市,27.23,43.075,9.518,32.438,0.76,24.064,-1.962,-2.469,285.597,86.763,98264.681,27.897,120.411
浙江,湖州市,49.495,79.069,11.679,48.737,1.009,37.62,-2.572,1.967,285.0,70.526,100994.281,30.757,119.871
浙江,绍兴市,41.331,59.261,9.344,43.148,0.932,26.159,-2.457,0.833,285.516,76.61,100181.009,29.709,120.64
浙江,舟山市,32.2,44.2,11.008,6.738,0.51,60.435,-4.77,-0.312,288.718,74.57,102093.635,30.038,122.23
浙江,衢州市,23.048,36.104,9.891,22.887,0.705,27.515,-3.119,-0.205,284.758,81.131,98468.515,28.912,118.675
浙江,金华市,30.157,45.228,8.398,32.116,0.805,25.7,-3.357,1.279,284.965,79.308,98779.378,29.109,119.967
海南,万宁市,18.622,30.231,3.774,2.422,0.35,70.346,-4.303,-2.12,297.016,91.732,100239.296,18.842,110.294
海南,三亚市,16.561,27.216,4.354,4.807,0.404,53.874,-6.149,-1.344,297.186,82.999,98976.717,18.413,109.407
海南,东方市,24.782,32.965,6.845,4.039,0.343,67.797,-1.022,-0.396,297.448,80.58,99612.845,18.971,108.838
海南,临高县,17.911,31.95,7.151,5.881,0.473,59.476,-5.214,0.891,297.717,82.517,100813.846,19.821,109.733
海南,乐东黎族自治县,19.107,27.372,4.259,3.438,0.329,57.378,-3.649,-0.442,296.802,82.048,98094.049,18.659,109.072
海南,五指山市,20.112,29.646,4.356,3.252,0.348,56.424,-5.116,-0.018,294.674,88.602,94911.792,18.81,109.518
海南,儋州市,22.675,35.383,6.986,5.116,0.437,59.441,-4.298,0.808,297.464,83.896,100459.666,19.568,109.399
海南,定安县,14.623,28.538,4.2,4.298,0.498,59.06,-4.522,-0.247,297.268,86.675,100525.428,19.47,110.28
海南,屯昌县,17.39,31.05,4.92,4.454,0.48,58.248,-3.814,0.166,296.55,89.348,99743.466,19.342,110.076
海南,文昌市,15.337,27.773,3.848,1.828,0.394,69.524,-5.991,-0.945,297.645,87.765,101308.558,19.707,110.773
海南,昌江黎族自治县,25.17,34.533,7.263,3.922,0.368,68.163,-2.65,-0.453,296.601,85.351,98604.44,19.233,109.016
海南,海口市,13.78,27.689,5.021,4.377,0.486,61.778,-5.606,-0.263,297.709,84.748,101106.987,19.842,110.393
海南,澄迈县,15.426,30.207,5.706,5.907,0.531,56.466,-4.786,0.519,297.487,84.083,100647.833,19.676,109.989
海南,琼中黎族苗族自治县,21.759,34.143,5.045,3.807,0.419,56.613,-3.632,0.183,295.327,92.241,97559.54,19.087,109.847
海南,琼海市,15.847,27.935,3.773,2.507,0.392,67.988,-4.255,-1.242,297.473,89.142,101077.122,19.22,110.43
海南,白沙黎族自治县,22.305,33.01,5.85,3.204,0.385,61.795,-3.572,0.795,295.844,87.894,97260.501,19.2,109.388
海南,陵水黎族自治县,19.323,30.36,3.859,2.959,0.369,60.271,-4.353,-2.753,296.904,88.504,99554.953,18.581,109.913
湖北,仙桃市,34.107,55.394,8.588,33.445,0.91,25.953,-1.408,-0.148,283.236,80.511,101986.914,30.284,113.417
湖北,十堰市,25.551,43.139,11.036,11.18,0.497,41.372,0.724,-1.032,280.193,63.244,93828.917,32.462,110.476
湖北,咸宁市,30.49,47.248,10.589,19.698,0.773,31.045,-1.82,1.004,283.462,83.157,100045.762,29.621,114.178
湖北,天门市,36.575,70.197,8.153,39.922,1.158,22.817,-1.46,-0.472,282.599,76.715,101948.64,30.633,113.053
湖北,孝感市,35.799,55.787,10.466,36.324,0.963,30.336,-0.969,0.988,283.343,72.285,101345.414,31.116,113.869
湖北,宜昌市,35.848,52.79,15.252,21.846,0.644,34.619,0.002,0.484,281.188,68.876,94642.723,30.746,111.129
湖北,恩施土家族苗族自治州,32.554,55.014,15.471,8.249,0.621,30.003,0.227,0.76,279.784,79.529,89963.109,30.195,109.552
湖北,武汉市,38.235,52.254,10.724,38.231,0.979,24.729,-1.703,1.01,284.237,77.36,101890.977,30.606,114.349
湖北,潜江市,40.898,78.557,11.427,41.363,1.2,22.904,-1.199,-0.417,282.512,75.356,101948.877,30.33,112.77
湖北,神农架林区,25.929,36.5,12.218,3.998,0.354,57.388,0.843,0.129,276.386,81.372,83223.536,31.592,110.49
湖北,荆州市,33.838,60.621,15.268,32.295,0.96,30.931,-0.482,-0.14,283.286,70.733,101695.413,30.01,112.512
湖北,荆门市,44.616,71.896,14.523,40.718,1.019,36.63,-0.557,1.158,282.771,67.959,100891.507,31.059,112.616
湖北,襄阳市,44.017,59.618,13.121,26.352,0.662,40.68,0.429,0.48,282.046,60.614,98058.19,31.919,111.96
湖北,鄂州市,30.761,47.173,9.879,33.214,0.966,25.847,-2.439,0.856,283.987,82.187,101942.733,30.337,114.794
湖北,随州市,40.887,61.089,10.293,31.54,0.859,49.065,-0.161,2.066,282.515,65.558,100180.343,31.809,113.43
湖北,黄冈市,31.5,44.639,12.064,22.947,0.783,41.955,-1.634,0.494,283.682,73.708,100158.764,30.702,115.358
湖北,黄石市,30.58,45.41,11.411,27.593,0.83,25.073,-2.773,0.551,283.79,85.664,100920.165,29.925,115.034
湖南,娄底市,19.039,27.99,5.975,20.317,1.066,24.547,-1.118,-0.495,283.015,79.893,97785.791,27.715,111.632
湖南,岳阳市,32.657,50.384,11.411,20.494,0.811,30.155,-1.371,-0.121,283.993,79.522,100757.093,29.081,113.275
湖南,常德市,21.107,37.928,10.491,21.448,0.925,25.376,-0.171,-0.386,282.903,68.432,99946.881,29.271,111.524
湖南,张家界市,17.611,34.604,11.376,14.092,0.656,22.484,-0.421,0.351,281.356,68.277,95879.309,29.379,110.526
湖南,怀化市,21.818,36.081,9.759,11.936,0.698,30.625,-0.665,-1.411,282.248,79.533,96843.398,27.535,110.071
湖南,株洲市,21.645,33.243,11.604,18.39,0.829,26.702,-1.779,-0.319,284.551,87.308,98509.909,27.109,113.513
湖南,永州市,23.73,34.427,7.793,14.073,0.726,33.818,-1.573,-1.334,284.754,86.739,97054.065,25.748,111.723
湖南,湘潭市,22.805,27.645,6.13,30.968,1.025,12.996,-0.71,-1.93,284.533,79.669,100857.332,27.744,112.619
湖南,湘西土家族苗族自治州,24.957,43.189,7.512,13.127,0.645,22.436,-0.687,-0.308,281.284,72.019,95809.391,28.708,109.718
湖南,益阳市,26.838,44.836,9.923,16.92,1.032,29.398,-0.369,-1.235,283.05,77.534,99421.933,28.525,111.919
湖南,衡阳市,22.449,30.207,7.896,22.129,0.921,21.287,-0.65,-2.079,284.666,84.484,100336.917,26.781,112.565
湖南,邵阳市,26.919,33.688,8.835,14.291,0.837,34.296,-1.378,-0.582,282.752,84.978,95486.429,26.893,110.881
湖南,郴州市,19.77,29.144,7.673,14.159,0.799,31.332,-0.557,-0.369,285.145,87.823,96213.047,25.769,113.109
湖南,长沙市,26.221,35.566,9.629,23.895,0.893,22.597,-1.585,-0.594,284.203,80.98,100252.895,28.235,113.159
甘肃,临夏回族自治州,32.106,53.709,18.936,26.776,1.004,51.26,0.005,-1.833,270.397,52.514,77661.351,35.617,103.291
甘肃,兰州市,25.789,43.031,13.11,21.692,0.608,50.11,-2.62,-2.911,269.51,48.044,79366.497,36.359,103.633
甘肃,嘉峪关市,18.853,45.587,10.033,15.417,0.403,53.45,5.005,-3.545,265.978,64.707,82275.522,39.798,98.145
甘肃,天水市,34.786,60.925,10.893,19.307,0.763,39.162,-0.72,-0.401,273.933,55.209,82934.72,34.645,105.739
甘肃,定西市,27.717,47.918,8.676,15.888,0.695,52.891,0.542,-2.338,271.101,51.618,77393.755,35.124,104.432
甘肃,平凉市,34.279,64.45,10.563,23.826,0.749,39.83,-0.383,-3.247,273.21,47.833,84880.031,35.304,106.644
甘肃,庆阳市,22.546,36.166,9.981,14.528,0.47,51.732,-0.057,-4.588,273.275,43.282,86223.784,36.149,107.596
甘肃,张掖市,9.471,16.435,3.125,5.433,0.241,57.965,4.778,-1.854,262.703,60.965,74862.242,38.94,99.855
甘肃,武威市,11.094,16.878,3.629,4.588,0.27,53.856,2.717,-2.897,268.453,48.227,81878.171,38.163,103.073
甘肃,甘南藏族自治州,2.258,3.186,0.766,1.967,0.187,68.362,6.592,-0.6,267.388,50.555,67560.781,34.331,102.768
甘肃,白银市,22.291,36.204,7.894,15.06,0.447,51.138,-0.72,-4.431,270.118,46.075,81872.368,36.59,104.646
甘肃,酒泉市,3.789,5.027,1.526,1.184,0.152,62.782,4.817,-1.139,264.554,58.917,79610.209,40.236,96.062
甘肃,金昌市,9.706,18.141,4.319,6.216,0.259,56.927,3.988,-3.212,267.833,48.425,81066.474,38.44,102.048
甘肃,陇南市,25.786,39.307,9.241,12.671,0.495,39.28,-0.885,-0.747,275.452,60.124,82423.849,33.599,105.224
福建,三明市,19.65,29.749,12.885,16.487,0.702,28.475,-3.244,0.182,285.996,91.574,95645.643,26.29,117.395
福建,南平市,21.034,29.61,13.035,13.591,0.588,33.509,-2.416,0.289,284.969,87.633,96466.011,27.324,118.143
福建,厦门市,16.693,34.7,7.447,22.147,0.638,47.35,-5.25,-6.565,291.635,79.773,100841.282,24.642,118.11
福建,宁德市,22.752,32.467,10.303,19.116,0.623,36.616,-2.461,-2.197,285.263,90.161,95830.153,26.968,119.474
福建,泉州市,17.774,30.092,8.619,17.789,0.609,44.906,-4.729,-3.44,288.782,87.297,97071.809,25.201,118.249
福建,漳州市,20.052,36.557,9.816,18.744,0.667,47.229,-4.586,-3.693,290.426,82.726,98651.626,24.372,117.444
福建,福州市,17.878,27.007,7.138,20.676,0.614,43.553,-3.802,-4.329,287.97,89.832,97904.489,26.083,119.206
福建,莆田市,17.031,27.348,8.137,18.506,0.579,49.611,-4.596,-5.655,289.579,87.089,98627.851,25.445,118.864
福建,龙岩市,21.99,34.952,13.621,16.069,0.732,30.405,-2.329,0.186,288.511,83.427,95586.863,25.256,116.739
西藏,山南市,8.977,10.203,0.895,1.224,0.151,83.572,4.949,-0.63,274.263,52.879,66226.839,28.295,92.274
西藏,拉萨市,5.047,6.949,0.045,1.367,0.142,80.779,2.764,-1.944,266.411,58.173,56551.922,30.043,91.093
西藏,日喀则市,3.136,3.888,0.219,0.358,0.123,83.4,8.148,-2.106,266.174,36.356,55362.678,29.483,86.493
西藏,昌都市,2.259,3.096,0.145,0.968,0.136,75.693,4.707,-0.062,265.403,60.53,59042.832,30.753,97.044
西藏,林芝市,5.808,6.325,0.645,1.452,0.137,80.5,0.571,-0.432,271.358,71.391,66474.947,29.184,95.25
西藏,玉树藏族自治州,0.514,0.605,0.077,0.334,0.135,83.283,8.301,-2.627,259.796,53.069,57220.245,34.196,94.317
西藏,那曲市,0.447,0.542,0.066,0.207,0.126,81.687,5.918,-2.211,261.343,52.129,55418.733,32.709,89.262
西藏,阿里地区,0.743,0.954,0.137,0.722,0.123,80.824,7.107,-2.942,260.346,48.418,54887.747,33.013,82.553
贵州,六盘水市,16.488,28.196,12.311,11.954,0.541,38.934,2.311,4.042,285.282,76.85,83244.111,26.106,104.896
贵州,安顺市,19.312,32.316,11.276,6.198,0.466,39.647,-1.98,3.926,283.91,92.106,88402.545,25.986,105.978
贵州,毕节市,17.247,28.296,8.238,12.493,0.55,33.648,0.953,1.344,281.472,81.498,83618.467,27.063,105.211
贵州,贵阳市,14.433,24.339,7.898,17.705,0.681,16.913,-1.485,1.553,281.561,91.507,88497.172,26.845,106.71
贵州,遵义市,34.697,47.752,16.14,10.291,0.627,30.997,-1.954,-0.348,279.764,84.041,90793.198,28.167,107.102
贵州,铜仁市,23.54,44.488,13.349,10.08,0.682,29.201,-1.231,-0.389,280.275,80.621,93237.863,27.937,108.534
贵州,黔东南苗族侗族自治州,22.334,37.422,17.668,7.37,0.609,36.629,-1.705,-0.811,281.744,88.911,93095.933,26.495,108.574
贵州,黔南布依族苗族自治州,20.845,30.873,13.148,6.039,0.514,35.004,-2.076,1.398,282.415,92.968,90718.127,26.0,107.265
贵州,黔西南布依族苗族自治州,18.684,32.518,11.852,5.08,0.482,40.34,-0.53,3.934,285.978,88.207,88779.773,25.256,105.467
辽宁,丹东市,35.444,53.04,16.443,21.522,0.883,33.574,0.294,-0.87,273.899,67.584,99160.891,40.554,124.376
辽宁,大连市,51.759,79.684,18.979,30.211,0.733,37.185,2.061,-1.381,278.689,55.168,101468.511,39.591,122.22
辽宁,抚顺市,30.078,43.044,10.115,15.707,0.672,39.411,0.5,-0.514,269.843,75.257,97409.648,41.841,124.65
辽宁,朝阳市,30.593,55.606,18.771,21.485,0.771,27.841,0.639,-4.374,269.893,47.432,97029.248,41.545,120.053
辽宁,本溪市,31.631,47.111,13.918,18.384,0.833,37.18,0.584,-0.022,270.52,75.3,96712.17,41.232,124.544
辽宁,沈阳市,29.882,53.091,16.283,25.826,0.695,28.747,-0.68,-3.448,271.577,56.982,101816.456,42.081,123.159
辽宁,盘锦市,37.707,64.146,18.935,27.183,0.784,32.133,0.06,-4.558,274.025,51.205,102446.78,41.13,122.01
辽宁,营口市,42.696,71.512,18.078,28.073,0.743,36.918,0.966,-1.765,274.993,56.065,100076.552,40.395,122.478
辽宁,葫芦岛市,42.295,72.864,21.56,29.061,1.005,24.437,0.966,-4.976,273.434,40.794,99841.689,40.66,120.215
辽宁,辽阳市,35.169,60.288,18.279,27.614,0.943,33.478,0.462,-1.054,273.268,59.943,100320.085,41.153,123.261
辽宁,铁岭市,29.336,44.773,9.001,18.615,0.544,34.376,0.141,-2.668,269.608,59.908,100197.35,42.653,124.158
辽宁,锦州市,32.524,58.665,20.087,24.154,0.76,30.435,-0.31,-5.485,272.096,48.279,101634.365,41.502,121.659
辽宁,阜新市,24.803,46.108,17.554,19.398,0.551,31.067,-0.54,-4.519,269.371,53.229,100137.625,42.289,121.968
辽宁,鞍山市,38.145,64.472,17.799,26.726,0.889,34.605,0.978,-2.096,274.238,56.941,100363.951,40.731,123.007
重庆,重庆城区,42.39,65.183,15.342,22.568,0.715,25.67,-0.913,-0.8,282.997,70.141,95455.935,29.824,107.125
重庆,重庆郊县,37.531,60.988,17.767,10.646,0.606,37.042,-0.765,0.118,280.394,75.019,91548.838,30.334,108.755
陕西,咸阳市,58.926,90.953,11.159,45.696,0.934,24.085,-0.002,-2.597,277.49,46.244,91981.75,34.779,108.367
陕西,商洛市,28.783,44.452,5.649,19.196,0.494,40.053,0.824,-2.136,277.298,60.742,89750.457,33.64,109.889
陕西,安康市,30.355,44.56,10.951,10.123,0.51,41.28,0.896,-1.018,278.557,68.16,90306.236,32.735,108.932
陕西,宝鸡市,37.751,59.162,8.15,23.782,0.602,36.345,0.103,-2.231,275.734,47.637,86736.743,34.386,107.193
陕西,延安市,24.793,38.035,14.197,25.96,0.734,39.849,0.766,-4.709,274.419,38.121,87994.364,36.432,109.316
陕西,榆林市,18.566,35.321,15.482,29.351,0.584,38.556,2.998,-3.742,273.19,35.568,88395.625,38.041,109.581
陕西,汉中市,34.58,49.56,10.21,12.824,0.554,38.122,-0.489,-0.68,278.262,65.877,89349.253,33.088,107.098
陕西,渭南市,61.708,94.909,13.183,52.322,1.051,19.144,1.08,-1.835,278.923,44.213,94367.444,34.919,109.855
陕西,西安市,53.369,84.448,8.066,42.23,0.834,23.817,1.893,-0.099,277.546,54.505,91016.102,34.12,108.77
陕西,铜川市,36.977,51.259,14.706,35.308,0.722,34.543,0.488,-5.167,276.246,39.881,89608.089,35.198,109.058
青海,保亭黎族苗族自治县,18.604,29.104,4.346,4.526,0.392,53.086,-4.84,-1.85,295.668,89.494,97411.73,18.566,109.618
青海,吐鲁番市,14.409,28.904,2.932,6.478,0.44,61.271,-0.321,0.143,270.466,35.346,91372.256,42.386,89.851
青海,果洛藏族自治州,0.596,0.73,0.131,0.843,0.129,75.237,8.515,-0.873,260.396,61.316,59842.032,34.127,99.404
青海,海东市,18.482,26.18,10.678,12.511,0.569,57.951,3.087,0.092,268.318,46.314,72769.091,36.347,102.34
青海,海北藏族自治州,1.537,1.984,0.705,0.968,0.133,70.096,8.833,-1.924,260.592,54.042,65044.029,37.775,100.288
青海,海南藏族自治州,0.691,0.85,0.194,0.508,0.12,73.953,9.766,-0.954,264.896,50.725,66391.135,35.89,100.272
青海,海西蒙古族藏族自治州,0.674,0.808,0.247,0.365,0.125,73.169,7.468,-2.199,262.0,53.282,64512.118,36.677,94.519
青海,西宁市,11.993,18.924,10.577,9.271,0.499,68.659,8.228,-1.962,266.481,45.179,69417.659,36.842,101.423
青海,黄南藏族自治州,1.059,1.235,0.263,0.851,0.133,70.658,7.695,-0.594,264.785,54.384,65714.551,35.022,101.631
香港,香港特别行政区,21.625,39.215,8.16,22.285,0.57,57.195,-7.095,-2.86,294.74,81.44,101271.835,22.45,114.22
黑龙江,七台河市,27.557,49.989,8.716,19.721,0.523,41.347,2.925,0.984,263.56,64.6,98845.401,45.87,130.943
黑龙江,伊春市,12.816,21.524,5.333,6.88,0.316,47.826,4.695,0.803,259.988,59.431,97199.38,47.772,129.184
黑龙江,佳木斯市,22.542,35.221,6.304,12.593,0.393,43.356,3.013,1.383,262.311,62.273,100920.71,47.207,132.11
黑龙江,双鸭山市,23.488,34.709,6.977,13.635,0.369,43.094,2.767,1.536,263.44,62.672,100476.835,46.722,132.643
黑龙江,哈尔滨市,26.113,41.999,9.485,15.35,0.534,41.082,2.864,0.132,264.522,55.353,99266.218,45.634,127.964
黑龙江,大兴安岭地区,0.734,1.173,1.014,1.258,0.203,57.968,5.538,-1.461,252.681,57.761,94996.875,52.286,124.212
黑龙江,大庆市,15.426,25.007,5.874,9.384,0.321,45.431,3.56,-1.859,264.586,39.294,100758.705,46.327,124.687
黑龙江,牡丹江市,31.951,47.546,8.288,15.875,0.501,38.127,3.207,0.603,264.453,73.094,95898.567,44.592,129.883
黑龙江,绥化市,19.467,29.999,6.376,10.084,0.415,43.701,3.409,-0.218,262.671,49.894,99814.333,46.89,126.634
黑龙江,鸡西市,27.109,41.598,8.408,17.175,0.473,39.861,2.398,-0.315,264.989,64.742,100206.072,45.626,132.289
黑龙江,鹤岗市,19.258,32.114,7.391,12.401,0.415,43.469,3.782,0.398,260.897,60.739,99830.848,47.661,130.778
黑龙江,黑河市,8.93,14.141,3.492,3.891,0.27,50.898,4.697,-0.042,258.073,59.062,97572.192,49.268,127.004
黑龙江,齐齐哈尔市,12.708,18.686,5.875,5.386,0.323,49.919,4.313,-1.837,262.544,44.566,99821.637,47.715,124.57
