province,city,PM2.5,PM10,SO2,NO2,CO,O3,U,V,TEMP,RH,PSFC,lat,lon
上海,上海市,112.518,152.82,11.924,81.677,1.308,48.084,-0.036,-1.414,286.936,74.664,102343.007,31.173,121.42
云南,临沧市,23.656,32.871,8.385,6.245,0.516,58.02,-0.06,0.229,286.821,54.93,84441.518,23.935,99.686
云南,丽江市,5.851,9.584,2.955,9.193,0.483,67.16,1.698,-1.104,282.306,23.231,75083.991,26.96,100.515
云南,保山市,16.713,29.503,5.391,9.084,0.539,57.472,-0.121,-0.582,285.739,41.604,82398.024,24.953,98.962
云南,大理白族自治州,11.158,19.506,4.758,9.205,0.505,64.982,0.995,-0.623,283.906,33.173,78592.269,25.726,100.053
云南,德宏傣族景颇族自治州,19.061,28.022,6.228,8.14,0.43,60.617,-1.249,-1.096,287.549,45.684,86629.829,24.535,98.052
云南,怒江傈僳族自治州,4.501,8.877,1.008,3.296,0.276,66.395,-0.464,-1.947,280.754,25.975,73250.969,26.916,98.885
云南,文山壮族苗族自治州,42.459,55.734,13.388,5.271,0.501,75.271,0.009,0.44,285.814,74.943,87109.827,23.696,104.735
云南,昆明市,33.468,53.998,14.685,22.64,0.855,50.831,0.814,1.773,283.024,61.507,79718.847,25.384,102.863
云南,昭通市,48.089,69.31,10.661,12.982,0.708,48.398,1.382,1.176,283.812,56.867,84563.659,27.667,103.985
云南,普洱市,23.281,31.551,8.916,6.032,0.371,55.614,-0.79,0.319,287.025,64.701,86531.83,23.159,100.718
云南,曲靖市,34.319,57.73,12.412,18.008,0.753,55.753,1.665,2.316,282.608,67.844,80497.43,25.737,103.929
云南,楚雄彝族自治州,24.52,31.736,9.268,10.915,0.551,59.856,1.3,1.552,284.655,50.03,81478.828,25.328,101.567
云南,玉溪市,27.89,36.979,9.354,9.151,0.665,73.236,0.338,1.24,285.535,66.621,84021.834,24.136,102.217
云南,红河哈尼族彝族自治州,34.197,45.094,12.033,5.94,0.522,78.739,-0.882,0.429,286.016,69.647,85717.914,23.451,103.034
云南,西双版纳傣族自治州,25.489,36.838,9.731,9.57,0.385,42.57,-2.153,-0.762,288.412,66.568,89536.772,21.939,100.912
云南,迪庆藏族自治州,2.645,4.458,0.767,4.289,0.308,69.195,1.906,-3.874,276.96,21.028,67704.0,27.957,99.459
内蒙古,乌兰察布市,21.075,47.102,14.81,21.536,0.547,34.164,4.855,0.338,268.161,43.814,86140.648,41.691,112.44
内蒙古,乌海市,65.019,225.449,47.899,51.309,1.608,27.569,2.595,-1.828,274.561,37.356,88051.454,39.396,106.856
内蒙古,兴安盟,2.589,3.385,2.242,1.408,0.206,61.416,7.628,-3.119,261.686,47.024,95260.92,46.244,121.341
内蒙古,包头市,23.037,46.644,10.402,21.175,0.586,34.477,3.593,0.058,268.719,39.92,86153.444,41.549,110.276
内蒙古,呼伦贝尔市,1.71,2.096,2.314,1.726,0.204,59.033,6.086,-3.372,255.024,59.793,93691.436,49.636,121.171
内蒙古,呼和浩特市,49.403,126.94,25.721,39.688,0.938,27.544,2.771,0.645,270.475,43.192,86546.786,40.578,111.513
内蒙古,巴彦淖尔市,14.045,27.483,5.755,8.034,0.335,41.702,2.821,-0.299,270.105,40.195,87657.546,41.446,107.582
内蒙古,赤峰市,10.117,21.085,7.5,7.746,0.343,48.34,2.717,-0.631,264.614,38.379,92470.975,43.226,118.892
内蒙古,通辽市,7.282,12.862,4.722,4.07,0.246,52.775,4.853,-1.85,266.296,31.521,98816.83,43.814,121.591
内蒙古,鄂尔多斯市,40.296,112.214,22.454,30.672,0.788,32.701,2.898,0.046,273.626,40.534,87334.16,39.407,108.63
内蒙古,锡林郭勒盟,5.888,8.342,5.633,3.885,0.212,50.878,2.536,0.147,263.082,45.822,89352.919,44.179,115.482
内蒙古,阿拉善盟,10.123,19.255,2.824,2.727,0.223,49.732,3.657,-0.848,273.923,35.923,87968.06,40.473,102.467
北京,北京市,46.361,130.836,14.063,48.724,0.998,13.357,-0.498,-0.639,274.46,28.908,98554.768,40.158,116.395
台湾,台湾省,13.543,17.877,6.129,17.995,0.196,57.924,-0.496,-3.321,290.154,85.367,93474.254,23.757,120.975
吉林,吉林市,11.889,25.825,5.502,7.217,0.348,58.891,7.377,0.571,265.349,41.096,97886.522,43.573,126.859
吉林,四平市,13.49,26.234,5.347,7.842,0.348,50.279,6.114,-0.957,267.106,30.357,100408.967,43.472,124.386
吉林,延边朝鲜族自治州,11.256,22.944,5.415,8.647,0.308,58.337,10.128,0.629,263.65,47.478,94587.242,43.141,129.147
吉林,松原市,7.996,13.955,3.699,5.072,0.285,53.511,7.568,-0.992,265.959,33.553,100658.057,44.785,124.496
吉林,白城市,7.388,9.462,3.46,3.197,0.261,54.857,6.651,-1.61,265.847,33.956,100785.364,45.35,123.031
吉林,白山市,13.994,29.287,9.853,12.924,0.464,50.798,5.884,1.091,263.542,51.267,92818.21,42.063,127.256
吉林,辽源市,24.578,39.852,6.208,12.038,0.431,50.161,6.282,-0.66,266.533,34.876,98411.892,42.836,125.32
吉林,通化市,18.586,38.162,9.01,15.11,0.512,46.417,4.416,-0.547,266.59,38.481,96538.038,41.939,125.927
吉林,长春市,11.264,23.484,4.078,6.629,0.366,53.506,7.562,-0.419,266.126,34.016,100182.256,44.268,125.611
四川,乐山市,55.794,76.362,6.181,19.074,0.706,33.197,-0.337,-0.298,284.153,59.232,90117.004,29.218,103.569
四川,内江市,63.263,93.798,4.837,28.601,0.883,26.365,-2.107,-1.532,286.082,68.736,97325.01,29.62,104.95
四川,凉山彝族自治州,16.044,22.169,5.546,9.108,0.537,62.801,2.117,-0.293,281.188,28.715,74581.358,27.883,102.065
四川,南充市,51.446,72.176,7.548,24.418,0.762,34.308,-1.75,-1.735,283.28,80.096,97410.656,31.19,106.199
四川,宜宾市,71.933,95.542,8.79,23.672,0.837,28.385,-0.318,-0.872,286.725,62.098,95615.991,28.573,104.621
四川,巴中市,40.457,59.372,6.961,12.065,0.576,45.826,-0.728,-0.634,281.417,74.939,93040.629,32.033,107.031
四川,广元市,38.991,59.134,8.319,16.249,0.583,38.214,-0.006,0.133,280.93,78.678,92139.062,32.261,105.788
四川,广安市,47.644,72.1,7.645,31.775,0.906,23.865,-1.406,-1.482,284.582,80.108,97401.185,30.43,106.628
四川,德阳市,48.687,86.45,4.983,28.988,0.653,26.925,-1.567,-0.537,282.48,75.3,93767.057,31.13,104.436
四川,成都市,56.248,98.384,5.982,33.119,0.723,26.218,-1.289,-0.529,283.877,66.213,93897.964,30.64,103.929
四川,攀枝花市,25.512,37.78,17.067,32.755,1.125,48.358,-0.164,0.551,285.488,35.319,81971.794,26.791,101.734
四川,泸州市,59.982,80.011,11.161,25.317,0.741,29.374,-0.272,-0.448,286.486,64.378,93969.896,28.424,105.675
四川,甘孜藏族自治州,0.871,1.149,0.16,2.534,0.146,73.653,5.226,-2.271,268.659,31.084,61631.562,30.936,100.009
四川,眉山市,63.402,93.868,5.297,25.403,0.79,25.873,-1.35,-0.441,284.911,63.34,94347.488,29.912,103.766
四川,绵阳市,36.842,57.593,6.091,18.606,0.503,39.482,0.087,-0.484,280.6,69.154,88485.766,31.86,104.704
四川,自贡市,70.311,101.092,6.202,29.673,0.94,21.541,-2.187,-1.683,286.658,66.168,97283.958,29.307,104.659
四川,资阳市,52.913,79.599,3.886,25.242,0.773,30.791,-2.302,-1.199,285.247,76.041,97599.571,30.102,105.149
四川,达州市,53.816,78.014,8.635,24.002,0.808,36.34,-0.783,-0.255,282.718,83.035,94668.582,31.335,107.636
四川,遂宁市,45.791,73.261,6.167,26.288,0.768,31.073,-2.597,-1.532,284.23,80.539,97863.964,30.642,105.457
四川,阿坝藏族羌族自治州,2.303,3.273,0.257,3.08,0.173,68.699,7.147,-1.624,270.289,34.516,65853.714,32.406,102.61
四川,雅安市,28.384,41.323,4.712,9.913,0.396,58.103,0.903,-1.311,281.173,44.055,80460.991,29.932,102.689
天津,天津市,55.241,172.599,25.894,63.172,1.538,6.506,-2.229,-1.525,277.402,38.591,102375.488,39.315,117.308
宁夏,中卫市,59.399,221.853,13.01,31.177,0.886,37.003,5.161,-1.132,277.886,32.919,83944.71,37.018,105.509
宁夏,吴忠市,50.928,170.951,14.138,31.112,0.746,33.927,5.369,-0.423,277.074,36.488,85463.313,37.454,106.577
宁夏,固原市,57.978,221.957,13.326,35.485,1.024,36.97,4.532,-0.997,276.243,44.001,81316.962,35.905,106.183
宁夏,石嘴山市,57.033,200.23,34.7,41.146,1.22,32.236,3.515,-1.776,275.844,33.831,87095.314,39.013,106.499
宁夏,银川市,73.107,232.714,32.69,53.511,1.329,25.831,3.409,-0.272,277.012,34.697,87418.315,38.287,106.342
安徽,亳州市,210.053,314.396,11.96,53.329,1.601,39.044,-0.642,0.012,285.181,59.181,102051.487,33.44,116.162
安徽,六安市,103.844,201.869,12.523,60.106,1.009,45.341,0.965,-0.071,286.05,51.76,99541.36,31.617,116.209
安徽,合肥市,99.72,145.007,11.962,78.001,1.327,39.887,-0.285,0.649,286.411,57.424,101944.389,31.766,117.359
安徽,安庆市,67.589,102.257,12.348,43.767,0.838,50.866,0.291,-0.269,286.623,53.944,99992.933,30.557,116.473
安徽,宣城市,59.667,84.052,8.914,34.409,0.901,47.468,-0.481,0.793,285.718,49.824,99930.224,30.676,118.846
安徽,宿州市,174.264,259.644,13.835,51.142,1.49,46.066,-1.895,1.006,285.46,63.248,102004.104,33.844,117.23
安徽,池州市,47.497,71.011,11.294,34.707,0.794,45.164,-0.431,0.518,286.579,49.418,100159.354,30.296,117.379
安徽,淮北市,196.899,283.441,13.348,51.325,1.557,41.393,-1.558,0.739,285.382,59.958,102046.742,33.722,116.747
安徽,淮南市,143.915,257.213,13.56,69.548,1.26,45.166,-0.58,0.076,286.348,61.015,102101.279,32.463,116.746
安徽,滁州市,128.38,169.122,13.091,81.707,1.55,37.773,-1.846,0.92,285.989,62.185,101838.367,32.55,118.076
安徽,芜湖市,87.545,105.372,11.266,58.457,1.391,38.734,-0.489,0.684,286.194,56.258,102133.23,31.167,118.162
安徽,蚌埠市,143.705,215.803,16.734,59.817,1.372,49.385,-1.472,0.757,286.072,64.104,102079.442,33.121,117.263
安徽,铜陵市,75.082,103.876,13.538,65.146,1.281,35.821,-0.355,0.628,286.564,55.598,101981.022,30.883,117.531
安徽,阜阳市,224.518,358.47,11.731,60.565,1.728,36.637,0.182,-0.704,285.265,54.683,102036.188,32.937,115.723
安徽,马鞍山市,102.754,121.668,10.166,72.952,1.744,28.289,-0.85,0.791,286.059,56.004,102136.394,31.622,118.386
安徽,黄山市,33.442,57.427,9.836,21.65,0.705,39.045,-0.758,0.04,285.69,50.239,97919.095,29.869,118.09
山东,东营市,78.12,325.964,17.61,48.903,0.898,24.621,-0.96,0.315,281.594,53.038,102404.373,37.57,118.572
山东,临沂市,106.855,352.159,10.355,41.659,1.035,43.86,-2.2,0.247,283.064,65.935,100556.478,35.289,118.27
山东,威海市,38.361,226.305,6.921,18.613,0.566,49.501,-2.691,0.48,281.697,58.013,101851.596,37.148,122.028
山东,德州市,106.744,350.079,23.375,67.505,1.422,12.78,-0.882,0.968,280.824,51.662,102254.063,37.233,116.679
山东,日照市,75.521,352.631,7.039,30.504,0.66,46.013,-2.614,0.625,282.953,71.037,100687.366,35.566,119.108
山东,枣庄市,143.644,357.958,12.912,51.116,1.336,41.107,-3.317,0.743,284.044,61.948,101270.726,34.925,117.383
山东,泰安市,125.048,395.341,15.966,59.044,1.493,24.953,-2.435,1.436,282.037,63.694,100435.641,35.993,117.04
山东,济南市,115.953,379.934,21.024,64.457,1.465,19.985,-1.489,2.453,281.693,58.961,100415.079,36.639,117.254
山东,济宁市,142.247,369.978,13.446,53.973,1.483,29.575,-2.202,1.604,283.633,62.671,101726.888,35.375,116.697
山东,淄博市,103.992,396.376,22.03,57.659,1.315,23.466,-0.933,2.273,281.422,60.215,99802.774,36.623,118.062
山东,滨州市,95.981,344.633,22.413,64.077,1.209,16.358,-0.614,0.551,281.122,51.359,102342.956,37.516,117.852
山东,潍坊市,82.691,416.246,11.298,39.223,0.916,33.166,-1.344,2.554,281.769,63.729,101290.569,36.53,119.092
山东,烟台市,64.906,355.913,7.769,25.495,0.754,40.836,-2.634,2.361,281.336,59.123,101301.988,37.25,120.789
山东,聊城市,123.311,373.886,21.073,65.081,1.583,13.668,-1.243,1.554,281.358,60.052,102011.142,36.458,115.863
山东,菏泽市,203.433,381.207,13.209,52.908,1.659,25.222,-0.934,1.224,283.157,63.269,101874.478,35.134,115.69
山东,青岛市,71.484,402.766,7.799,26.738,0.718,44.862,-3.271,1.585,282.437,62.75,101879.356,36.46,120.172
山西,临汾市,80.277,174.413,41.921,55.272,1.708,23.748,1.252,1.78,277.821,42.501,90497.257,36.227,111.398
山西,吕梁市,66.39,153.51,51.476,48.525,1.187,23.889,2.665,2.129,275.879,42.081,88018.133,37.663,111.27
山西,大同市,45.711,116.489,25.924,29.02,1.13,27.893,3.331,0.188,271.851,39.876,87497.641,39.911,113.713
山西,太原市,71.661,175.81,45.428,55.65,1.184,21.385,3.289,1.162,276.212,36.395,87876.201,37.967,112.321
山西,忻州市,59.255,144.697,33.124,39.509,0.857,27.955,3.11,0.622,273.449,38.047,86346.042,38.877,112.391
山西,晋中市,71.266,181.715,41.292,62.153,1.251,19.106,3.886,2.47,276.997,35.424,88845.975,37.328,112.997
山西,晋城市,83.405,208.939,26.329,50.371,1.295,29.642,2.004,0.999,278.736,35.017,90896.092,35.625,112.752
山西,朔州市,57.107,157.223,39.39,39.706,0.979,25.871,4.472,1.133,272.539,41.939,86814.071,39.619,112.655
山西,运城市,125.517,269.863,42.291,61.026,2.633,19.556,-0.434,0.591,280.87,41.848,94758.862,35.205,111.071
山西,长治市,68.46,176.786,29.842,52.56,1.168,25.484,3.882,2.48,277.532,35.582,89173.332,36.48,112.915
山西,阳泉市,86.332,225.244,37.928,63.003,1.268,17.897,2.79,-0.163,276.686,30.753,90746.356,38.031,113.512
广东,东莞市,47.003,60.983,9.362,46.966,0.782,21.087,-4.178,-4.058,292.651,63.213,101797.622,22.931,113.81
广东,中山市,48.061,69.021,8.452,62.083,0.868,18.613,-3.551,-4.406,293.073,70.867,101782.492,22.5,113.383
广东,云浮市,49.868,66.38,12.555,33.185,0.792,37.727,-3.682,-3.48,290.941,61.212,99785.17,22.776,111.818
广东,佛山市,53.567,81.344,11.797,67.021,0.976,17.064,-2.491,-4.922,292.417,59.421,101859.055,23.035,112.979
广东,广州市,46.284,63.173,10.687,40.739,0.784,28.906,-3.216,-4.248,292.031,60.059,100946.215,23.339,113.525
广东,惠州市,37.827,50.31,10.254,22.363,0.67,36.597,-3.141,-4.83,291.097,68.505,99954.66,23.244,114.485
广东,揭阳市,46.983,57.52,13.684,33.497,1.01,36.923,-3.778,-3.448,292.165,74.428,100551.751,23.323,116.123
广东,梅州市,35.589,50.613,11.076,22.259,0.849,37.519,-1.384,-3.08,289.874,74.301,98539.136,24.169,116.07
广东,汕头市,32.316,41.939,12.286,27.672,0.754,50.7,-5.042,-4.801,292.957,72.946,101679.484,23.339,116.614
广东,汕尾市,39.273,50.023,12.55,24.453,0.816,40.071,-3.948,-4.045,292.225,75.577,100261.09,23.024,115.527
广东,江门市,56.943,76.934,12.604,62.284,0.906,20.595,-3.025,-5.092,292.347,70.521,101206.399,22.289,112.676
广东,河源市,36.185,51.428,11.036,18.568,0.691,43.975,-1.66,-5.35,289.192,67.436,98746.362,24.021,114.969
广东,深圳市,39.791,54.46,7.931,42.433,0.743,21.812,-3.576,-4.974,292.354,71.524,101287.817,22.667,114.143
广东,清远市,43.407,63.215,13.968,23.933,0.717,41.741,-2.435,-4.581,288.92,54.294,98276.954,24.295,112.871
广东,湛江市,44.722,53.503,14.017,17.071,0.763,52.965,-3.895,-3.248,293.436,79.492,101591.964,21.091,110.163
广东,潮州市,32.526,44.842,10.895,24.178,0.791,45.171,-4.495,-3.94,291.631,71.519,99995.989,23.755,116.754
广东,珠海市,41.577,56.908,11.118,50.865,0.687,32.272,-3.295,-5.253,293.285,78.955,101831.85,22.095,113.317
广东,肇庆市,48.559,69.512,14.058,30.334,0.73,38.613,-3.781,-3.906,290.713,54.509,99905.877,23.505,112.199
广东,茂名市,49.398,60.887,13.239,20.728,0.817,47.999,-4.678,-3.611,292.451,65.2,99800.383,22.013,110.952
广东,阳江市,58.734,66.575,12.974,32.767,0.848,35.642,-3.583,-4.945,291.738,69.409,100350.453,22.042,111.786
广东,韶关市,40.916,60.776,13.285,22.153,0.835,41.926,-2.616,-3.502,287.677,59.778,97506.788,24.785,113.819
广西,北海市,60.231,70.905,14.936,18.429,1.095,61.531,-3.8,-3.958,293.991,58.171,101667.272,21.674,109.37
广西,南宁市,55.347,85.949,14.345,24.989,0.909,53.822,-2.347,-4.061,291.483,54.464,99888.308,23.051,108.469
广西,崇左市,52.253,84.311,16.059,15.329,0.727,59.266,-2.544,-3.275,290.829,64.176,98587.308,22.483,107.291
广西,来宾市,45.196,74.609,13.894,17.518,0.807,57.288,-2.043,-3.768,290.953,49.659,98706.368,23.859,109.417
广西,柳州市,45.611,74.087,16.102,15.765,0.725,57.29,-1.655,-3.108,289.796,52.969,98125.401,24.956,109.372
广西,桂林市,48.179,71.408,12.659,21.776,0.694,57.078,-2.668,-2.696,288.512,50.94,96487.995,25.353,110.513
广西,梧州市,46.566,72.538,15.648,22.366,0.812,47.353,-3.427,-2.894,290.808,53.73,99521.544,23.484,110.996
广西,河池市,43.102,70.435,14.777,9.855,0.631,50.47,-1.09,-1.549,288.954,62.391,95768.023,24.628,107.843
广西,玉林市,57.746,77.456,15.318,23.677,0.968,56.262,-4.294,-4.031,291.947,58.653,99898.664,22.452,110.164
广西,百色市,43.535,62.659,15.651,9.431,0.583,59.219,-0.743,-0.537,288.645,68.81,93665.72,23.981,106.292
广西,贵港市,46.766,75.51,14.336,20.191,0.861,59.375,-3.497,-3.23,291.769,50.422,100374.717,23.322,110.021
广西,贺州市,43.055,68.134,15.827,18.947,0.71,47.952,-3.037,-4.012,289.762,46.132,97702.217,24.364,111.394
广西,钦州市,60.16,81.951,14.212,23.833,1.046,61.779,-3.43,-5.147,292.698,54.329,100983.048,22.173,109.01
广西,防城港市,57.402,84.108,15.691,21.718,0.877,61.508,-2.408,-5.452,291.577,58.727,99396.579,21.88,108.002
新疆,乌鲁木齐市,17.692,51.571,2.29,15.338,0.448,52.006,1.991,-0.983,273.288,55.384,84679.868,43.746,87.818
新疆,五家渠市,30.74,93.203,3.663,23.153,0.487,36.247,-0.197,-0.5,272.417,72.793,97330.267,44.363,87.517
新疆,伊犁哈萨克自治州,21.815,29.896,5.756,7.333,0.661,56.386,0.798,0.934,272.056,79.717,80827.695,43.438,82.146
新疆,克孜勒苏柯尔克孜自治州,7.742,15.573,0.932,2.448,0.281,76.572,4.017,-0.43,270.899,55.511,70638.38,39.661,75.949
新疆,克拉玛依市,22.212,132.787,2.843,7.969,0.297,49.196,-0.893,-0.034,270.764,56.725,98225.509,45.457,85.207
新疆,北屯市,3.396,4.306,8.042,17.722,1.094,32.118,-2.642,2.118,268.304,56.706,96276.49,47.27,87.868
新疆,博尔塔拉蒙古自治州,16.034,41.152,5.162,5.448,0.446,52.715,3.314,1.95,272.455,65.34,86672.025,44.714,82.114
新疆,双河市,23.34,75.044,9.544,8.656,0.56,39.468,-0.694,-0.3,272.79,61.436,98700.402,44.87,82.474
新疆,可克达拉市,70.316,90.02,20.582,26.57,1.868,28.844,-1.708,-0.26,277.848,84.874,95626.314,43.918,80.786
新疆,和田地区,5.994,10.103,1.474,1.657,0.219,69.189,3.497,2.363,272.653,34.652,74369.984,37.059,80.934
新疆,哈密市,7.61,11.484,1.659,1.247,0.209,57.342,2.763,0.66,273.292,33.212,88763.586,43.042,93.517
新疆,喀什地区,23.735,41.904,2.985,5.036,0.513,65.848,4.575,3.764,272.473,47.002,76452.691,38.125,77.178
新疆,图木舒克市,15.432,17.847,4.595,2.79,0.298,51.015,1.017,0.72,277.355,45.098,89724.307,39.892,79.182
新疆,塔城地区,10.779,36.386,2.699,4.314,0.247,54.355,2.016,-0.701,270.951,72.248,90102.381,45.642,84.789
新疆,巴音郭楞蒙古自治州,5.09,7.935,0.664,0.674,0.161,61.238,3.697,0.049,272.812,35.584,79652.466,39.463,87.481
新疆,新星市,39.265,88.765,11.185,11.5,0.76,33.635,0.56,0.245,274.48,25.67,93385.355,42.75,93.68
新疆,昆玉市,36.32,80.767,16.523,17.823,1.107,44.203,-2.637,0.027,278.743,36.753,87327.11,37.457,79.093
新疆,昌吉回族自治州,15.549,43.584,2.79,8.226,0.328,53.775,1.127,0.249,272.757,57.134,90447.161,44.342,88.608
新疆,石河子市,64.74,174.39,13.325,37.63,0.76,24.005,-0.935,0.2,273.6,60.685,95332.8,44.245,86.035
新疆,胡杨河市,28.314,109.714,3.686,8.646,0.334,42.726,-2.818,-0.23,270.418,66.106,98707.93,44.852,84.772
新疆,铁门关市,23.697,75.717,2.803,4.63,0.377,53.293,2.517,0.947,276.43,41.687,92281.91,41.773,85.66
新疆,阿克苏地区,21.099,30.777,1.884,3.353,0.32,58.057,0.826,-0.438,275.49,44.006,85738.313,40.965,81.578
新疆,阿勒泰地区,2.984,4.062,2.565,4.599,0.433,57.359,-1.859,1.884,267.927,56.203,88926.238,46.902,88.421
新疆,阿拉尔市,43.774,64.655,2.716,7.002,0.514,48.649,-1.039,0.492,276.329,43.615,90646.279,40.629,80.998
江苏,南京市,116.298,148.16,9.239,74.754,1.726,32.588,-1.251,0.565,285.871,55.442,102194.044,31.899,118.876
江苏,南通市,116.827,144.81,17.685,34.672,1.145,76.658,-0.451,-0.986,286.715,74.801,102338.159,32.201,120.979
江苏,宿迁市,133.593,212.543,10.928,44.025,1.332,51.112,-2.233,1.13,286.259,68.912,102273.495,33.765,118.495
江苏,常州市,112.052,156.628,11.436,70.094,1.718,42.297,-0.759,0.052,286.266,61.849,102257.268,31.613,119.666
江苏,徐州市,158.108,301.508,12.032,46.729,1.404,41.785,-2.226,0.924,285.033,62.438,102007.536,34.363,117.513
江苏,扬州市,140.641,184.555,10.929,51.511,1.508,40.519,-1.565,-0.026,286.026,70.998,102343.52,32.709,119.486
江苏,无锡市,117.838,167.922,11.918,78.489,1.698,37.053,-0.686,-0.248,286.504,65.449,102162.76,31.546,120.066
江苏,泰州市,133.378,174.677,12.703,46.339,1.447,47.483,-1.026,-0.497,286.257,73.277,102306.858,32.605,120.048
江苏,淮安市,136.539,198.056,11.27,45.122,1.367,52.412,-1.957,0.728,286.1,71.992,102279.511,33.362,118.985
江苏,盐城市,101.978,135.088,10.798,24.441,0.914,68.674,-2.59,0.1,286.77,76.119,102341.585,33.529,120.156
江苏,苏州市,116.902,163.309,12.058,79.058,1.418,40.248,-0.427,-0.783,286.975,70.06,102319.166,31.374,120.661
江苏,连云港市,81.134,173.533,7.895,24.679,0.786,58.02,-2.293,0.575,286.284,68.156,102164.529,34.519,119.133
江苏,镇江市,128.766,167.926,10.526,72.115,1.779,35.296,-1.188,0.152,286.087,62.028,102231.32,32.016,119.49
江西,上饶市,39.205,67.741,16.158,24.596,0.683,36.903,-1.658,-0.718,287.053,54.3,100003.44,28.778,117.47
江西,九江市,36.571,66.424,10.987,23.666,0.669,57.812,-0.401,-0.362,287.089,56.104,99962.675,29.313,115.444
江西,南昌市,38.059,82.254,13.089,31.145,0.802,42.873,-0.294,-1.584,288.006,61.515,101873.612,28.671,116.016
江西,吉安市,42.922,70.669,15.112,22.264,0.731,50.037,-0.988,-1.704,286.697,62.81,99571.909,26.954,114.831
江西,宜春市,40.424,74.281,12.942,25.042,0.787,50.708,-0.537,-0.729,287.089,56.773,99926.888,28.29,114.974
江西,抚州市,36.07,58.256,13.953,15.919,0.531,49.707,-1.053,-1.942,286.831,61.812,99563.75,27.514,116.42
江西,新余市,45.531,81.526,20.122,38.479,1.008,40.191,-0.481,-0.846,287.093,60.703,100873.703,27.847,114.836
江西,景德镇市,36.495,64.553,15.704,23.302,0.676,33.715,-1.322,-0.7,286.975,53.185,100857.058,29.287,117.24
江西,萍乡市,45.054,77.732,15.631,27.328,1.043,42.799,-2.344,-0.442,287.324,51.569,98558.859,27.505,113.908
江西,赣州市,32.357,52.103,12.407,14.424,0.708,52.879,-1.173,-3.543,286.695,65.481,97853.535,25.692,115.279
江西,鹰潭市,39.034,65.537,17.871,23.78,0.585,40.495,-1.449,-0.625,287.076,56.91,100532.435,28.222,117.094
河北,保定市,59.946,161.607,13.654,52.403,0.951,17.732,-0.524,-1.37,275.725,24.982,98496.316,39.018,115.159
河北,唐山市,45.89,126.696,33.498,49.483,1.524,16.213,-4.04,-1.43,277.185,47.092,101876.146,39.731,118.354
河北,廊坊市,55.846,174.751,18.32,64.406,1.401,7.32,-1.835,-1.681,276.207,28.392,102431.082,39.267,116.632
河北,张家口市,30.276,73.633,14.616,19.259,0.569,34.719,2.795,0.228,269.679,41.567,87949.611,40.877,115.042
河北,承德市,23.792,59.537,11.774,23.135,0.632,28.768,0.242,0.693,268.85,43.917,91456.29,41.339,117.578
河北,沧州市,68.494,236.851,17.097,64.406,1.064,12.392,-0.843,-0.218,278.653,40.356,102404.359,38.258,116.744
河北,石家庄市,85.056,254.981,20.144,57.423,1.084,17.052,-0.82,-1.059,276.899,26.899,99025.83,38.135,114.407
河北,秦皇岛市,24.007,69.275,15.005,28.144,0.758,30.092,-4.812,-2.276,274.523,49.981,99559.359,40.12,119.193
河北,衡水市,75.349,261.928,19.931,61.498,1.136,13.034,-1.432,0.387,278.697,41.38,102250.948,37.755,115.813
河北,邢台市,88.341,288.854,22.711,62.193,1.201,12.862,-0.502,-0.063,279.073,35.477,100680.833,37.195,114.815
河北,邯郸市,102.128,324.184,26.877,65.112,1.495,11.379,0.355,0.099,280.213,41.7,100169.25,36.538,114.596
河南,三门峡市,78.31,156.12,18.179,36.905,1.245,33.37,2.127,1.722,280.572,52.85,92330.014,34.362,111.101
河南,信阳市,156.432,293.555,14.843,58.142,1.4,43.996,0.675,-0.72,285.383,48.146,101069.16,32.091,114.907
河南,南阳市,100.915,216.389,13.445,43.014,1.023,38.121,1.48,-0.229,283.648,42.842,98959.578,33.034,112.323
河南,周口市,268.194,414.616,12.946,54.466,1.872,35.395,-0.023,-0.904,283.96,50.746,101823.143,33.738,114.884
河南,商丘市,236.659,344.854,10.467,49.015,1.665,31.542,-0.742,0.386,284.049,60.549,101896.97,34.277,115.718
河南,安阳市,128.63,339.153,23.952,63.198,1.65,16.057,0.414,0.893,281.308,39.848,99741.081,35.888,114.318
河南,平顶山市,143.181,297.674,18.157,57.779,1.214,30.185,0.443,1.143,283.627,31.78,99583.594,33.8,113.025
河南,开封市,258.471,444.548,16.309,64.474,1.921,26.032,0.147,0.102,282.846,47.494,101557.103,34.594,114.514
河南,新乡市,169.629,397.858,20.386,67.469,1.72,20.051,1.131,0.935,282.001,37.495,100594.032,35.256,114.111
河南,洛阳市,90.57,173.637,16.984,42.225,1.094,33.667,1.434,1.291,281.671,46.848,94787.016,34.274,112.019
河南,济源市,92.259,213.568,22.919,59.49,1.226,25.366,0.771,0.267,281.594,30.854,96676.412,35.105,112.445
河南,漯河市,240.539,448.623,17.402,64.295,1.828,32.079,-0.213,-1.04,283.564,35.738,101673.565,33.652,113.945
河南,濮阳市,161.756,395.019,20.458,61.721,1.741,15.244,-0.713,1.472,281.669,63.845,101860.769,35.809,115.283
河南,焦作市,148.082,373.497,25.533,67.551,1.641,20.118,1.726,0.096,282.796,27.668,100390.903,35.121,113.163
河南,许昌市,226.691,442.795,18.447,70.755,1.748,25.247,0.072,-0.337,283.478,32.209,100971.511,34.075,113.707
河南,郑州市,191.773,424.142,18.266,74.459,1.589,20.277,0.941,0.987,282.829,30.574,99613.183,34.634,113.438
河南,驻马店市,192.276,362.622,14.372,54.505,1.579,40.259,0.243,-1.296,284.328,37.397,101362.426,32.925,114.174
河南,鹤壁市,127.537,341.427,22.566,64.738,1.656,16.582,0.962,1.62,281.668,34.834,100947.631,35.716,114.319
浙江,丽水市,31.91,53.329,6.072,24.574,0.578,41.837,-0.856,-0.852,284.483,67.527,95175.35,28.194,119.51
浙江,台州市,43.388,73.577,6.964,47.362,0.708,42.754,0.093,-3.911,286.28,67.68,99512.137,28.742,121.109
浙江,嘉兴市,82.346,139.197,6.719,84.665,1.227,35.925,0.267,-0.851,286.442,64.771,102326.949,30.635,120.754
浙江,宁波市,58.972,88.17,7.645,62.993,0.916,43.947,0.827,-2.865,286.445,77.291,101056.575,29.706,121.49
浙江,杭州市,52.253,88.719,6.283,37.769,0.811,31.303,-0.335,-0.503,285.413,53.321,99368.525,29.891,119.464
浙江,温州市,38.283,67.558,7.354,38.629,0.658,39.911,-0.192,-3.095,286.183,72.14,98289.166,27.897,120.411
浙江,湖州市,74.6,118.823,9.184,56.5,1.12,41.963,-0.113,0.073,285.983,54.318,101029.196,30.757,119.871
浙江,绍兴市,60.429,97.278,5.001,61.022,0.922,32.337,-0.295,-0.868,285.309,64.937,100218.012,29.709,120.64
浙江,舟山市,44.655,62.402,12.378,20.08,0.622,68.682,0.015,-4.67,288.232,75.638,102060.875,30.038,122.23
浙江,衢州市,38.537,65.17,9.526,38.177,0.725,33.638,-1.9,-0.738,286.172,54.413,98575.972,28.912,118.675
浙江,金华市,44.215,79.289,5.565,50.665,0.793,27.651,-1.136,-1.066,285.356,62.571,98841.543,29.109,119.967
海南,万宁市,19.251,31.528,11.937,8.418,0.424,51.524,-1.444,-7.957,294.552,91.794,100411.521,18.842,110.294
海南,三亚市,13.216,24.4,8.563,14.771,0.626,36.843,-4.696,-6.576,295.803,78.033,99090.071,18.413,109.407
海南,东方市,22.264,31.033,11.921,5.636,0.37,57.405,-4.394,-5.927,294.328,85.815,99821.178,18.971,108.838
海南,临高县,21.854,32.854,8.589,9.0,0.51,59.657,-3.507,-4.779,293.937,92.579,101100.484,19.821,109.733
海南,乐东黎族自治县,18.909,28.099,10.742,8.383,0.465,44.487,-4.553,-6.727,294.18,83.45,98233.035,18.659,109.072
海南,五指山市,22.866,33.346,11.694,8.476,0.474,42.002,-4.496,-7.066,291.562,95.05,95035.032,18.81,109.518
海南,儋州市,23.549,35.668,11.381,7.606,0.46,60.721,-3.891,-4.384,293.926,91.878,100744.367,19.568,109.399
海南,定安县,15.338,26.943,5.152,10.687,0.563,50.912,-2.333,-5.445,294.333,91.66,100759.823,19.47,110.28
海南,屯昌县,18.196,31.126,8.034,11.224,0.548,48.378,-1.778,-4.604,293.612,94.17,99973.836,19.342,110.076
海南,文昌市,14.442,25.961,5.9,8.549,0.461,59.266,-3.512,-6.939,295.112,90.565,101525.664,19.707,110.773
海南,昌江黎族自治县,25.026,35.376,12.316,5.976,0.391,60.818,-5.544,-5.378,293.16,92.541,98828.258,19.233,109.016
海南,海口市,14.918,25.209,5.148,10.804,0.552,55.478,-3.539,-5.822,294.588,91.193,101355.765,19.842,110.393
海南,澄迈县,17.823,29.264,6.527,11.85,0.579,51.487,-2.619,-4.734,293.96,92.473,100912.9,19.676,109.989
海南,琼中黎族苗族自治县,22.856,35.71,11.843,9.461,0.489,44.758,-1.683,-4.809,292.362,97.243,97756.811,19.087,109.847
海南,琼海市,15.227,27.133,8.02,8.915,0.467,54.393,-1.55,-5.613,294.96,89.985,101285.943,19.22,110.43
海南,白沙黎族自治县,24.96,37.122,12.686,7.626,0.451,51.588,-3.381,-3.861,292.07,97.344,97480.321,19.2,109.388
海南,陵水黎族自治县,16.843,27.716,11.474,10.527,0.516,41.126,-3.479,-9.126,295.169,84.396,99675.463,18.581,109.913
湖北,仙桃市,91.656,174.665,18.231,50.049,1.406,42.908,-0.023,-1.848,286.943,53.443,102090.577,30.284,113.417
湖北,十堰市,47.832,104.12,12.9,14.968,0.571,45.207,1.916,0.372,281.615,65.833,93996.67,32.462,110.476
湖北,咸宁市,57.971,93.655,11.116,35.181,1.002,62.178,0.111,-0.275,287.131,56.903,100172.956,29.621,114.178
湖北,天门市,100.002,201.956,18.779,53.76,1.534,40.153,-0.113,-1.902,286.564,46.533,102050.289,30.633,113.053
湖北,孝感市,101.07,204.747,16.291,51.561,1.407,43.7,-0.14,-1.577,286.111,49.744,101432.938,31.116,113.869
湖北,宜昌市,70.321,104.628,13.923,32.264,0.81,35.506,0.277,0.488,284.089,58.776,94838.663,30.746,111.129
湖北,恩施土家族苗族自治州,55.538,79.603,15.486,16.606,0.762,25.99,1.018,0.863,282.506,81.546,90223.539,30.195,109.552
湖北,武汉市,93.166,165.389,14.198,64.944,1.393,33.449,-0.454,-1.251,287.001,56.078,101972.996,30.606,114.349
湖北,潜江市,102.113,207.52,19.873,55.286,1.576,38.606,-0.149,-2.254,286.708,47.498,102057.64,30.33,112.77
湖北,神农架林区,38.606,57.347,13.642,5.766,0.414,55.461,3.275,1.161,279.111,72.712,83476.955,31.592,110.49
湖北,荆州市,88.239,167.181,19.477,49.105,1.345,41.245,-0.332,-1.966,287.113,47.526,101816.26,30.01,112.512
湖北,荆门市,101.62,199.163,18.279,53.834,1.268,39.267,-0.014,-2.253,285.978,41.956,101011.735,31.059,112.616
湖北,襄阳市,89.716,185.863,14.769,42.961,0.932,38.014,0.556,-0.697,284.184,48.497,98217.093,31.919,111.96
湖北,鄂州市,73.561,116.731,15.217,56.456,1.226,41.59,0.036,-0.279,287.231,58.32,102020.213,30.337,114.794
湖北,随州市,104.57,217.278,16.671,48.066,1.216,45.168,0.25,-1.068,285.361,38.732,100284.091,31.809,113.43
湖北,黄冈市,74.601,121.307,13.052,40.296,0.93,53.689,-0.653,0.153,286.532,53.79,100251.91,30.702,115.358
湖北,黄石市,49.916,85.769,10.905,41.55,1.046,55.42,0.221,0.28,287.331,56.95,101021.342,29.925,115.034
湖南,娄底市,56.341,91.71,11.641,38.783,1.378,41.93,-1.111,-0.89,286.74,62.399,97974.004,27.715,111.632
湖南,岳阳市,61.534,102.826,12.524,30.679,1.04,58.164,-0.35,-0.902,287.36,57.68,100893.317,29.081,113.275
湖南,常德市,59.859,103.897,16.07,38.308,1.145,39.622,-0.595,-1.47,286.451,53.206,100099.439,29.271,111.524
湖南,张家界市,41.48,67.993,10.736,22.786,0.733,37.77,-0.906,0.249,285.332,63.194,96081.522,29.379,110.526
湖南,怀化市,45.428,73.694,10.107,21.148,0.815,42.607,-1.229,-0.916,287.036,62.415,97031.385,27.535,110.071
湖南,株洲市,50.245,81.526,14.518,29.443,0.996,45.263,-1.95,-0.983,287.331,51.706,98685.604,27.109,113.513
湖南,永州市,48.23,71.703,11.134,22.587,0.762,50.215,-2.283,-2.444,287.659,52.409,97253.904,25.748,111.723
湖南,湘潭市,60.152,96.302,12.614,49.067,1.386,40.6,-0.228,-2.228,287.497,62.836,101012.123,27.744,112.619
湖南,湘西土家族苗族自治州,37.75,63.743,6.087,18.741,0.675,30.202,-1.154,-0.145,285.827,71.119,96005.216,28.708,109.718
湖南,益阳市,56.697,99.831,12.4,35.19,1.303,49.133,-0.248,-1.39,286.685,59.028,99585.861,28.525,111.919
湖南,衡阳市,61.88,93.155,13.834,41.695,1.182,39.705,-1.061,-2.073,287.815,58.467,100503.357,26.781,112.565
湖南,邵阳市,60.796,84.605,12.882,28.266,0.894,48.462,-1.658,-0.669,286.656,60.066,95708.299,26.893,110.881
湖南,郴州市,39.549,62.802,11.015,18.79,0.879,49.858,-0.978,-2.278,287.05,52.186,96403.04,25.769,113.109
湖南,长沙市,55.368,91.361,11.96,38.822,1.102,47.262,-0.432,-1.14,287.365,59.086,100405.544,28.235,113.159
甘肃,临夏回族自治州,70.142,183.619,6.224,22.196,1.384,56.479,3.669,0.279,278.183,26.289,77848.412,35.617,103.291
甘肃,兰州市,77.825,245.702,18.798,46.723,1.424,41.657,2.752,-1.268,278.02,28.51,79465.162,36.359,103.633
甘肃,嘉峪关市,21.087,64.028,7.33,21.985,0.467,46.423,5.692,-2.982,276.175,26.402,82044.312,39.798,98.145
甘肃,天水市,59.042,187.379,9.934,27.515,1.065,40.506,2.116,-0.195,277.888,45.955,83113.35,34.645,105.739
甘肃,定西市,51.956,167.988,6.796,20.234,1.061,56.489,3.842,-1.998,277.132,29.108,77628.929,35.124,104.432
甘肃,平凉市,72.19,239.393,11.214,35.772,0.989,36.084,2.316,-0.408,278.685,44.458,84918.276,35.304,106.644
甘肃,庆阳市,56.196,177.015,12.41,25.652,0.723,37.619,2.671,-0.544,277.174,50.05,86180.068,36.149,107.596
甘肃,张掖市,8.606,16.425,2.992,5.921,0.26,59.928,5.353,-0.513,272.673,35.716,74952.376,38.94,99.855
甘肃,武威市,19.545,32.479,9.231,9.767,0.578,52.167,3.957,-1.805,276.067,32.423,81768.127,38.163,103.073
甘肃,甘南藏族自治州,4.335,10.983,0.715,3.033,0.263,69.813,7.565,-0.933,271.091,35.82,67999.259,34.331,102.768
甘肃,白银市,75.49,250.286,19.802,36.999,1.161,40.192,2.246,-1.699,277.748,31.564,81868.711,36.59,104.646
甘肃,酒泉市,4.137,6.364,0.913,1.638,0.162,57.539,5.768,0.066,273.006,30.281,79483.504,40.236,96.062
甘肃,金昌市,16.131,39.391,14.045,14.134,0.532,50.927,5.833,-2.191,277.263,28.364,80957.54,38.44,102.048
甘肃,陇南市,34.386,91.797,7.29,16.004,0.738,46.236,1.314,-0.91,278.607,47.273,82679.386,33.599,105.224
福建,三明市,26.003,38.851,11.059,13.407,0.496,46.31,-1.473,-1.353,285.808,74.262,95778.169,26.29,117.395
福建,南平市,24.694,39.436,11.597,12.249,0.489,49.77,-1.049,-0.917,285.931,65.227,96572.942,27.324,118.143
福建,厦门市,25.62,49.377,8.993,30.508,0.503,47.793,-3.935,-5.76,290.835,76.123,100953.643,24.642,118.11
福建,宁德市,27.473,42.055,8.914,17.914,0.487,50.328,-0.581,-2.269,285.672,79.687,95880.279,26.968,119.474
福建,泉州市,26.397,42.797,8.291,19.285,0.474,53.036,-2.46,-3.56,288.049,82.294,97171.822,25.201,118.249
福建,漳州市,27.99,48.604,9.682,25.3,0.575,45.204,-2.965,-3.494,289.73,79.148,98759.452,24.372,117.444
福建,福州市,26.807,42.071,8.047,21.72,0.494,55.878,-1.547,-3.398,287.724,83.268,97984.934,26.083,119.206
福建,莆田市,26.179,40.119,8.617,19.301,0.462,61.594,-2.497,-5.024,288.979,81.355,98725.762,25.445,118.864
福建,龙岩市,25.345,39.62,10.526,15.173,0.537,46.059,-1.638,-2.447,287.271,75.542,95724.734,25.256,116.739
西藏,山南市,3.947,5.085,0.244,2.032,0.151,81.181,2.359,-0.017,277.19,30.275,66762.928,28.295,92.274
西藏,拉萨市,2.511,5.485,0.043,4.306,0.189,77.324,2.731,0.028,270.264,30.955,57194.987,30.043,91.093
西藏,日喀则市,2.25,2.89,0.185,0.74,0.144,79.156,5.214,0.012,269.548,34.397,55949.505,29.483,86.493
西藏,昌都市,0.649,1.622,0.025,1.735,0.16,75.69,3.928,-1.587,267.126,34.708,59661.212,30.753,97.044
西藏,林芝市,1.529,1.691,0.094,1.567,0.126,77.397,1.098,-1.845,276.001,28.802,66985.457,29.184,95.25
西藏,玉树藏族自治州,0.544,0.724,0.055,0.756,0.137,72.363,6.953,-0.604,264.869,45.099,57804.957,34.196,94.317
西藏,那曲市,0.351,0.377,0.023,0.229,0.129,74.859,6.163,-0.448,266.307,41.405,56015.477,32.709,89.262
西藏,阿里地区,0.596,0.723,0.073,0.512,0.119,80.334,7.857,1.272,265.267,47.318,55365.351,33.013,82.553
贵州,六盘水市,43.69,71.978,13.644,21.302,0.737,56.742,1.652,1.803,283.559,71.007,83694.988,26.106,104.896
贵州,安顺市,50.685,77.447,13.04,16.46,0.607,51.166,-0.041,0.722,285.122,72.272,88826.089,25.986,105.978
贵州,毕节市,54.371,75.512,13.43,17.571,0.66,49.137,2.763,2.187,283.445,65.484,84018.338,27.063,105.211
贵州,贵阳市,62.772,95.057,16.999,36.523,0.771,29.739,1.393,2.662,283.783,77.495,88854.284,26.845,106.71
贵州,遵义市,51.63,71.855,15.462,20.733,0.675,34.388,-0.328,1.157,284.129,75.746,91050.327,28.167,107.102
贵州,铜仁市,30.739,66.134,12.371,20.662,0.858,30.354,-0.26,-0.169,285.239,75.814,93470.034,27.937,108.534
贵州,黔东南苗族侗族自治州,38.583,69.275,17.778,13.78,0.66,44.11,-0.396,-1.002,286.483,69.141,93362.869,26.495,108.574
贵州,黔南布依族苗族自治州,46.101,73.416,15.999,17.131,0.566,42.156,-0.088,-0.365,285.811,72.278,91057.761,26.0,107.265
贵州,黔西南布依族苗族自治州,35.455,58.736,12.236,11.712,0.599,59.535,0.031,0.884,286.376,71.03,89220.522,25.256,105.467
辽宁,丹东市,16.936,39.72,7.141,14.081,0.442,44.723,0.213,-3.42,271.046,28.55,99648.133,40.554,124.376
辽宁,大连市,27.278,82.731,9.248,17.826,0.464,44.339,-4.867,-1.521,275.12,39.847,101873.273,39.591,122.22
辽宁,抚顺市,21.122,43.446,8.11,20.143,0.459,38.469,3.716,-1.187,267.599,31.086,97835.755,41.841,124.65
辽宁,朝阳市,29.987,71.662,24.638,22.072,0.75,31.264,-1.744,-0.581,268.552,38.932,97328.011,41.545,120.053
辽宁,本溪市,15.993,36.967,8.341,18.251,0.473,39.779,1.954,-2.594,268.197,33.372,97148.441,41.232,124.544
辽宁,沈阳市,22.967,57.711,8.163,19.505,0.428,35.649,1.637,-1.737,270.005,25.723,102275.939,42.081,123.159
辽宁,盘锦市,27.929,73.993,19.578,28.195,0.735,30.528,-2.57,-3.298,271.597,25.714,102930.074,41.13,122.01
辽宁,营口市,22.731,56.756,11.503,23.342,0.603,37.445,-3.462,-2.325,271.943,30.67,100515.422,40.395,122.478
辽宁,葫芦岛市,27.404,75.77,26.068,29.018,0.727,29.25,-3.631,-3.102,271.714,35.354,100166.767,40.66,120.215
辽宁,辽阳市,22.558,59.552,11.982,26.311,0.574,30.292,-0.574,-2.752,270.547,29.769,100810.095,41.153,123.261
辽宁,铁岭市,23.997,46.749,7.113,15.881,0.448,41.108,4.381,-1.127,268.22,27.794,100581.879,42.653,124.158
辽宁,锦州市,29.739,72.029,18.385,21.393,0.613,34.307,-1.457,-2.54,270.557,28.074,102076.71,41.502,121.659
辽宁,阜新市,18.713,41.586,11.133,11.893,0.406,43.879,1.493,-2.276,268.828,26.749,100519.204,42.289,121.968
辽宁,鞍山市,19.576,50.675,10.309,20.845,0.541,37.167,-1.518,-3.002,271.387,28.105,100850.308,40.731,123.007
重庆,重庆城区,54.039,78.762,12.715,30.637,0.812,26.869,-1.202,-0.568,285.168,73.183,95674.837,29.824,107.125
重庆,重庆郊县,47.006,70.895,15.442,17.579,0.672,33.843,0.406,0.365,282.984,78.672,91797.795,30.334,108.755
陕西,咸阳市,87.474,241.282,13.755,54.026,1.069,24.46,0.305,-1.01,280.834,47.297,91964.26,34.779,108.367
陕西,商洛市,39.74,85.441,6.122,16.942,0.52,48.475,2.305,1.016,279.344,62.542,89868.667,33.64,109.889
陕西,安康市,38.722,77.143,10.402,12.206,0.468,46.766,3.037,0.071,280.037,70.127,90491.953,32.735,108.932
陕西,宝鸡市,67.243,192.431,8.171,32.023,0.754,37.577,2.1,0.439,279.897,47.702,86806.939,34.386,107.193
陕西,延安市,52.782,139.711,25.726,42.607,1.375,30.132,2.848,0.905,277.399,51.797,87939.738,36.432,109.316
陕西,榆林市,50.225,149.793,28.741,45.841,1.174,26.531,2.475,1.145,275.635,45.372,88271.317,38.041,109.581
陕西,汉中市,39.842,81.625,7.544,13.899,0.593,42.931,1.328,-0.197,279.615,69.06,89560.202,33.088,107.098
陕西,渭南市,95.251,238.199,33.388,65.962,1.763,19.206,0.564,-0.198,281.565,40.803,94355.0,34.919,109.855
陕西,西安市,73.798,200.942,11.393,53.284,0.966,29.482,1.959,0.463,281.26,42.918,91042.244,34.12,108.77
陕西,铜川市,60.11,153.629,17.756,50.422,0.984,27.369,2.091,0.483,279.704,50.237,89606.343,35.198,109.058
青海,保亭黎族苗族自治县,15.13,25.582,9.892,12.504,0.57,39.204,-4.15,-7.622,294.432,83.416,97510.456,18.566,109.618
青海,吐鲁番市,18.758,65.32,2.719,5.075,0.396,52.318,1.018,-0.252,274.652,30.791,90882.595,42.386,89.851
青海,果洛藏族自治州,0.502,0.583,0.068,0.868,0.132,71.955,8.721,-0.923,264.479,45.631,60405.787,34.127,99.404
青海,海东市,17.859,32.166,6.768,15.397,0.831,59.739,5.274,-0.506,274.329,31.818,73097.392,36.347,102.34
青海,海北藏族自治州,1.095,1.51,0.535,1.053,0.138,72.682,6.772,-1.665,267.309,43.054,65543.816,37.775,100.288
青海,海南藏族自治州,0.694,0.856,0.212,0.707,0.128,72.571,7.485,0.024,269.97,35.354,66835.066,35.89,100.272
青海,海西蒙古族藏族自治州,0.534,0.694,0.233,0.455,0.122,69.783,5.56,-0.228,268.365,37.404,64931.72,36.677,94.519
青海,西宁市,9.315,17.686,6.703,12.391,0.639,63.686,6.194,-1.031,271.343,39.129,69845.816,36.842,101.423
青海,黄南藏族自治州,0.907,1.264,0.214,0.873,0.136,70.342,7.706,-0.118,269.211,36.082,66175.459,35.022,101.631
香港,香港特别行政区,32.24,44.175,7.73,34.055,0.6,31.005,-4.16,-4.97,293.3,76.555,101451.355,22.45,114.22
黑龙江,七台河市,12.549,32.237,4.062,7.937,0.293,53.939,10.702,-0.101,262.22,55.315,98597.175,45.87,130.943
黑龙江,伊春市,4.555,6.736,1.993,2.263,0.237,58.865,7.87,-1.318,256.345,65.161,96950.387,47.772,129.184
黑龙江,佳木斯市,7.837,15.588,2.612,4.328,0.269,54.64,8.445,0.293,260.539,59.212,100544.489,47.207,132.11
黑龙江,双鸭山市,8.49,14.877,3.396,5.845,0.261,53.727,8.109,0.384,261.645,63.406,100110.042,46.722,132.643
黑龙江,哈尔滨市,11.534,18.6,5.315,7.623,0.338,55.451,9.176,-0.069,263.287,44.655,99208.877,45.634,127.964
黑龙江,大兴安岭地区,0.811,1.045,0.75,1.213,0.21,60.828,6.427,-3.158,249.265,62.792,95050.708,52.286,124.212
黑龙江,大庆市,9.544,14.958,5.033,6.314,0.294,52.466,6.735,-2.47,264.035,34.918,100750.088,46.327,124.687
黑龙江,牡丹江市,8.912,16.993,3.359,5.537,0.266,60.05,10.099,0.752,262.434,52.185,95812.229,44.592,129.883
黑龙江,绥化市,10.442,15.839,4.629,6.245,0.327,54.935,7.224,-2.177,260.974,47.488,99722.905,46.89,126.634
黑龙江,鸡西市,9.461,17.88,4.113,7.086,0.273,55.287,9.474,0.67,264.076,53.923,99954.039,45.626,132.289
黑龙江,鹤岗市,5.414,9.862,2.654,3.858,0.262,54.649,6.91,-1.641,258.327,61.413,99508.618,47.661,130.778
黑龙江,黑河市,4.015,7.15,1.554,2.126,0.278,58.448,5.334,-2.636,254.013,62.586,97435.069,49.268,127.004
黑龙江,齐齐哈尔市,8.235,11.822,3.682,3.615,0.279,56.663,5.43,-3.506,260.563,42.534,99762.797,47.715,124.57
