province,city,PM2.5,PM10,SO2,NO2,CO,O3,U,V,TEMP,RH,PSFC,lat,lon
上海,上海市,108.239,147.651,27.142,88.987,1.2,42.079,0.178,1.524,287.321,70.806,102552.456,31.173,121.42
云南,临沧市,23.857,31.217,8.481,5.324,0.47,56.64,0.888,1.441,286.724,56.85,84477.803,23.935,99.686
云南,丽江市,10.293,15.045,3.582,8.311,0.534,66.374,3.841,1.086,282.546,31.998,75026.891,26.96,100.515
云南,保山市,21.388,32.776,5.448,7.185,0.46,56.559,1.83,0.556,285.429,50.578,82422.537,24.953,98.962
云南,大理白族自治州,12.751,21.56,4.186,6.412,0.437,69.171,4.213,1.237,283.828,40.996,78582.392,25.726,100.053
云南,德宏傣族景颇族自治州,27.761,33.928,7.156,7.445,0.396,57.692,-0.702,0.101,287.565,55.208,86656.291,24.535,98.052
云南,怒江傈僳族自治州,6.646,10.897,0.794,2.367,0.22,69.149,2.239,-0.288,280.019,36.746,73229.303,26.916,98.885
云南,文山壮族苗族自治州,41.821,56.188,14.276,5.692,0.537,74.975,1.085,3.007,286.452,71.269,87127.71,23.696,104.735
云南,昆明市,28.981,41.063,10.705,16.508,0.667,65.077,4.442,3.337,283.811,56.131,79707.652,25.384,102.863
云南,昭通市,52.547,79.453,12.748,14.042,0.707,45.767,0.036,1.112,282.816,70.108,84542.216,27.667,103.985
云南,普洱市,23.294,30.193,8.493,4.82,0.344,58.052,-0.387,1.1,286.931,62.788,86575.429,23.159,100.718
云南,曲靖市,28.588,45.966,13.425,15.143,0.644,65.152,4.094,3.783,284.267,55.604,80465.817,25.737,103.929
云南,楚雄彝族自治州,24.05,28.403,6.477,5.807,0.475,68.97,3.656,3.825,284.909,54.234,81472.966,25.328,101.567
云南,玉溪市,27.004,33.16,8.37,6.395,0.513,78.801,1.611,2.59,285.829,62.823,84043.859,24.136,102.217
云南,红河哈尼族彝族自治州,32.233,41.386,11.368,5.206,0.451,81.343,0.014,1.89,286.24,64.168,85752.583,23.451,103.034
云南,西双版纳傣族自治州,26.068,36.428,9.593,8.384,0.373,44.681,-2.248,-0.33,288.547,66.145,89580.753,21.939,100.912
云南,迪庆藏族自治州,4.055,5.944,1.198,3.314,0.271,72.15,4.695,0.468,277.023,32.274,67629.518,27.957,99.459
内蒙古,乌兰察布市,17.959,35.407,13.888,17.806,0.527,36.791,4.874,2.25,268.649,40.006,86342.156,41.691,112.44
内蒙古,乌海市,56.055,162.515,62.205,56.302,1.436,21.884,0.574,0.373,274.994,33.289,88268.328,39.396,106.856
内蒙古,兴安盟,5.573,7.66,3.956,3.28,0.229,45.286,4.106,0.992,261.866,46.348,95378.311,46.244,121.341
内蒙古,包头市,17.824,29.044,10.952,15.311,0.384,37.192,4.524,2.349,269.705,34.094,86333.274,41.549,110.276
内蒙古,呼伦贝尔市,3.166,4.402,4.015,2.908,0.21,48.424,3.723,1.325,255.943,62.672,93739.836,49.636,121.171
内蒙古,呼和浩特市,40.624,84.138,25.877,40.016,0.877,25.121,2.729,1.875,270.45,38.505,86803.205,40.578,111.513
内蒙古,巴彦淖尔市,11.66,19.899,5.019,5.34,0.245,43.81,4.323,2.253,271.179,35.996,87806.266,41.446,107.582
内蒙古,赤峰市,14.372,24.845,8.522,8.749,0.384,38.923,4.153,1.37,265.856,40.37,92513.27,43.226,118.892
内蒙古,通辽市,15.452,23.172,8.541,7.876,0.341,39.83,1.727,1.084,265.689,33.693,98895.615,43.814,121.591
内蒙古,鄂尔多斯市,28.279,67.193,23.518,31.255,0.658,32.228,2.222,1.648,273.844,38.23,87575.563,39.407,108.63
内蒙古,锡林郭勒盟,4.246,6.178,3.825,2.333,0.195,39.953,4.997,2.936,265.069,49.808,89371.235,44.179,115.482
内蒙古,阿拉善盟,7.64,12.574,2.753,3.308,0.212,48.688,2.153,-0.103,274.608,35.709,88102.52,40.473,102.467
北京,北京市,48.048,108.735,14.306,45.383,1.125,15.431,-0.151,-0.467,274.019,29.961,98917.38,40.158,116.395
台湾,台湾省,20.206,24.623,7.5,15.81,0.243,66.416,-1.511,-2.967,290.198,73.329,93622.752,23.757,120.975
吉林,吉林市,19.621,29.831,7.8,10.622,0.459,42.531,4.886,0.01,263.61,47.778,98126.262,43.573,126.859
吉林,四平市,23.355,34.422,6.501,13.556,0.491,35.753,2.959,0.311,265.254,34.52,100612.678,43.472,124.386
吉林,延边朝鲜族自治州,14.197,21.47,6.899,9.59,0.353,48.121,7.998,-0.959,262.065,51.978,94812.438,43.141,129.147
吉林,松原市,15.353,23.362,5.444,8.042,0.362,40.452,3.652,-0.045,264.153,36.657,100920.466,44.785,124.496
吉林,白城市,12.253,16.754,5.372,5.888,0.321,42.034,2.544,0.345,264.459,36.731,100992.061,45.35,123.031
吉林,白山市,21.138,34.167,11.907,15.929,0.529,38.839,4.181,0.479,261.884,54.01,92971.506,42.063,127.256
吉林,辽源市,35.225,47.266,7.337,17.042,0.596,34.415,3.653,-0.255,264.986,40.624,98610.852,42.836,125.32
吉林,通化市,26.77,42.713,10.598,17.522,0.624,34.541,2.133,-1.167,264.831,44.495,96703.511,41.939,125.927
吉林,长春市,19.453,30.816,6.092,10.427,0.482,38.783,4.426,-0.046,264.269,38.157,100451.424,44.268,125.611
四川,乐山市,62.613,83.319,9.628,21.454,0.775,36.624,-0.924,0.248,283.055,74.655,90136.565,29.218,103.569
四川,内江市,64.645,92.85,9.88,31.007,0.875,19.49,-0.666,-1.198,285.785,73.345,97369.59,29.62,104.95
四川,凉山彝族自治州,18.771,24.799,6.04,8.846,0.529,63.714,3.158,2.414,281.519,36.561,74506.677,27.883,102.065
四川,南充市,57.602,76.07,8.932,21.059,0.808,25.277,0.084,-1.333,284.912,72.995,97389.81,31.19,106.199
四川,宜宾市,77.407,105.529,14.642,26.616,0.846,27.657,-0.627,-0.411,285.199,75.746,95685.968,28.573,104.621
四川,巴中市,47.104,63.091,7.359,12.438,0.725,37.085,-1.893,-0.401,283.242,66.538,93041.868,32.033,107.031
四川,广元市,42.099,62.384,7.834,14.241,0.669,28.953,-1.293,-1.134,282.582,63.319,92138.662,32.261,105.788
四川,广安市,62.335,84.959,12.074,31.057,0.876,17.409,-0.687,-1.768,285.775,71.888,97400.623,30.43,106.628
四川,德阳市,64.621,112.606,12.62,36.148,0.724,23.023,0.293,0.513,283.454,69.702,93763.632,31.13,104.436
四川,成都市,73.477,115.124,13.687,36.231,0.804,22.836,0.055,0.205,283.436,72.94,93915.305,30.64,103.929
四川,攀枝花市,29.562,41.1,13.48,25.023,1.117,51.474,0.48,2.405,285.972,39.248,81905.067,26.791,101.734
四川,泸州市,72.369,94.902,18.653,28.433,0.746,24.257,-0.074,-1.177,284.806,79.224,94029.168,28.424,105.675
四川,甘孜藏族自治州,1.321,1.733,0.287,2.524,0.146,72.205,4.747,1.341,270.362,36.311,61494.684,30.936,100.009
四川,眉山市,70.968,99.132,9.74,29.205,0.875,26.868,-0.771,-0.193,284.161,75.644,94374.976,29.912,103.766
四川,绵阳市,34.71,52.735,7.417,17.675,0.485,39.642,0.466,-0.572,281.431,61.866,88491.493,31.86,104.704
四川,自贡市,77.962,108.372,12.065,34.321,0.97,20.714,-0.915,-0.639,285.762,74.453,97343.785,29.307,104.659
四川,资阳市,61.253,88.205,8.606,27.216,0.797,17.599,-0.539,-1.308,285.317,74.986,97626.39,30.102,105.149
四川,达州市,50.347,67.181,11.636,19.805,0.77,34.28,-1.235,-0.166,284.597,69.126,94665.398,31.335,107.636
四川,遂宁市,60.761,88.1,9.991,30.268,0.837,16.205,0.057,-1.582,284.986,75.058,97867.864,30.642,105.457
四川,阿坝藏族羌族自治州,2.799,4.388,0.489,3.723,0.175,64.009,4.685,1.015,271.667,37.359,65786.734,32.406,102.61
四川,雅安市,31.871,43.635,6.43,12.038,0.475,58.621,0.154,-0.478,280.01,56.566,80456.244,29.932,102.689
天津,天津市,47.338,111.281,25.123,49.235,1.291,10.978,-2.991,-2.19,275.752,44.64,102804.479,39.315,117.308
宁夏,中卫市,51.519,130.403,18.198,35.851,0.91,33.219,1.183,2.208,277.822,38.451,84029.445,37.018,105.509
宁夏,吴忠市,39.142,96.505,13.521,24.703,0.66,37.943,0.913,2.167,277.26,36.991,85623.834,37.454,106.577
宁夏,固原市,38.83,110.466,12.847,31.762,0.927,40.378,0.524,2.73,276.262,47.568,81421.88,35.905,106.183
宁夏,石嘴山市,57.973,148.79,42.626,45.672,1.409,28.161,0.83,0.146,275.681,32.199,87321.067,39.013,106.499
宁夏,银川市,59.607,153.187,31.877,42.569,1.215,30.111,0.713,0.608,276.938,32.861,87619.109,38.287,106.342
安徽,亳州市,200.131,300.834,12.717,39.954,1.576,33.918,-0.227,-2.952,284.593,58.842,102289.153,33.44,116.162
安徽,六安市,127.889,182.636,15.359,47.132,1.081,47.585,-0.001,-0.494,286.751,57.057,99723.646,31.617,116.209
安徽,合肥市,124.779,162.722,17.242,66.096,1.385,37.477,-0.34,-0.439,287.277,59.805,102123.871,31.766,117.359
安徽,安庆市,73.054,103.942,17.2,32.504,0.834,58.185,-0.317,-0.273,287.614,58.344,100157.188,30.557,116.473
安徽,宣城市,65.984,90.298,15.951,34.651,0.858,45.824,-0.277,0.724,287.145,53.898,100101.214,30.676,118.846
安徽,宿州市,172.644,267.239,15.507,44.765,1.606,31.042,0.037,-2.437,284.61,61.021,102219.945,33.844,117.23
安徽,池州市,56.238,79.602,15.418,28.749,0.753,53.212,-0.607,0.231,287.79,57.161,100325.445,30.296,117.379
安徽,淮北市,201.068,292.544,15.128,45.91,1.643,27.912,-0.182,-2.47,284.664,60.01,102274.487,33.722,116.747
安徽,淮南市,181.799,263.438,15.389,50.784,1.399,30.275,-0.46,-1.626,286.816,55.775,102302.297,32.463,116.746
安徽,滁州市,140.346,189.243,17.307,51.854,1.402,35.854,0.44,-0.772,286.588,54.639,102017.924,32.55,118.076
安徽,芜湖市,96.238,120.379,19.539,63.37,1.36,39.163,-0.088,0.5,287.472,61.031,102299.035,31.167,118.162
安徽,蚌埠市,152.842,214.14,15.334,37.463,1.401,36.27,0.147,-1.787,285.762,53.906,102286.273,33.121,117.263
安徽,铜陵市,82.584,111.385,17.552,60.345,1.228,40.638,-0.445,0.401,287.681,62.536,102147.775,30.883,117.531
安徽,阜阳市,227.446,328.425,12.581,40.433,1.657,35.04,-0.942,-2.608,285.149,55.201,102261.824,32.937,115.723
安徽,马鞍山市,120.751,159.446,24.911,74.25,1.654,33.439,-0.197,0.283,287.201,58.262,102303.665,31.622,118.386
安徽,黄山市,40.748,63.137,14.296,19.009,0.666,43.256,-0.98,0.027,286.862,53.571,98093.764,29.869,118.09
山东,东营市,52.138,147.134,13.802,27.148,0.645,34.726,-2.857,-4.658,280.81,71.166,102726.574,37.57,118.572
山东,临沂市,131.679,280.955,15.831,44.429,1.19,32.931,-2.07,-3.812,282.519,69.258,100751.962,35.289,118.27
山东,威海市,24.077,69.42,7.216,18.765,0.538,47.68,-0.257,-2.307,282.381,82.636,101860.559,37.148,122.028
山东,德州市,81.911,229.206,18.136,45.492,1.054,20.778,-2.723,-4.117,279.447,63.026,102630.807,37.233,116.679
山东,日照市,98.905,256.576,12.094,39.667,0.925,34.019,-0.583,-5.044,282.25,71.584,100864.877,35.566,119.108
山东,枣庄市,168.387,316.644,17.952,54.028,1.536,26.276,-2.346,-2.142,283.768,66.64,101482.922,34.925,117.383
山东,泰安市,142.44,350.829,24.471,59.434,1.566,19.924,-3.401,-4.258,281.47,64.907,100690.541,35.993,117.04
山东,济南市,119.62,316.297,25.018,54.895,1.378,19.354,-3.472,-3.593,279.718,68.833,100727.142,36.639,117.254
山东,济宁市,158.745,364.606,21.989,61.197,1.727,17.503,-1.593,-3.798,282.554,65.719,101984.24,35.375,116.697
山东,淄博市,110.382,306.584,27.1,51.127,1.313,22.062,-2.265,-3.228,279.515,74.731,100089.155,36.623,118.062
山东,滨州市,63.631,171.327,15.37,34.018,0.798,28.252,-3.352,-3.906,280.468,68.281,102688.083,37.516,117.852
山东,潍坊市,83.781,262.907,16.22,40.142,0.976,28.608,0.045,-4.788,281.033,74.635,101521.081,36.53,119.092
山东,烟台市,35.356,107.244,8.417,24.738,0.671,39.751,-0.846,-3.713,281.172,84.113,101427.941,37.25,120.789
山东,聊城市,108.037,292.777,20.593,53.868,1.261,15.727,-1.768,-5.243,279.372,56.986,102396.699,36.458,115.863
山东,菏泽市,164.027,339.649,19.697,57.53,1.57,16.452,-0.314,-5.492,281.157,60.458,102193.358,35.134,115.69
山东,青岛市,58.589,198.358,10.108,34.02,0.791,33.134,0.377,-4.165,282.339,77.742,102012.457,36.46,120.172
山西,临汾市,98.654,188.261,43.312,58.288,1.864,30.51,-0.354,0.072,278.718,38.35,90757.878,36.227,111.398
山西,吕梁市,65.926,150.083,43.192,46.065,1.139,26.887,0.663,0.199,275.918,33.067,88307.946,37.663,111.27
山西,大同市,45.849,98.911,38.795,35.697,1.064,21.567,2.603,1.34,271.153,39.087,87786.455,39.911,113.713
山西,太原市,76.118,182.038,41.754,56.737,1.115,18.751,1.268,-0.066,275.26,31.774,88189.234,37.967,112.321
山西,忻州市,64.375,134.051,34.54,43.991,0.921,25.549,1.781,1.234,272.779,30.852,86645.848,38.877,112.391
山西,晋中市,84.063,196.458,35.989,63.039,1.328,17.845,0.042,0.604,275.49,36.28,89151.632,37.328,112.997
山西,晋城市,110.567,243.105,38.751,53.367,2.033,34.639,-0.403,0.128,277.894,40.35,91174.44,35.625,112.752
山西,朔州市,67.222,157.259,56.858,51.027,1.125,18.565,3.466,1.78,272.056,35.979,87104.683,39.619,112.655
山西,运城市,138.811,270.497,44.683,57.122,2.988,35.523,-2.514,0.114,280.946,39.612,95027.074,35.205,111.071
山西,长治市,89.689,208.09,36.298,57.643,1.728,23.959,-0.927,0.212,276.113,39.105,89472.699,36.48,112.915
山西,阳泉市,94.052,219.131,41.686,65.837,1.369,15.246,-0.738,0.54,273.752,35.158,91117.378,38.031,113.512
广东,东莞市,42.954,62.481,12.294,44.188,0.717,42.98,-4.499,-4.027,292.197,61.703,101929.286,22.931,113.81
广东,中山市,44.828,69.512,13.922,51.047,0.781,47.054,-3.912,-4.057,292.556,70.821,101914.834,22.5,113.383
广东,云浮市,45.627,64.955,13.472,31.994,0.702,45.83,-4.143,-2.588,290.237,56.306,99913.001,22.776,111.818
广东,佛山市,48.172,78.561,15.681,61.837,0.881,35.701,-2.532,-3.895,291.71,55.313,101993.169,23.035,112.979
广东,广州市,38.808,58.04,11.983,39.034,0.668,45.024,-4.108,-3.404,291.688,55.917,101076.878,23.339,113.525
广东,惠州市,36.481,51.599,11.409,20.492,0.602,55.574,-4.053,-4.155,291.025,66.354,100088.106,23.244,114.485
广东,揭阳市,43.589,63.909,15.436,27.738,0.871,61.108,-5.283,-4.093,291.576,71.809,100713.971,23.323,116.123
广东,梅州市,35.378,53.467,12.489,20.774,0.756,50.979,-3.451,-2.111,289.851,70.11,98686.663,24.169,116.07
广东,汕头市,33.373,52.905,14.416,23.724,0.693,71.992,-6.415,-5.634,292.329,71.918,101848.544,23.339,116.614
广东,汕尾市,40.083,56.696,14.072,21.209,0.722,64.69,-5.662,-4.506,291.858,72.083,100410.726,23.024,115.527
广东,江门市,48.177,71.17,15.822,48.095,0.791,49.536,-3.804,-4.861,291.944,68.273,101340.45,22.289,112.676
广东,河源市,36.479,52.865,12.431,18.283,0.649,54.048,-2.885,-3.742,289.549,66.729,98878.096,24.021,114.969
广东,深圳市,39.19,58.707,11.563,35.802,0.677,48.858,-4.859,-3.983,292.207,71.424,101418.83,22.667,114.143
广东,清远市,37.602,54.673,12.852,20.189,0.617,47.5,-2.629,-3.192,289.549,48.237,98392.585,24.295,112.871
广东,湛江市,42.882,56.039,17.488,18.898,0.684,59.395,-5.065,-3.369,294.045,73.538,101687.617,21.091,110.163
广东,潮州市,33.485,53.619,13.079,21.86,0.711,61.527,-6.009,-4.851,291.056,68.879,100160.496,23.755,116.754
广东,珠海市,39.6,58.542,15.578,38.183,0.628,55.468,-4.563,-5.06,293.053,77.848,101964.387,22.095,113.317
广东,肇庆市,38.745,56.165,11.776,23.643,0.594,46.652,-4.408,-3.129,290.708,47.875,100030.416,23.505,112.199
广东,茂名市,45.363,62.179,15.724,20.849,0.725,57.458,-5.707,-3.263,292.444,61.195,99909.303,22.013,110.952
广东,阳江市,50.358,67.208,14.603,28.959,0.754,55.922,-4.022,-5.245,291.48,65.117,100478.835,22.042,111.786
广东,韶关市,36.714,55.045,13.351,21.133,0.783,44.465,-3.173,-2.838,288.551,53.166,97619.834,24.785,113.819
广西,北海市,52.905,66.881,16.485,17.585,0.905,64.594,-3.906,-2.971,293.724,61.626,101763.926,21.674,109.37
广西,南宁市,55.193,87.839,14.805,26.783,0.865,50.742,-3.21,-2.486,291.229,51.41,99980.184,23.051,108.469
广西,崇左市,51.209,82.926,16.791,18.294,0.724,57.013,-2.781,-1.72,290.716,57.357,98670.643,22.483,107.291
广西,来宾市,46.701,74.595,13.243,17.846,0.709,53.97,-2.918,-1.415,291.036,43.642,98805.502,23.859,109.417
广西,柳州市,44.165,70.234,14.488,15.489,0.64,54.915,-1.912,-1.007,290.023,45.483,98209.365,24.956,109.372
广西,桂林市,49.547,71.609,13.51,17.903,0.619,52.941,-2.374,-1.193,289.064,43.747,96579.133,25.353,110.513
广西,梧州市,43.446,65.931,13.607,20.351,0.667,46.545,-4.263,-1.598,290.56,48.967,99644.288,23.484,110.996
广西,河池市,47.241,75.716,15.495,10.198,0.631,52.083,-1.91,0.615,288.814,56.538,95838.153,24.628,107.843
广西,玉林市,49.686,70.655,17.074,24.469,0.831,56.898,-5.116,-3.013,291.871,57.935,100001.609,22.452,110.164
广西,百色市,51.089,70.241,17.5,9.856,0.685,62.526,-1.737,2.081,288.648,66.0,93708.663,23.981,106.292
广西,贵港市,47.361,75.563,13.334,20.846,0.754,56.965,-4.517,-2.334,291.104,48.901,100493.718,23.322,110.021
广西,贺州市,40.985,63.383,14.552,17.043,0.645,44.908,-2.727,-1.807,290.141,41.995,97813.461,24.364,111.394
广西,钦州市,54.166,75.886,14.657,22.855,0.929,61.774,-4.183,-3.782,292.547,56.01,101074.032,22.173,109.01
广西,防城港市,49.159,72.362,14.424,18.022,0.778,64.152,-3.161,-3.99,291.705,56.736,99476.129,21.88,108.002
新疆,乌鲁木齐市,19.434,40.517,3.933,16.091,0.486,54.273,1.362,-0.362,272.733,55.273,84854.6,43.746,87.818
新疆,五家渠市,27.897,56.707,4.38,14.82,0.507,45.727,-0.127,-0.68,272.873,74.113,97562.667,44.363,87.517
新疆,伊犁哈萨克自治州,13.324,18.722,3.644,5.579,0.469,61.58,1.041,0.688,272.266,63.906,80939.559,43.438,82.146
新疆,克孜勒苏柯尔克孜自治州,5.439,10.804,0.758,1.999,0.254,70.705,5.016,-3.309,268.737,49.773,70824.963,39.661,75.949
新疆,克拉玛依市,18.519,91.099,3.179,8.674,0.331,47.014,-1.246,-0.845,270.885,68.181,98470.105,45.457,85.207
新疆,北屯市,5.812,7.3,5.148,13.406,0.916,29.628,-2.742,2.394,268.018,78.954,96498.106,47.27,87.868
新疆,博尔塔拉蒙古自治州,15.719,40.202,5.032,5.486,0.392,54.473,2.771,1.776,272.063,65.396,86868.469,44.714,82.114
新疆,双河市,25.782,81.388,10.038,8.84,0.458,38.916,-0.774,-0.24,272.846,67.116,98941.602,44.87,82.474
新疆,可克达拉市,58.734,74.328,14.376,24.164,1.566,35.062,-1.944,0.406,278.634,62.928,95689.48,43.918,80.786
新疆,和田地区,9.03,13.229,1.668,1.709,0.24,64.008,5.297,0.351,270.678,39.189,74482.346,37.059,80.934
新疆,哈密市,5.383,8.031,1.695,1.206,0.225,58.531,1.561,-0.26,274.186,42.059,88913.301,43.042,93.517
新疆,喀什地区,24.265,39.386,3.683,4.939,0.49,63.242,4.933,0.473,271.07,45.351,76655.908,38.125,77.178
新疆,图木舒克市,19.477,23.638,6.805,4.118,0.38,48.968,0.01,-0.532,276.765,46.99,90014.615,39.892,79.182
新疆,塔城地区,11.461,31.34,2.831,5.203,0.302,55.174,1.349,-0.203,271.092,73.785,90300.512,45.642,84.789
新疆,巴音郭楞蒙古自治州,4.619,7.054,0.837,0.759,0.169,58.51,2.555,0.022,271.907,42.178,79688.455,39.463,87.481
新疆,新星市,31.95,65.8,10.85,10.365,0.795,36.65,-0.185,0.17,274.74,32.48,93513.28,42.75,93.68
新疆,昆玉市,25.767,47.483,7.41,7.757,0.707,49.467,2.087,-1.427,278.36,43.207,87692.993,37.457,79.093
新疆,昌吉回族自治州,15.612,32.604,3.044,6.963,0.361,58.656,0.801,0.164,272.659,61.753,90657.186,44.342,88.608
新疆,石河子市,73.66,140.68,16.095,42.535,1.225,19.89,-0.57,0.215,273.415,63.245,95569.6,44.245,86.035
新疆,胡杨河市,24.616,78.51,2.502,8.132,0.386,44.27,-2.984,-0.666,270.288,66.482,98954.16,44.852,84.772
新疆,铁门关市,37.153,101.037,5.79,12.387,0.58,61.453,0.66,0.897,278.927,34.627,92432.327,41.773,85.66
新疆,阿克苏地区,20.504,33.642,2.882,3.816,0.386,56.856,0.564,-0.927,274.908,45.874,85937.386,40.965,81.578
新疆,阿勒泰地区,3.998,5.641,2.518,4.184,0.382,58.9,-1.456,1.635,268.178,71.799,89136.844,46.902,88.421
新疆,阿拉尔市,43.982,76.342,3.979,9.58,0.689,46.33,-0.033,-0.1,276.0,44.967,90893.248,40.629,80.998
江苏,南京市,141.073,184.523,22.288,73.117,1.62,32.032,0.095,0.163,286.855,54.494,102358.738,31.899,118.876
江苏,南通市,137.829,168.736,27.611,68.799,1.281,41.535,0.357,1.178,287.22,67.605,102523.726,32.201,120.979
江苏,宿迁市,123.735,210.698,14.767,38.234,1.387,37.841,-0.296,-1.249,285.237,65.991,102454.906,33.765,118.495
江苏,常州市,146.327,193.866,23.181,83.004,1.464,30.627,0.145,0.736,287.139,58.184,102423.703,31.613,119.666
江苏,徐州市,164.867,288.498,15.345,50.614,1.576,27.318,-0.541,-2.382,284.016,67.75,102219.356,34.363,117.513
江苏,扬州市,159.796,207.194,18.22,60.106,1.65,34.586,0.338,0.297,286.43,58.209,102509.142,32.709,119.486
江苏,无锡市,150.724,206.248,27.408,94.664,1.485,27.419,0.175,0.716,287.486,59.494,102332.944,31.546,120.066
江苏,泰州市,160.391,202.795,21.981,66.63,1.607,34.347,0.267,0.323,286.583,62.607,102477.919,32.605,120.048
江苏,淮安市,146.255,218.856,15.723,43.311,1.47,35.781,0.256,-0.374,285.88,63.854,102448.188,33.362,118.985
江苏,盐城市,148.283,192.918,17.883,41.381,1.296,40.29,0.118,-0.081,285.751,71.728,102514.822,33.529,120.156
江苏,苏州市,130.29,179.794,27.633,98.154,1.344,33.66,0.109,1.344,287.493,64.357,102503.874,31.374,120.661
江苏,连云港市,119.968,222.764,14.671,34.065,1.105,40.658,-1.159,-1.784,284.274,73.899,102348.359,34.519,119.133
江苏,镇江市,155.995,199.903,23.98,80.836,1.669,27.674,0.216,0.372,286.934,56.756,102396.79,32.016,119.49
江西,上饶市,46.004,76.671,21.587,27.054,0.693,40.678,-2.039,-0.814,288.308,47.74,100162.86,28.778,117.47
江西,九江市,46.208,75.188,15.945,20.902,0.652,58.139,-1.25,1.054,288.272,56.322,100100.659,29.313,115.444
江西,南昌市,52.408,95.31,21.043,33.109,0.836,41.901,-1.117,-0.532,288.479,60.391,102022.019,28.671,116.016
江西,吉安市,45.811,73.692,18.456,20.582,0.716,50.006,-1.5,-0.97,287.562,57.484,99683.272,26.954,114.831
江西,宜春市,48.938,82.688,21.028,30.855,0.845,46.749,-1.976,-0.342,287.819,54.628,100057.354,28.29,114.974
江西,抚州市,36.234,57.786,16.622,16.828,0.531,52.214,-2.189,-1.229,288.075,53.055,99700.73,27.514,116.42
江西,新余市,54.841,92.711,31.088,42.132,1.11,38.03,-1.567,-0.841,287.629,57.931,100994.919,27.847,114.836
江西,景德镇市,43.794,70.192,19.665,19.495,0.64,41.561,-1.575,-1.245,288.055,53.743,101014.447,29.287,117.24
江西,萍乡市,47.634,76.294,20.006,24.282,0.967,46.169,-4.443,0.646,288.406,46.815,98650.836,27.505,113.908
江西,赣州市,34.927,55.876,14.217,16.722,0.764,51.198,-1.84,-2.762,287.84,60.461,97970.8,25.692,115.279
江西,鹰潭市,45.062,74.556,24.507,27.198,0.661,42.221,-2.341,-0.951,288.389,46.955,100680.189,28.222,117.094
河北,保定市,59.232,131.497,21.019,51.193,1.06,15.52,-0.903,-1.274,274.97,37.14,98901.873,39.018,115.159
河北,唐山市,43.225,97.786,28.127,41.721,1.264,16.543,-2.314,-2.63,274.499,38.442,102278.358,39.731,118.354
河北,廊坊市,58.128,135.22,23.667,54.14,1.433,9.984,-2.697,-1.716,275.505,43.123,102857.186,39.267,116.632
河北,张家口市,23.068,50.924,12.871,19.505,0.538,33.41,2.867,0.454,268.876,40.372,88227.771,40.877,115.042
河北,承德市,23.859,50.981,9.143,21.091,0.639,30.257,2.217,-0.606,267.861,41.12,91694.936,41.339,117.578
河北,沧州市,54.657,134.165,18.296,43.142,0.908,19.49,-2.927,-3.566,278.328,63.157,102804.729,38.258,116.744
河北,石家庄市,86.476,208.071,28.82,61.004,1.291,14.224,-0.315,-1.591,275.863,35.52,99469.917,38.135,114.407
河北,秦皇岛市,33.717,70.253,18.01,29.743,0.815,27.751,-1.52,-2.393,272.206,37.843,99871.455,40.12,119.193
河北,衡水市,76.175,205.169,19.132,52.443,1.248,15.621,-1.333,-3.84,277.42,57.171,102677.698,37.755,115.813
河北,邢台市,90.225,252.658,23.418,57.522,1.345,16.278,-0.085,-3.988,277.207,39.449,101139.462,37.195,114.815
河北,邯郸市,92.642,260.908,25.872,57.16,1.446,15.498,-0.532,-4.983,277.842,40.223,100618.908,36.538,114.596
河南,三门峡市,107.262,217.308,21.452,48.767,1.453,36.498,-1.319,0.512,280.502,43.623,92575.546,34.362,111.101
河南,信阳市,188.535,278.616,14.69,42.841,1.375,36.061,-0.723,-1.308,286.055,57.449,101254.988,32.091,114.907
河南,南阳市,167.12,295.196,15.71,46.463,1.384,35.677,-2.777,-2.441,283.683,45.597,99158.536,33.034,112.323
河南,周口市,203.853,329.185,15.434,44.187,1.715,29.436,-1.381,-3.922,282.805,52.621,102097.512,33.738,114.884
河南,商丘市,193.203,333.071,14.315,51.331,1.635,25.323,-0.278,-4.411,282.648,60.584,102171.681,34.277,115.718
河南,安阳市,98.692,266.852,28.731,57.94,1.616,17.362,-0.472,-5.851,278.476,40.923,100185.657,35.888,114.318
河南,平顶山市,167.947,345.496,21.895,57.938,1.57,23.681,-1.65,-3.304,282.07,41.426,99885.364,33.8,113.025
河南,开封市,158.346,333.02,21.681,55.163,1.551,23.664,-1.713,-5.521,280.8,46.41,101898.202,34.594,114.514
河南,新乡市,108.497,281.066,27.791,57.114,1.507,21.335,-2.821,-6.589,280.205,39.474,100980.07,35.256,114.111
河南,洛阳市,133.527,274.322,23.149,50.859,1.575,33.264,-1.34,-1.088,280.705,42.122,95083.635,34.274,112.019
河南,济源市,118.926,276.24,35.136,57.851,2.005,26.802,-2.094,-1.311,280.216,38.487,97019.582,35.105,112.445
河南,漯河市,207.979,369.592,19.188,53.385,1.728,26.235,-1.835,-3.816,282.115,44.7,101957.623,33.652,113.945
河南,濮阳市,120.865,293.221,24.072,55.678,1.382,14.902,-0.756,-6.158,279.454,52.699,102254.567,35.809,115.283
河南,焦作市,116.302,295.98,30.291,58.696,1.612,21.213,-3.751,-1.207,281.625,35.552,100768.975,35.121,113.163
河南,许昌市,172.087,357.122,24.627,58.773,1.681,22.455,-2.44,-4.797,281.417,41.029,101287.512,34.075,113.707
河南,郑州市,137.577,335.39,27.757,60.343,1.559,20.826,-3.642,-3.504,280.508,38.714,99966.586,34.634,113.438
河南,驻马店市,223.389,351.022,12.816,43.756,1.618,30.244,-1.355,-2.993,283.751,51.954,101592.629,32.925,114.174
河南,鹤壁市,99.852,277.554,30.591,60.18,1.729,16.78,-0.446,-7.186,279.051,40.716,101403.259,35.716,114.319
浙江,丽水市,41.014,64.923,10.402,30.865,0.639,36.046,-2.045,0.747,285.633,45.303,95375.469,28.194,119.51
浙江,台州市,58.476,91.743,14.599,43.076,0.727,40.345,-0.69,-1.606,286.883,63.79,99738.087,28.742,121.109
浙江,嘉兴市,86.833,137.525,19.671,83.761,1.088,36.879,0.017,1.409,287.231,63.724,102521.774,30.635,120.754
浙江,宁波市,64.15,97.68,18.748,57.205,0.867,41.601,-0.57,-0.417,287.093,69.093,101278.529,29.706,121.49
浙江,杭州市,54.938,88.824,14.26,39.993,0.837,31.314,-0.346,0.377,286.843,49.722,99548.231,29.891,119.464
浙江,温州市,49.008,80.348,12.402,42.998,0.718,36.363,-0.899,-1.758,286.469,61.534,98520.637,27.897,120.411
浙江,湖州市,88.628,132.162,20.217,66.219,1.061,25.67,0.028,0.634,287.208,53.134,101203.08,30.757,119.871
浙江,绍兴市,64.968,101.391,16.102,59.588,0.904,34.387,-0.819,1.094,286.842,51.842,100408.564,29.709,120.64
浙江,舟山市,46.782,74.023,15.985,19.615,0.64,62.188,-0.483,-1.84,288.088,77.825,102306.655,30.038,122.23
浙江,衢州市,44.994,72.167,14.251,41.953,0.717,35.65,-2.272,-0.372,287.555,39.701,98750.439,28.912,118.675
浙江,金华市,53.329,85.988,11.791,50.555,0.796,30.067,-1.302,0.63,286.614,45.591,99033.895,29.109,119.967
海南,万宁市,24.559,37.464,8.718,6.206,0.38,65.124,-3.136,-6.482,295.372,89.484,100520.983,18.842,110.294
海南,三亚市,11.667,22.301,7.51,4.761,0.36,62.309,-5.707,-4.306,296.679,74.394,99212.856,18.413,109.407
海南,东方市,24.565,33.845,12.655,6.042,0.356,62.641,-4.455,-4.045,296.305,77.915,99891.389,18.971,108.838
海南,临高县,33.953,47.426,11.404,14.129,0.574,50.043,-5.084,-3.923,295.067,89.69,101176.984,19.821,109.733
海南,乐东黎族自治县,17.842,26.724,9.089,4.47,0.326,63.54,-4.306,-3.657,295.789,77.794,98343.119,18.659,109.072
海南,五指山市,21.848,31.006,9.244,4.75,0.342,63.15,-5.546,-4.474,292.988,89.228,95147.734,18.81,109.518
海南,儋州市,35.759,48.756,13.119,11.708,0.51,51.026,-4.899,-3.197,294.999,89.351,100816.229,19.568,109.399
海南,定安县,29.567,42.032,6.982,12.067,0.582,51.613,-4.237,-3.973,295.315,88.225,100848.395,19.47,110.28
海南,屯昌县,31.608,44.03,8.928,11.608,0.55,50.878,-3.462,-3.162,294.678,90.752,100058.842,19.342,110.076
海南,文昌市,26.175,39.423,7.142,9.76,0.499,60.079,-5.559,-5.422,295.818,88.453,101630.105,19.707,110.773
海南,昌江黎族自治县,30.501,41.152,13.671,7.482,0.402,60.202,-5.991,-4.006,294.521,87.834,98906.802,19.233,109.016
海南,海口市,29.87,43.529,7.995,14.697,0.605,51.146,-5.417,-4.498,295.469,88.624,101448.368,19.842,110.393
海南,澄迈县,33.28,46.863,9.566,15.91,0.63,45.906,-4.486,-3.566,295.093,89.577,100992.283,19.676,109.989
海南,琼中黎族苗族自治县,30.825,42.817,10.268,8.445,0.449,53.477,-3.289,-3.273,293.406,94.173,97849.219,19.087,109.847
海南,琼海市,24.723,36.842,7.658,7.992,0.458,61.788,-3.477,-4.59,295.88,86.903,101385.16,19.22,110.43
海南,白沙黎族自治县,31.625,42.995,12.698,8.404,0.439,54.515,-4.588,-2.595,293.419,93.02,97560.724,19.2,109.388
海南,陵水黎族自治县,18.054,29.36,8.359,4.706,0.349,64.22,-4.611,-6.903,295.816,82.824,99803.909,18.581,109.913
湖北,仙桃市,98.913,153.216,20.645,46.813,1.216,42.321,-1.619,-0.015,288.899,60.804,102181.607,30.284,113.417
湖北,十堰市,68.099,128.266,13.75,21.867,0.785,48.744,-1.136,-0.338,283.043,57.077,94116.616,32.462,110.476
湖北,咸宁市,61.39,88.946,19.661,29.165,0.86,52.074,-1.463,1.112,288.928,54.427,100277.052,29.621,114.178
湖北,天门市,118.701,200.255,19.513,51.325,1.482,35.286,-1.651,-0.454,288.479,59.347,102138.203,30.633,113.053
湖北,孝感市,124.405,198.211,25.751,47.658,1.386,35.426,-1.7,-0.874,287.734,59.935,101559.963,31.116,113.869
湖北,宜昌市,87.294,112.827,18.808,30.23,0.85,40.945,-0.401,-0.127,285.353,66.105,94937.906,30.746,111.129
湖北,恩施土家族苗族自治州,59.054,80.666,16.073,12.161,0.701,37.013,0.065,1.497,283.653,79.771,90297.825,30.195,109.552
湖北,武汉市,103.936,147.434,38.422,51.889,1.286,33.929,-1.659,-0.018,288.612,62.214,102095.214,30.606,114.349
湖北,潜江市,110.022,197.2,20.309,48.824,1.463,41.038,-1.289,0.052,288.843,58.379,102133.212,30.33,112.77
湖北,神农架林区,42.801,53.448,12.005,8.899,0.425,61.005,1.466,2.084,280.272,69.345,83601.135,31.592,110.49
湖北,荆州市,92.153,154.748,22.304,42.413,1.24,46.43,-0.845,0.127,288.799,59.847,101887.051,30.01,112.512
湖北,荆门市,124.356,194.804,18.694,50.113,1.284,35.082,-0.401,-0.847,287.691,56.07,101110.158,31.059,112.616
湖北,襄阳市,128.503,204.962,17.105,38.413,1.092,38.894,-0.866,-1.317,285.011,55.092,98349.149,31.919,111.96
湖北,鄂州市,78.084,114.906,30.757,48.534,1.143,38.286,-1.869,0.71,288.549,61.109,102147.243,30.337,114.794
湖北,随州市,142.981,227.889,17.177,40.247,1.303,33.944,-2.055,-1.015,286.338,54.874,100428.159,31.809,113.43
湖北,黄冈市,84.151,122.647,22.076,33.245,0.894,51.011,-1.451,0.131,287.845,58.714,100398.237,30.702,115.358
湖北,黄石市,57.648,89.718,21.999,31.219,0.863,49.821,-1.544,1.452,288.755,58.21,101145.711,29.925,115.034
湖南,娄底市,64.877,102.491,19.992,36.967,1.338,40.355,-1.31,0.91,287.932,51.654,98039.383,27.715,111.632
湖南,岳阳市,63.214,97.89,19.242,30.791,0.935,55.441,-1.778,0.932,288.997,53.414,100978.422,29.081,113.275
湖南,常德市,72.551,111.672,20.93,31.404,1.157,47.856,-0.584,0.172,287.886,64.304,100150.207,29.271,111.524
湖南,张家界市,53.014,80.049,14.379,15.655,0.747,47.281,-1.182,0.051,286.38,70.78,96142.742,29.379,110.526
湖南,怀化市,53.329,81.02,13.944,20.044,0.853,42.035,-1.314,0.584,288.148,57.733,97076.123,27.535,110.071
湖南,株洲市,50.463,77.765,18.5,23.866,0.904,48.228,-3.443,0.172,288.633,45.317,98765.044,27.109,113.513
湖南,永州市,51.23,74.179,14.774,20.847,0.691,47.295,-2.037,-1.186,288.586,46.638,97333.955,25.748,111.723
湖南,湘潭市,67.53,107.604,25.387,46.707,1.314,39.395,-0.946,-0.262,288.421,53.855,101078.572,27.744,112.619
湖南,湘西土家族苗族自治州,47.136,70.944,10.774,14.243,0.648,35.882,-1.512,0.403,286.872,68.934,96047.013,28.708,109.718
湖南,益阳市,64.743,106.186,20.143,37.974,1.307,47.029,-1.309,1.706,288.551,54.686,99637.828,28.525,111.919
湖南,衡阳市,66.383,94.334,19.239,36.289,0.999,38.932,-1.153,-0.941,288.605,51.065,100571.926,26.781,112.565
湖南,邵阳市,64.543,90.82,17.277,22.454,0.873,46.658,-1.861,0.582,287.65,50.271,95777.151,26.893,110.881
湖南,郴州市,41.528,64.895,16.118,23.09,0.853,44.926,-1.83,-0.774,288.313,42.773,96496.262,25.769,113.109
湖南,长沙市,57.976,93.194,22.606,39.358,1.108,43.418,-2.757,0.773,288.672,50.85,100486.328,28.235,113.159
甘肃,临夏回族自治州,50.655,104.534,8.098,27.517,1.314,47.854,1.659,0.463,277.298,33.023,77835.655,35.617,103.291
甘肃,兰州市,55.008,126.612,20.743,41.58,1.256,38.787,0.2,-0.558,276.566,36.882,79482.616,36.359,103.633
甘肃,嘉峪关市,23.945,70.388,11.588,26.402,0.563,45.008,2.155,-1.36,275.833,28.497,82107.995,39.798,98.145
甘肃,天水市,48.701,120.285,8.712,25.776,1.056,40.687,-0.746,2.487,277.958,49.595,83172.107,34.645,105.739
甘肃,定西市,45.253,105.37,7.68,22.965,1.11,46.791,1.169,1.703,276.248,40.149,77628.887,35.124,104.432
甘肃,平凉市,55.514,143.117,10.833,32.139,0.962,38.951,-0.114,1.672,277.617,49.174,85067.48,35.304,106.644
甘肃,庆阳市,41.365,95.926,10.756,22.314,0.613,43.673,0.392,0.973,277.434,44.206,86371.514,36.149,107.596
甘肃,张掖市,9.693,19.235,2.757,5.318,0.259,60.235,3.493,-0.371,272.717,39.446,74984.345,38.94,99.855
甘肃,武威市,16.769,30.962,3.979,7.577,0.436,54.764,0.815,-0.299,275.554,36.365,81839.201,38.163,103.073
甘肃,甘南藏族自治州,3.688,6.495,0.728,4.048,0.25,62.093,5.355,0.891,271.457,42.034,67957.404,34.331,102.768
甘肃,白银市,59.677,141.2,24.662,36.113,1.167,37.212,0.287,2.159,276.966,40.924,81914.325,36.59,104.646
甘肃,酒泉市,3.445,5.151,1.081,1.56,0.165,61.339,1.803,-0.217,273.348,32.645,79535.089,40.236,96.062
甘肃,金昌市,17.116,48.746,6.31,11.691,0.443,54.572,2.34,-0.489,276.394,32.869,81017.848,38.44,102.048
甘肃,陇南市,34.333,74.286,6.764,18.751,0.858,39.815,0.115,1.007,278.541,50.7,82717.335,33.599,105.224
福建,三明市,28.237,41.5,12.538,16.21,0.53,47.581,-3.252,-0.748,286.437,67.642,95938.067,26.29,117.395
福建,南平市,28.582,46.19,16.103,17.198,0.556,47.59,-2.054,-0.559,287.043,50.384,96749.828,27.324,118.143
福建,厦门市,31.7,56.11,11.032,25.225,0.525,61.35,-5.138,-7.392,290.285,72.73,101135.93,24.642,118.11
福建,宁德市,33.403,51.593,12.182,21.404,0.56,49.496,-2.179,-2.074,286.066,62.063,96094.042,26.968,119.474
福建,泉州市,29.532,46.859,9.877,19.538,0.505,60.794,-3.956,-4.523,287.73,74.285,97349.639,25.201,118.249
福建,漳州市,32.148,54.033,11.406,22.284,0.578,57.958,-4.424,-4.508,289.253,74.56,98931.855,24.372,117.444
福建,福州市,31.121,47.818,10.148,21.741,0.533,60.345,-3.193,-4.36,287.542,74.139,98189.858,26.083,119.206
福建,莆田市,30.324,45.844,10.305,19.934,0.509,68.167,-3.775,-6.178,288.563,76.352,98915.506,25.445,118.864
福建,龙岩市,27.129,42.397,11.808,16.924,0.554,47.226,-3.339,-1.448,287.883,65.456,95866.525,25.256,116.739
西藏,山南市,5.796,7.449,0.304,1.839,0.145,78.575,4.597,0.088,276.601,38.894,66654.101,28.295,92.274
西藏,拉萨市,3.526,6.881,0.072,3.462,0.179,75.069,6.29,-0.442,269.581,43.843,57005.962,30.043,91.093
西藏,日喀则市,3.005,3.849,0.188,0.681,0.132,76.174,8.87,-0.256,268.53,31.111,55792.738,29.483,86.493
西藏,昌都市,0.833,1.704,0.036,1.658,0.138,75.264,4.676,1.956,268.728,40.17,59471.452,30.753,97.044
西藏,林芝市,2.301,2.458,0.14,1.728,0.114,77.673,1.238,0.545,274.996,38.981,66879.55,29.184,95.25
西藏,玉树藏族自治州,0.919,1.301,0.08,0.773,0.143,72.948,6.469,0.388,264.307,62.805,57592.014,34.196,94.317
西藏,那曲市,0.658,0.749,0.047,0.205,0.128,80.645,7.85,-0.569,265.002,57.37,55795.946,32.709,89.262
西藏,阿里地区,1.446,1.71,0.144,0.679,0.123,80.863,10.633,0.293,263.379,37.879,55178.187,33.013,82.553
贵州,六盘水市,34.809,57.768,15.443,15.398,0.6,59.329,0.497,3.832,284.37,72.18,83674.534,26.106,104.896
贵州,安顺市,33.507,52.125,12.914,7.661,0.398,69.209,-1.051,4.068,285.536,80.67,88833.452,25.986,105.978
贵州,毕节市,45.604,65.136,15.309,14.708,0.568,54.705,1.455,3.555,283.801,73.688,83996.34,27.063,105.211
贵州,贵阳市,43.102,69.475,19.369,29.388,0.606,43.394,1.334,4.504,285.164,79.691,88859.117,26.845,106.71
贵州,遵义市,55.204,74.672,21.293,19.111,0.679,40.832,-1.287,1.537,285.037,81.156,91062.781,28.167,107.102
贵州,铜仁市,35.59,66.407,15.2,14.8,0.742,41.938,-1.569,2.228,286.686,69.373,93492.681,27.937,108.534
贵州,黔东南苗族侗族自治州,40.578,63.725,17.205,8.358,0.589,58.29,-0.782,2.171,287.13,60.376,93407.237,26.495,108.574
贵州,黔南布依族苗族自治州,39.968,60.144,15.238,8.65,0.445,61.687,-0.393,3.379,286.386,69.347,91090.477,26.0,107.265
贵州,黔西南布依族苗族自治州,29.005,47.075,12.572,5.961,0.461,70.709,-0.252,3.885,286.707,74.704,89217.38,25.256,105.467
辽宁,丹东市,20.487,36.817,9.011,16.309,0.496,39.974,-1.156,-3.994,269.638,38.514,99775.81,40.554,124.376
辽宁,大连市,24.381,50.156,12.076,21.967,0.531,40.247,-3.312,-4.242,273.494,46.623,102064.958,39.591,122.22
辽宁,抚顺市,29.22,42.808,9.501,18.612,0.523,35.404,0.309,-1.358,265.876,35.592,97989.448,41.841,124.65
辽宁,朝阳市,41.58,80.421,22.259,25.799,1.012,27.025,1.054,0.513,268.662,33.409,97451.63,41.545,120.053
辽宁,本溪市,24.809,40.141,10.584,19.829,0.56,34.721,-0.246,-2.741,266.571,37.6,97277.531,41.232,124.544
辽宁,沈阳市,42.414,72.04,20.765,33.703,0.698,22.377,-1.322,-0.386,268.387,27.719,102416.658,42.081,123.159
辽宁,盘锦市,46.159,74.509,28.813,38.761,0.944,24.659,-1.954,-1.517,270.018,34.89,103074.692,41.13,122.01
辽宁,营口市,31.435,53.291,16.632,32.22,0.768,31.844,-2.401,-2.896,270.532,40.93,100667.353,40.395,122.478
辽宁,葫芦岛市,37.758,72.392,24.2,27.725,0.877,28.498,-0.163,-2.018,270.534,36.776,100370.478,40.66,120.215
辽宁,辽阳市,36.847,64.792,20.08,35.015,0.805,24.771,-1.637,-1.648,269.336,39.615,100936.713,41.153,123.261
辽宁,铁岭市,37.25,54.91,10.117,21.351,0.608,31.636,0.807,-0.242,266.372,31.513,100757.766,42.653,124.158
辽宁,锦州市,47.439,80.244,28.877,30.747,0.843,27.572,-1.021,-0.627,269.242,29.203,102205.033,41.502,121.659
辽宁,阜新市,36.694,65.011,22.512,21.0,0.655,33.502,0.222,0.425,267.609,25.306,100621.291,42.289,121.968
辽宁,鞍山市,31.565,56.504,17.604,30.787,0.76,30.581,-1.44,-2.585,270.046,40.086,100981.465,40.731,123.007
重庆,重庆城区,66.108,87.74,22.565,29.226,0.765,22.7,-0.576,-0.502,285.315,75.611,95703.839,29.824,107.125
重庆,重庆郊县,50.127,68.559,18.067,13.426,0.597,40.103,-0.906,1.048,284.482,71.95,91834.935,30.334,108.755
陕西,咸阳市,92.857,199.083,20.093,59.78,1.182,25.932,-1.56,-1.749,280.831,40.522,92175.164,34.779,108.367
陕西,商洛市,60.94,122.355,10.871,33.313,0.811,38.486,-0.981,-0.337,280.804,47.148,90049.397,33.64,109.889
陕西,安康市,41.856,73.53,10.539,16.468,0.591,42.377,-0.683,-0.082,282.013,56.509,90579.542,32.735,108.932
陕西,宝鸡市,58.073,125.006,8.428,33.209,0.714,38.8,-1.332,0.671,279.488,50.21,86964.589,34.386,107.193
陕西,延安市,49.732,103.79,23.812,44.342,1.186,29.75,0.146,0.47,277.314,45.55,88191.154,36.432,109.316
陕西,榆林市,46.458,112.68,28.068,46.225,1.163,26.471,0.696,1.013,275.332,39.362,88548.315,38.041,109.581
陕西,汉中市,43.542,72.317,8.392,15.632,0.733,36.14,-1.326,-0.097,281.497,56.924,89606.381,33.088,107.098
陕西,渭南市,106.969,221.253,31.705,61.339,1.783,24.858,-1.695,-1.525,282.137,39.977,94583.529,34.919,109.855
陕西,西安市,89.545,184.392,17.66,56.633,1.101,26.736,-0.15,0.376,281.416,43.55,91231.126,34.12,108.77
陕西,铜川市,73.617,145.959,26.797,55.112,1.255,27.524,-0.929,-1.708,279.306,41.159,89841.842,35.198,109.058
青海,保亭黎族苗族自治县,14.662,24.674,7.996,4.628,0.346,63.344,-5.4,-5.17,295.028,81.564,97641.664,18.566,109.618
青海,吐鲁番市,14.949,41.561,2.349,3.619,0.39,57.992,0.234,0.067,276.021,32.669,91014.464,42.386,89.851
青海,果洛藏族自治州,0.796,0.977,0.109,1.108,0.125,65.931,6.553,1.574,264.748,57.886,60274.944,34.127,99.404
青海,海东市,21.33,33.461,7.232,16.909,0.899,56.09,3.487,-0.889,274.592,33.773,73078.692,36.347,102.34
青海,海北藏族自治州,1.412,1.818,0.549,1.12,0.139,72.692,3.915,-1.247,267.386,49.53,65558.125,37.775,100.288
青海,海南藏族自治州,1.066,1.279,0.313,0.935,0.13,67.647,4.266,0.787,270.167,43.697,66781.417,35.89,100.272
青海,海西蒙古族藏族自治州,0.861,1.031,0.307,0.494,0.121,68.559,4.134,0.254,267.649,46.193,64813.977,36.677,94.519
青海,西宁市,12.134,20.543,6.594,13.798,0.674,62.52,4.294,-1.436,271.608,39.734,69843.678,36.842,101.423
青海,黄南藏族自治州,1.406,1.686,0.338,1.174,0.14,65.494,4.534,1.072,269.249,44.119,66121.559,35.022,101.631
香港,香港特别行政区,34.45,49.475,10.7,25.02,0.54,58.645,-6.145,-4.42,293.07,76.15,101586.29,22.45,114.22
黑龙江,七台河市,16.228,35.965,3.455,8.86,0.347,51.377,8.227,-1.507,258.782,58.32,99043.49,45.87,130.943
黑龙江,伊春市,9.712,13.253,2.656,3.787,0.27,51.863,6.044,-1.048,255.229,66.988,97417.546,47.772,129.184
黑龙江,佳木斯市,9.609,15.743,2.853,5.082,0.279,49.599,7.2,0.381,257.445,63.164,100998.591,47.207,132.11
黑龙江,双鸭山市,10.807,16.065,4.014,7.337,0.275,48.728,7.611,0.035,257.58,63.305,100560.425,46.722,132.643
黑龙江,哈尔滨市,20.053,28.951,7.577,10.836,0.454,44.871,5.549,-0.437,260.916,48.18,99612.671,45.634,127.964
黑龙江,大兴安岭地区,1.026,1.495,1.394,1.617,0.206,50.867,5.62,-0.05,250.862,62.824,95196.51,52.286,124.212
黑龙江,大庆市,16.052,23.579,7.075,9.315,0.357,42.587,3.08,-0.069,262.227,39.044,101079.547,46.327,124.687
黑龙江,牡丹江市,16.615,27.409,5.041,9.115,0.361,48.855,7.921,-1.235,260.27,53.706,96146.994,44.592,129.883
黑龙江,绥化市,21.14,27.107,5.903,9.442,0.437,44.929,3.798,-0.657,259.12,52.002,100139.904,46.89,126.634
黑龙江,鸡西市,12.95,20.829,4.124,8.535,0.304,51.48,7.981,-1.457,260.192,56.767,100371.257,45.626,132.289
黑龙江,鹤岗市,7.232,10.2,2.849,4.219,0.259,50.165,6.995,-1.857,256.817,62.104,99970.672,47.661,130.778
黑龙江,黑河市,7.437,11.349,2.839,3.616,0.298,50.301,4.207,-0.149,254.336,66.151,97829.722,49.268,127.004
黑龙江,齐齐哈尔市,13.803,19.017,6.572,6.102,0.325,47.729,2.914,-0.144,259.742,45.399,100086.542,47.715,124.57
