province,city,PM2.5,PM10,SO2,NO2,CO,O3,U,V,TEMP,RH,PSFC,lat,lon
上海,上海市,15.447,19.167,4.806,28.202,0.492,52.849,-1.207,-4.623,286.204,86.617,102132.115,31.173,121.42
云南,临沧市,21.565,29.599,6.17,5.37,0.562,62.497,3.37,1.156,287.734,63.476,84159.674,23.935,99.686
云南,丽江市,16.271,22.313,4.784,5.303,0.543,77.569,7.564,2.083,280.34,58.793,74675.989,26.96,100.515
云南,保山市,34.221,53.393,7.299,8.377,0.576,58.681,3.68,0.347,285.149,63.138,82109.87,24.953,98.962
云南,大理白族自治州,21.803,33.033,5.529,5.784,0.519,71.346,6.625,1.799,282.802,61.842,78269.127,25.726,100.053
云南,德宏傣族景颇族自治州,37.393,52.514,10.318,8.44,0.452,53.83,0.976,-0.509,287.768,62.888,86337.869,24.535,98.052
云南,怒江傈僳族自治州,21.376,31.396,4.314,1.505,0.373,74.743,4.298,1.846,276.545,86.103,72877.252,26.916,98.885
云南,文山壮族苗族自治州,29.353,46.78,15.156,6.871,0.552,42.507,-0.029,1.918,286.704,90.808,86853.289,23.696,104.735
云南,昆明市,16.038,25.301,9.248,14.841,0.56,58.984,7.28,4.509,285.037,61.862,79416.422,25.384,102.863
云南,昭通市,19.099,34.936,13.874,9.998,0.492,50.065,-0.41,-1.876,276.109,81.047,84533.609,27.667,103.985
云南,普洱市,14.48,20.953,4.908,5.544,0.321,51.617,2.092,1.29,289.665,74.982,86226.811,23.159,100.718
云南,曲靖市,13.349,25.105,9.895,9.213,0.407,57.604,5.27,4.146,283.817,69.582,80203.642,25.737,103.929
云南,楚雄彝族自治州,18.269,21.831,5.871,7.799,0.468,65.663,6.466,3.504,285.916,56.525,81158.704,25.328,101.567
云南,玉溪市,14.722,19.936,6.092,6.649,0.37,60.366,4.075,3.043,288.254,72.763,83720.35,24.136,102.217
云南,红河哈尼族彝族自治州,17.454,26.732,10.126,4.225,0.348,57.115,1.803,3.305,289.489,84.694,85416.718,23.451,103.034
云南,西双版纳傣族自治州,18.993,34.433,8.413,6.645,0.32,32.393,0.858,1.402,292.127,86.13,89203.977,21.939,100.912
云南,迪庆藏族自治州,14.872,18.464,3.814,1.14,0.31,88.214,7.988,2.919,272.435,84.758,67197.473,27.957,99.459
内蒙古,乌兰察布市,8.989,19.606,5.329,6.578,0.316,59.737,6.156,-0.802,266.535,45.781,86034.546,41.691,112.44
内蒙古,乌海市,25.231,80.029,21.856,27.855,0.765,50.588,5.021,-1.256,271.778,32.057,88085.73,39.396,106.856
内蒙古,兴安盟,8.404,11.976,3.934,4.1,0.281,47.943,2.837,-3.941,265.149,59.154,94927.763,46.244,121.341
内蒙古,包头市,8.586,16.504,5.224,9.347,0.291,56.787,6.062,-0.004,266.847,38.811,86062.542,41.549,110.276
内蒙古,呼伦贝尔市,2.608,3.686,3.561,2.211,0.205,55.083,5.77,-1.439,260.466,65.799,93533.034,49.636,121.171
内蒙古,呼和浩特市,25.756,60.248,12.229,27.897,0.689,43.206,6.489,-0.385,268.346,36.34,86494.818,40.578,111.513
内蒙古,巴彦淖尔市,6.529,10.948,2.959,2.571,0.191,60.106,6.503,0.547,268.442,34.712,87555.082,41.446,107.582
内蒙古,赤峰市,7.051,13.828,4.338,4.703,0.248,48.838,4.687,-3.189,267.909,57.238,91989.286,43.226,118.892
内蒙古,通辽市,18.452,28.138,7.729,9.364,0.364,35.478,2.421,-3.131,269.273,50.411,98134.745,43.814,121.591
内蒙古,鄂尔多斯市,13.944,29.598,10.486,14.609,0.34,53.089,5.982,-0.482,270.846,33.423,87371.849,39.407,108.63
内蒙古,锡林郭勒盟,1.856,2.866,1.87,1.037,0.167,57.262,4.014,-1.927,264.639,69.292,89100.783,44.179,115.482
内蒙古,阿拉善盟,8.457,12.159,3.181,2.612,0.19,57.603,4.367,1.357,271.146,35.365,87822.456,40.473,102.467
北京,北京市,23.497,49.762,6.109,27.121,0.534,38.651,3.87,-4.085,277.026,24.933,98286.462,40.158,116.395
台湾,台湾省,15.284,19.421,6.934,20.374,0.222,56.42,0.026,-0.933,293.299,77.901,93296.133,23.757,120.975
吉林,吉林市,40.52,54.907,14.677,25.995,0.892,34.072,1.65,2.938,270.778,61.05,97295.034,43.573,126.859
吉林,四平市,38.175,56.17,11.169,27.16,0.771,29.296,1.621,0.347,270.815,51.128,99636.66,43.472,124.386
吉林,延边朝鲜族自治州,26.952,36.983,11.927,15.372,0.485,38.804,3.234,1.971,269.894,54.451,94280.819,43.141,129.147
吉林,松原市,31.501,47.616,5.212,12.823,0.471,31.263,-0.127,-1.982,269.239,45.204,100073.192,44.785,124.496
吉林,白城市,27.479,39.185,6.605,13.145,0.472,34.046,0.96,-2.646,267.934,51.776,100257.101,45.35,123.031
吉林,白山市,27.941,42.296,15.734,19.503,0.863,36.637,2.808,4.804,269.847,62.004,92349.653,42.063,127.256
吉林,辽源市,37.842,56.001,13.453,33.048,0.879,26.178,3.646,3.1,271.587,56.923,97682.072,42.836,125.32
吉林,通化市,32.587,54.671,17.834,28.33,1.072,25.869,2.177,4.431,271.745,63.7,95894.78,41.939,125.927
吉林,长春市,47.003,64.403,9.349,25.39,0.805,32.314,0.424,-0.626,270.188,54.259,99553.194,44.268,125.611
四川,乐山市,23.481,34.071,10.368,12.651,0.385,53.69,0.407,-2.034,277.223,77.836,90288.096,29.218,103.569
四川,内江市,19.33,25.992,7.616,13.887,0.38,50.42,1.15,-3.579,281.504,67.789,97616.125,29.62,104.95
四川,凉山彝族自治州,18.613,25.859,8.505,7.781,0.525,69.009,4.227,2.707,277.683,61.849,74183.26,27.883,102.065
四川,南充市,16.393,26.73,9.341,12.08,0.402,53.831,-2.018,-4.01,280.868,65.772,97561.921,31.19,106.199
四川,宜宾市,18.731,29.265,12.298,14.687,0.441,47.375,1.323,-2.032,280.27,76.146,95951.902,28.573,104.621
四川,巴中市,20.589,30.982,9.66,9.465,0.382,58.272,-3.107,-2.691,278.101,64.496,93117.662,32.033,107.031
四川,广元市,17.762,27.397,8.54,12.068,0.343,54.101,-1.186,-3.79,278.015,49.044,92240.673,32.261,105.788
四川,广安市,11.906,23.722,6.06,16.473,0.487,38.989,0.67,-2.497,281.344,78.084,97538.263,30.43,106.628
四川,德阳市,19.158,30.768,5.867,22.587,0.382,42.745,-1.331,-1.85,279.718,51.201,93928.869,31.13,104.436
四川,成都市,17.899,29.949,7.212,21.582,0.4,46.382,0.341,-1.102,279.74,59.022,94107.724,30.64,103.929
四川,攀枝花市,25.985,40.039,14.767,27.458,1.151,50.224,3.303,3.519,285.798,47.447,81575.512,26.791,101.734
四川,泸州市,19.791,27.877,13.024,12.292,0.442,41.192,3.14,-2.358,279.084,81.731,94228.776,28.424,105.675
四川,甘孜藏族自治州,3.837,4.425,0.878,1.132,0.146,77.531,6.166,0.457,263.557,61.432,60971.125,30.936,100.009
四川,眉山市,18.876,29.331,8.444,15.319,0.375,51.891,0.765,-1.328,279.953,68.01,94600.335,29.912,103.766
四川,绵阳市,17.208,23.97,6.133,12.055,0.31,50.782,-0.513,-2.97,276.496,49.517,88517.824,31.86,104.704
四川,自贡市,17.662,25.833,8.794,15.566,0.407,49.611,1.237,-2.651,281.55,70.186,97613.552,29.307,104.659
四川,资阳市,19.829,26.015,7.887,10.976,0.35,51.164,0.417,-3.813,281.639,63.233,97849.79,30.102,105.149
四川,达州市,19.383,33.329,10.429,17.288,0.489,47.684,-2.357,-1.875,279.033,79.814,94741.521,31.335,107.636
四川,遂宁市,16.299,25.103,8.743,12.526,0.372,49.654,-0.889,-4.19,281.577,60.563,98069.33,30.642,105.457
四川,阿坝藏族羌族自治州,3.881,4.515,0.964,2.116,0.156,68.359,6.679,-1.303,262.35,57.653,65332.963,32.406,102.61
四川,雅安市,16.877,26.041,9.993,6.815,0.294,62.765,0.468,-0.196,272.351,79.35,80382.619,29.932,102.689
天津,天津市,57.288,93.858,9.63,47.877,0.968,19.223,4.468,-2.021,278.642,36.209,102112.873,39.315,117.308
宁夏,中卫市,28.981,65.558,11.62,18.723,0.469,53.79,3.833,1.824,271.073,46.559,83901.089,37.018,105.509
宁夏,吴忠市,21.812,61.331,10.233,13.15,0.346,55.398,3.922,1.455,271.427,42.207,85508.459,37.454,106.577
宁夏,固原市,27.189,72.308,9.06,24.652,0.578,50.812,2.932,0.272,268.997,51.541,81260.14,35.905,106.183
宁夏,石嘴山市,29.556,85.948,20.55,26.033,0.766,49.961,4.686,-0.247,272.188,28.649,87119.826,39.013,106.499
宁夏,银川市,29.216,92.331,17.662,23.374,0.549,50.544,4.676,1.338,272.858,32.859,87483.304,38.287,106.342
安徽,亳州市,56.143,68.641,8.469,33.784,0.676,22.084,0.61,-1.524,280.709,76.632,102196.163,33.44,116.162
安徽,六安市,28.035,37.484,8.158,22.775,0.523,34.938,0.098,-2.829,279.971,93.985,99587.042,31.617,116.209
安徽,合肥市,26.949,29.312,6.019,24.118,0.488,35.907,-0.937,-4.714,281.594,91.021,101986.698,31.766,117.359
安徽,安庆市,11.593,16.161,8.373,17.069,0.482,31.639,-1.874,-5.756,282.22,87.069,99929.117,30.557,116.473
安徽,宣城市,17.619,24.738,6.166,24.277,0.613,38.327,-2.109,-3.018,283.099,94.945,99780.877,30.676,118.846
安徽,宿州市,60.59,73.987,8.833,36.479,0.75,23.324,1.031,-1.628,280.293,75.718,102120.314,33.844,117.23
安徽,池州市,14.096,19.726,8.486,21.99,0.578,26.833,-1.74,-4.794,282.883,95.123,100046.93,30.296,117.379
安徽,淮北市,62.134,75.447,10.576,41.315,0.768,16.308,0.76,-1.552,280.461,75.863,102183.261,33.722,116.747
安徽,淮南市,43.401,52.18,9.358,32.013,0.525,33.433,-0.658,-3.748,281.304,86.961,102213.342,32.463,116.746
安徽,滁州市,37.946,43.122,6.6,24.613,0.502,40.62,-0.314,-4.317,281.037,88.619,101884.365,32.55,118.076
安徽,芜湖市,20.95,26.062,6.732,27.785,0.628,34.854,-2.342,-5.108,283.109,91.095,102073.161,31.167,118.162
安徽,蚌埠市,53.625,62.1,8.96,31.958,0.602,32.126,0.089,-3.13,280.511,82.55,102200.807,33.121,117.263
安徽,铜陵市,17.006,21.584,7.501,22.906,0.541,33.655,-1.481,-5.75,283.171,90.922,101931.776,30.883,117.531
安徽,阜阳市,51.819,68.04,8.708,29.107,0.68,24.065,0.341,-2.088,280.97,77.857,102182.99,32.937,115.723
安徽,马鞍山市,23.048,28.207,6.057,26.165,0.576,38.049,-1.665,-5.466,282.329,91.215,102102.467,31.622,118.386
安徽,黄山市,9.795,17.154,7.774,17.38,0.632,28.975,-1.762,-2.524,283.179,95.065,97709.099,29.869,118.09
山东,东营市,84.363,123.051,24.012,55.082,1.237,14.09,4.198,1.241,278.884,55.866,102277.19,37.57,118.572
山东,临沂市,84.529,137.211,16.487,49.351,0.908,17.084,2.704,-0.639,279.273,58.844,100542.91,35.289,118.27
山东,威海市,38.53,70.587,11.698,36.934,1.018,34.445,4.656,-0.233,279.267,50.169,101568.065,37.148,122.028
山东,德州市,67.977,107.309,13.203,44.173,0.864,17.26,3.194,0.759,279.652,46.416,102176.185,37.233,116.679
山东,日照市,75.171,128.117,14.845,52.583,0.881,20.789,3.113,-0.754,279.161,50.546,100627.068,35.566,119.108
山东,枣庄市,74.152,123.036,18.614,46.415,0.835,15.416,2.01,-0.348,279.964,64.837,101330.622,34.925,117.383
山东,泰安市,80.793,130.411,14.09,47.88,0.981,12.663,2.047,0.562,278.928,51.888,100432.811,35.993,117.04
山东,济南市,78.217,125.046,16.659,48.043,1.033,14.047,3.213,2.042,278.804,49.673,100368.177,36.639,117.254
山东,济宁市,65.102,110.393,13.085,44.52,0.956,12.734,2.132,0.506,280.433,54.301,101781.917,35.375,116.697
山东,淄博市,87.562,140.217,23.767,52.175,1.427,13.374,4.805,1.551,278.447,51.335,99718.316,36.623,118.062
山东,滨州市,77.623,111.764,18.333,49.047,1.064,14.941,3.827,1.123,279.068,53.019,102229.668,37.516,117.852
山东,潍坊市,84.195,138.142,22.44,56.525,1.416,16.258,3.847,0.372,278.885,51.363,101192.043,36.53,119.092
山东,烟台市,62.456,102.662,18.57,49.188,1.331,24.626,4.207,1.803,278.514,52.385,101086.656,37.25,120.789
山东,聊城市,71.961,112.538,12.004,44.911,1.008,14.484,2.836,0.818,280.466,44.886,102010.584,36.458,115.863
山东,菏泽市,65.243,94.308,11.063,41.687,1.001,13.57,1.714,1.117,280.926,57.423,101952.568,35.134,115.69
山东,青岛市,70.304,119.127,19.241,57.573,1.249,20.546,2.731,-0.417,278.327,49.764,101748.254,36.46,120.172
山西,临汾市,39.364,60.181,19.195,26.788,1.052,38.192,2.52,-1.036,273.908,45.504,90622.433,36.227,111.398
山西,吕梁市,25.412,45.705,16.063,21.932,0.548,41.791,4.0,-1.654,272.102,35.286,88098.896,37.663,111.27
山西,大同市,16.59,40.649,15.146,19.098,0.56,47.039,7.674,-2.78,269.864,33.984,87412.348,39.911,113.713
山西,太原市,22.191,46.078,15.025,24.528,0.479,44.331,6.049,-2.271,272.362,30.437,87908.229,37.967,112.321
山西,忻州市,17.856,36.5,12.208,18.862,0.401,49.296,6.632,-2.442,270.043,33.008,86326.678,38.877,112.391
山西,晋中市,38.996,69.77,31.004,37.831,0.918,34.863,5.514,-1.464,273.315,31.748,88875.712,37.328,112.997
山西,晋城市,38.326,61.822,14.797,27.998,0.843,42.197,3.546,-4.57,275.385,37.966,90948.988,35.625,112.752
山西,朔州市,19.401,46.38,15.233,21.471,0.51,48.439,7.702,-1.835,269.676,34.633,86790.089,39.619,112.655
山西,运城市,38.499,62.525,13.75,34.74,0.857,34.259,4.36,-0.319,276.558,49.663,94992.421,35.205,111.071
山西,长治市,36.508,59.737,22.446,32.223,0.869,36.575,4.443,-2.397,274.217,34.432,89201.191,36.48,112.915
山西,阳泉市,26.318,48.658,15.353,28.891,0.512,41.805,7.351,-2.261,274.557,24.352,90751.48,38.031,113.512
广东,东莞市,34.857,55.972,8.609,38.581,0.893,23.171,-3.337,-3.082,294.777,82.848,101485.288,22.931,113.81
广东,中山市,39.086,77.38,9.122,49.659,0.932,22.208,-3.739,-3.179,295.193,86.741,101469.297,22.5,113.383
广东,云浮市,33.484,57.695,11.827,37.559,1.027,8.966,-2.62,-3.185,291.298,92.395,99511.832,22.776,111.818
广东,佛山市,38.05,79.023,9.802,44.262,1.075,5.432,-2.042,-5.467,292.587,86.383,101579.938,23.035,112.979
广东,广州市,32.099,54.059,8.351,32.932,0.885,14.24,-2.723,-4.609,292.511,85.486,100668.532,23.339,113.525
广东,惠州市,23.322,36.442,9.152,18.265,0.693,37.136,-3.387,-3.312,293.412,83.925,99674.902,23.244,114.485
广东,揭阳市,31.311,43.377,12.37,22.057,0.869,44.894,-3.393,-2.755,294.358,82.124,100274.298,23.323,116.123
广东,梅州市,22.312,38.26,11.218,16.914,0.813,32.966,-1.211,-2.325,292.112,83.691,98292.635,24.169,116.07
广东,汕头市,26.024,37.623,11.099,21.073,0.69,55.105,-4.559,-3.114,295.014,83.861,101390.264,23.339,116.614
广东,汕尾市,25.968,35.444,10.022,15.614,0.667,51.824,-4.379,-2.808,294.529,83.056,99983.595,23.024,115.527
广东,江门市,37.607,72.565,9.685,40.038,0.889,22.383,-3.725,-4.378,294.395,89.334,100899.712,22.289,112.676
广东,河源市,25.073,42.817,13.87,18.135,0.824,24.634,-1.53,-4.509,290.346,88.659,98508.254,24.021,114.969
广东,深圳市,22.391,40.346,7.503,30.334,0.678,40.821,-5.029,-2.118,295.294,85.769,100980.648,22.667,114.143
广东,清远市,18.345,32.544,10.697,20.793,0.793,14.923,-1.367,-5.394,287.745,91.58,98066.328,24.295,112.871
广东,湛江市,20.013,32.503,7.713,9.824,0.565,53.71,-3.975,-1.178,296.91,85.812,101223.244,21.091,110.163
广东,潮州市,26.28,38.319,9.678,18.959,0.752,47.02,-3.644,-2.608,294.142,80.679,99718.424,23.755,116.754
广东,珠海市,25.668,48.0,7.508,27.035,0.548,43.998,-5.652,-2.547,296.022,89.46,101514.018,22.095,113.317
广东,肇庆市,22.301,38.628,11.532,24.533,0.849,13.101,-3.226,-4.617,290.399,89.188,99649.464,23.505,112.199
广东,茂名市,29.409,44.111,13.685,20.354,0.775,35.871,-4.999,-2.204,294.668,86.556,99479.048,22.013,110.952
广东,阳江市,36.325,58.183,11.602,34.122,0.842,27.153,-3.603,-4.354,294.148,90.116,100035.415,22.042,111.786
广东,韶关市,20.655,28.804,9.122,17.333,0.827,21.694,-0.985,-3.881,287.076,92.656,97309.888,24.785,113.819
广西,北海市,26.702,40.612,13.526,15.119,0.903,29.559,-3.084,-5.014,294.3,85.516,101335.069,21.674,109.37
广西,南宁市,15.38,29.506,9.912,14.924,0.993,16.512,-2.473,-6.504,288.351,87.26,99682.436,23.051,108.469
广西,崇左市,23.131,43.262,13.864,13.234,0.915,21.038,-2.919,-5.184,288.806,88.104,98356.804,22.483,107.291
广西,来宾市,12.965,24.149,9.833,11.337,0.844,21.011,-1.756,-6.08,287.371,88.636,98526.435,23.859,109.417
广西,柳州市,7.729,19.682,13.307,11.126,0.764,22.934,-1.509,-6.861,285.257,85.497,98014.237,24.956,109.372
广西,桂林市,10.659,20.387,8.473,13.194,0.725,21.153,-3.281,-4.725,284.006,89.521,96369.357,25.353,110.513
广西,梧州市,18.973,33.309,12.188,16.992,0.917,15.711,-2.787,-4.501,289.653,90.182,99287.707,23.484,110.996
广西,河池市,15.597,30.777,15.223,9.808,0.79,24.539,-2.412,-4.751,285.536,84.046,95617.222,24.628,107.843
广西,玉林市,26.78,40.838,13.578,16.45,1.003,19.975,-2.908,-4.786,291.866,89.819,99616.565,22.452,110.164
广西,百色市,26.033,44.955,15.198,10.551,0.727,27.672,-2.081,-2.199,286.202,85.463,93469.599,23.981,106.292
广西,贵港市,16.478,29.197,10.078,13.016,0.936,17.772,-2.529,-5.299,289.532,89.076,100158.156,23.322,110.021
广西,贺州市,11.683,25.681,13.865,13.123,0.74,18.23,-2.722,-5.791,286.928,90.765,97514.727,24.364,111.394
广西,钦州市,21.958,36.097,10.872,16.032,1.038,17.079,-2.168,-7.386,290.39,89.612,100711.901,22.173,109.01
广西,防城港市,26.569,42.295,11.428,16.669,0.972,16.594,-1.33,-7.044,289.628,91.5,99119.96,21.88,108.002
新疆,乌鲁木齐市,39.791,53.539,3.154,14.415,0.579,62.098,1.087,0.785,267.102,41.444,84122.339,43.746,87.818
新疆,五家渠市,62.443,98.163,5.34,18.853,0.727,49.577,0.517,-1.127,270.113,70.32,96942.473,44.363,87.517
新疆,伊犁哈萨克自治州,20.636,24.779,2.96,8.392,0.687,66.986,2.682,0.377,266.584,37.378,80276.565,43.438,82.146
新疆,克孜勒苏柯尔克孜自治州,4.486,8.003,0.535,1.458,0.18,67.642,6.719,-4.284,266.403,42.798,70257.457,39.661,75.949
新疆,克拉玛依市,16.83,26.572,2.659,10.871,0.409,55.43,-1.237,-1.496,267.807,56.367,97873.857,45.457,85.207
新疆,北屯市,4.334,4.752,2.81,6.328,0.796,33.016,-3.444,2.34,264.834,60.81,95872.298,47.27,87.868
新疆,博尔塔拉蒙古自治州,23.148,30.082,5.078,6.679,0.444,63.812,4.44,2.307,266.485,46.635,86151.405,44.714,82.114
新疆,双河市,37.15,51.374,9.922,9.174,0.3,47.916,-0.54,-0.984,268.96,60.638,98392.436,44.87,82.474
新疆,可克达拉市,95.568,120.574,13.932,36.294,2.85,40.182,-0.624,0.536,272.902,40.156,95226.266,43.918,80.786
新疆,和田地区,6.385,8.034,1.07,1.238,0.173,63.651,3.701,0.706,268.087,44.099,74025.215,37.059,80.934
新疆,哈密市,7.313,10.159,2.158,1.135,0.181,60.994,2.456,2.646,269.013,49.983,88385.542,43.042,93.517
新疆,喀什地区,13.465,20.268,1.864,3.344,0.255,60.908,4.527,1.457,269.871,49.392,76162.904,38.125,77.178
新疆,图木舒克市,18.012,19.288,3.977,2.335,0.192,51.38,3.175,1.612,275.273,52.677,89531.047,39.892,79.182
新疆,塔城地区,13.709,16.834,2.826,5.836,0.312,67.252,2.093,-0.643,266.03,51.709,89625.934,45.642,84.789
新疆,巴音郭楞蒙古自治州,5.915,8.327,0.895,0.474,0.141,63.702,5.266,0.533,267.215,45.889,79225.162,39.463,87.481
新疆,新星市,17.09,34.895,4.085,5.725,0.415,45.49,-2.055,0.715,271.995,42.245,93118.325,42.75,93.68
新疆,昆玉市,29.01,50.387,9.927,11.203,0.64,48.193,-1.987,1.76,276.533,44.42,87219.633,37.457,79.093
新疆,昌吉回族自治州,24.18,31.996,3.08,7.433,0.361,63.965,0.926,0.477,268.733,52.988,89951.132,44.342,88.608
新疆,石河子市,139.3,160.13,12.565,51.015,1.22,24.75,0.09,-0.675,269.07,79.57,94969.03,44.245,86.035
新疆,胡杨河市,25.284,33.26,2.128,10.15,0.434,53.134,-2.578,-1.176,267.804,70.808,98380.96,44.852,84.772
新疆,铁门关市,22.503,70.757,3.573,2.69,0.287,62.403,3.757,-1.67,272.847,43.853,92057.723,41.773,85.66
新疆,阿克苏地区,15.64,27.527,2.3,2.74,0.244,57.165,2.606,-0.359,271.108,46.933,85451.533,40.965,81.578
新疆,阿勒泰地区,3.639,4.007,1.754,2.052,0.321,64.871,-3.019,2.279,263.887,53.806,88459.084,46.902,88.421
新疆,阿拉尔市,24.423,51.696,2.865,4.864,0.366,46.329,1.213,1.281,273.991,51.043,90451.078,40.629,80.998
江苏,南京市,24.718,31.549,5.293,28.245,0.566,39.141,-1.303,-4.854,282.348,90.458,102153.685,31.899,118.876
江苏,南通市,23.503,26.022,7.683,13.586,0.477,62.411,0.865,-4.35,283.986,88.331,102216.537,32.201,120.979
江苏,宿迁市,60.437,73.354,8.058,33.802,0.734,27.747,1.226,-3.071,280.509,73.509,102345.911,33.765,118.495
江苏,常州市,24.757,31.924,6.222,31.992,0.631,42.113,-2.004,-5.447,283.471,90.729,102156.521,31.613,119.666
江苏,徐州市,66.152,90.854,11.154,42.37,0.782,18.164,1.796,-0.924,280.232,70.01,102099.166,34.363,117.513
江苏,扬州市,34.233,39.785,5.885,20.534,0.536,47.999,-0.173,-4.711,281.729,85.711,102331.9,32.709,119.486
江苏,无锡市,25.158,31.954,7.171,34.506,0.708,39.126,-1.632,-5.556,283.802,90.848,102039.24,31.546,120.066
江苏,泰州市,31.95,38.064,7.418,21.647,0.593,46.938,0.6,-5.032,281.778,86.769,102267.19,32.605,120.048
江苏,淮安市,52.131,59.924,7.386,28.801,0.635,35.631,0.619,-3.784,280.986,79.684,102316.969,33.362,118.985
江苏,盐城市,43.204,51.939,9.189,22.505,0.581,44.19,2.73,-3.613,281.356,79.269,102324.646,33.529,120.156
江苏,苏州市,22.923,26.726,6.716,30.472,0.603,44.734,-1.271,-5.671,284.959,88.712,102155.392,31.374,120.661
江苏,连云港市,71.511,95.179,11.366,41.572,0.745,22.415,3.046,-1.599,280.25,64.545,102196.24,34.519,119.133
江苏,镇江市,26.336,32.325,5.128,28.328,0.568,42.327,-1.188,-5.241,282.278,90.826,102175.968,32.016,119.49
江西,上饶市,10.955,17.988,8.445,16.299,0.593,20.316,-0.022,-2.479,285.665,92.653,99789.565,28.778,117.47
江西,九江市,16.698,22.672,8.153,17.8,0.595,20.618,-0.252,-4.826,283.142,92.189,99882.297,29.313,115.444
江西,南昌市,10.149,14.685,6.281,19.147,0.585,18.268,0.863,-5.417,285.977,89.25,101739.14,28.671,116.016
江西,吉安市,15.957,25.969,10.115,17.006,0.799,19.889,0.661,-3.577,284.733,94.031,99445.441,26.954,114.831
江西,宜春市,17.033,24.795,8.543,18.377,0.702,19.034,0.488,-3.909,284.162,89.901,99821.213,28.29,114.974
江西,抚州市,13.164,20.979,8.86,16.549,0.541,19.636,1.174,-2.707,285.776,95.601,99388.072,27.514,116.42
江西,新余市,14.763,24.935,10.221,22.079,0.808,16.191,0.507,-3.093,284.715,90.652,100774.771,27.847,114.836
江西,景德镇市,8.565,15.515,8.954,16.046,0.615,18.644,-0.432,-3.733,285.085,91.102,100661.689,29.287,117.24
江西,萍乡市,16.369,27.154,8.572,18.934,0.876,17.86,1.079,-2.562,283.178,95.271,98490.712,27.505,113.908
江西,赣州市,16.738,27.161,13.871,14.034,0.939,24.461,0.312,-3.731,286.282,95.465,97667.938,25.692,115.279
江西,鹰潭市,10.039,17.334,8.337,18.53,0.531,15.62,1.017,-2.015,285.863,94.585,100333.381,28.222,117.094
河北,保定市,34.687,59.381,11.58,28.232,0.612,38.608,3.712,-3.549,278.115,20.934,98310.199,39.018,115.159
河北,唐山市,58.337,93.031,19.186,49.547,1.123,19.632,3.761,-2.421,277.805,33.64,101526.139,39.731,118.354
河北,廊坊市,58.302,101.938,11.055,47.615,1.013,19.853,2.84,-2.421,278.759,30.727,102184.364,39.267,116.632
河北,张家口市,11.164,25.533,6.003,10.04,0.338,55.895,6.821,-3.613,268.758,41.218,87797.755,40.877,115.042
河北,承德市,11.229,20.557,4.219,11.986,0.378,51.059,5.117,-3.627,270.256,41.781,91127.478,41.339,117.578
河北,沧州市,74.158,115.428,15.03,47.917,1.036,17.163,2.654,-0.448,279.074,46.54,102236.902,38.258,116.744
河北,石家庄市,34.594,63.675,12.807,34.167,0.593,36.372,4.756,-2.714,279.802,18.126,98921.298,38.135,114.407
河北,秦皇岛市,54.019,81.595,21.179,44.227,1.484,25.304,3.832,-2.862,276.513,28.748,99115.327,40.12,119.193
河北,衡水市,57.038,96.025,12.753,40.174,0.878,23.116,3.747,-1.358,280.344,30.194,102126.246,37.755,115.813
河北,邢台市,47.784,84.434,14.441,37.016,0.887,27.814,3.263,-2.127,281.244,22.791,100628.704,37.195,114.815
河北,邯郸市,53.003,95.75,15.432,41.056,1.209,19.773,2.325,-0.392,280.832,29.971,100169.424,36.538,114.596
河南,三门峡市,30.591,47.364,9.919,25.394,0.478,40.175,3.956,-3.168,275.632,49.778,92510.736,34.362,111.101
河南,信阳市,39.226,53.342,10.389,21.071,0.647,29.808,0.302,-3.253,280.834,76.755,101192.826,32.091,114.907
河南,南阳市,29.135,43.915,10.399,23.791,0.654,33.163,1.417,-1.449,281.046,52.859,99105.403,33.034,112.323
河南,周口市,50.212,66.159,10.627,35.821,0.812,14.712,1.157,0.43,280.881,66.809,101955.949,33.738,114.884
河南,商丘市,61.902,74.675,8.266,36.382,0.82,15.504,1.416,0.786,280.639,71.261,102014.908,34.277,115.718
河南,安阳市,47.321,75.479,14.349,39.264,1.077,20.677,3.089,-0.67,281.171,29.237,99785.56,35.888,114.318
河南,平顶山市,35.816,52.992,13.735,32.638,0.624,32.593,4.112,-4.223,281.493,39.408,99722.882,33.8,113.025
河南,开封市,53.786,74.571,13.68,43.091,0.853,17.599,1.035,0.93,281.62,50.672,101643.406,34.594,114.514
河南,新乡市,51.549,78.896,14.696,42.759,1.024,18.884,0.567,0.238,281.371,37.763,100667.578,35.256,114.111
河南,洛阳市,32.063,47.65,12.403,26.982,0.511,39.275,4.73,-3.255,278.082,43.464,94931.481,34.274,112.019
河南,济源市,32.967,52.075,14.491,28.075,0.655,46.846,3.512,-3.868,280.141,30.78,96777.506,35.105,112.445
河南,漯河市,43.732,59.329,10.589,38.676,0.748,17.945,1.938,-0.752,281.874,48.957,101801.02,33.652,113.945
河南,濮阳市,69.921,108.102,14.362,46.043,1.222,11.649,2.111,1.554,280.821,47.707,101906.419,35.809,115.283
河南,焦作市,38.826,66.16,15.532,41.648,0.829,31.972,1.676,-2.328,282.412,27.235,100478.573,35.121,113.163
河南,许昌市,41.597,60.515,14.239,40.95,0.745,20.966,2.36,-1.491,282.383,38.166,101074.643,34.075,113.707
河南,郑州市,38.735,63.645,16.812,44.648,0.778,23.199,4.148,-1.578,281.668,33.799,99703.276,34.634,113.438
河南,驻马店市,41.268,56.139,9.205,29.76,0.696,20.569,1.7,-2.31,281.12,60.733,101510.87,32.925,114.174
河南,鹤壁市,49.084,77.123,14.082,41.05,1.119,17.08,2.079,-0.053,281.813,28.132,101007.457,35.716,114.319
浙江,丽水市,16.976,23.598,6.666,17.399,0.506,33.12,-0.347,0.622,285.842,95.5,94910.359,28.194,119.51
浙江,台州市,13.882,20.764,5.487,20.061,0.451,43.507,-0.832,-2.824,287.656,92.264,99188.887,28.742,121.109
浙江,嘉兴市,16.841,20.898,4.651,30.4,0.589,40.507,-1.744,-4.705,285.745,89.539,102101.801,30.635,120.754
浙江,宁波市,11.85,17.459,5.437,23.549,0.45,52.381,-2.009,-3.474,287.677,88.771,100745.684,29.706,121.49
浙江,杭州市,13.485,20.37,6.297,24.914,0.666,31.493,-1.611,-2.905,284.085,95.592,99136.585,29.891,119.464
浙江,温州市,18.444,28.567,6.609,25.169,0.569,29.314,0.107,-2.348,288.04,91.431,97978.706,27.897,120.411
浙江,湖州市,18.561,25.189,5.072,28.071,0.586,39.542,-2.107,-3.519,284.32,93.234,100847.17,30.757,119.871
浙江,绍兴市,15.083,21.146,5.755,34.127,0.691,25.731,-1.175,-2.739,285.662,92.92,99936.079,29.709,120.64
浙江,舟山市,6.422,9.838,3.012,2.682,0.23,87.748,-4.498,-4.52,288.98,82.97,101752.555,30.038,122.23
浙江,衢州市,11.128,18.035,8.023,22.798,0.603,25.065,-1.406,-1.525,285.334,93.805,98319.486,28.912,118.675
浙江,金华市,12.115,18.602,5.456,27.961,0.634,25.999,-1.287,-1.788,285.315,93.984,98561.974,29.109,119.967
海南,万宁市,10.876,17.231,1.942,2.481,0.213,67.847,-2.614,-1.169,297.027,91.136,100157.1,18.842,110.294
海南,三亚市,10.996,16.577,2.497,5.474,0.426,36.396,-4.097,-1.337,297.269,81.091,98916.973,18.413,109.407
海南,东方市,14.19,18.599,3.109,3.765,0.222,62.902,-0.893,-1.271,297.875,75.131,99552.526,18.971,108.838
海南,临高县,11.376,23.016,4.389,6.631,0.35,46.709,-2.006,-0.114,297.221,86.291,100747.377,19.821,109.733
海南,乐东黎族自治县,11.269,15.426,1.582,3.402,0.258,51.352,-1.432,-0.889,297.124,74.652,98037.632,18.659,109.072
海南,五指山市,10.514,14.802,1.396,3.208,0.22,52.012,-2.676,0.262,295.224,80.88,94853.856,18.81,109.518
海南,儋州市,13.854,21.152,3.234,4.072,0.282,54.518,-2.129,-0.301,297.247,83.109,100397.629,19.568,109.399
海南,定安县,8.135,17.08,2.337,4.963,0.298,49.997,-2.118,0.453,297.76,84.505,100435.348,19.47,110.28
海南,屯昌县,9.024,16.578,2.09,4.09,0.27,51.748,-1.688,0.59,297.228,85.23,99656.226,19.342,110.076
海南,文昌市,11.572,19.855,1.731,2.003,0.238,60.878,-3.822,0.657,297.814,88.643,101215.687,19.707,110.773
海南,昌江黎族自治县,14.973,20.003,3.306,3.746,0.236,61.326,-1.028,-0.943,297.143,76.631,98544.206,19.233,109.016
海南,海口市,9.192,20.372,3.388,6.309,0.326,45.556,-2.96,0.169,298.036,84.914,101013.944,19.842,110.393
海南,澄迈县,8.36,19.82,4.213,7.769,0.356,41.647,-1.667,-0.107,297.577,84.306,100568.427,19.676,109.989
海南,琼中黎族苗族自治县,10.931,16.469,1.741,2.93,0.227,53.46,-1.727,0.327,295.781,87.523,97482.375,19.087,109.847
海南,琼海市,9.772,16.38,1.505,2.398,0.223,62.313,-2.768,-0.065,297.818,87.173,100987.628,19.22,110.43
海南,白沙黎族自治县,11.505,16.226,1.924,2.789,0.225,56.912,-1.834,0.139,296.302,78.146,97194.555,19.2,109.388
海南,陵水黎族自治县,11.686,17.31,1.499,3.027,0.269,53.499,-2.739,-2.277,296.686,89.33,99481.724,18.581,109.913
湖北,仙桃市,25.776,36.844,8.609,16.682,0.777,29.269,-0.326,-5.986,281.883,73.037,102220.628,30.284,113.417
湖北,十堰市,22.459,37.586,12.463,9.899,0.47,45.557,2.779,-0.972,277.532,64.142,94136.435,32.462,110.476
湖北,咸宁市,24.198,29.516,8.522,20.578,0.724,18.881,0.412,-4.225,281.746,91.017,100194.331,29.621,114.178
湖北,天门市,23.825,41.154,10.873,20.558,0.833,29.227,0.001,-4.909,282.077,67.54,102201.662,30.633,113.053
湖北,孝感市,32.303,44.97,9.24,17.832,0.763,30.58,0.097,-5.216,281.53,69.946,101552.715,31.116,113.869
湖北,宜昌市,22.02,36.757,13.759,17.03,0.655,31.918,-0.049,-1.652,278.714,78.215,94914.576,30.746,111.129
湖北,恩施土家族苗族自治州,20.828,41.632,14.99,15.008,0.691,23.648,0.108,0.087,277.042,93.687,90193.511,30.195,109.552
湖北,武汉市,28.296,32.907,7.342,21.424,0.76,22.163,-0.208,-5.852,282.388,78.897,102053.103,30.606,114.349
湖北,潜江市,19.608,37.232,10.694,20.516,0.868,28.066,-0.56,-5.594,282.141,68.361,102212.247,30.33,112.77
湖北,神农架林区,33.842,46.477,17.374,8.305,0.503,44.038,1.167,-2.276,271.836,86.973,83361.88,31.592,110.49
湖北,荆州市,20.826,33.983,11.388,17.701,0.806,30.223,-0.668,-5.8,282.155,72.472,101965.284,30.01,112.512
湖北,荆门市,21.645,38.286,12.934,22.861,0.749,29.9,0.471,-4.839,281.748,64.625,101167.662,31.059,112.616
湖北,襄阳市,22.127,37.403,12.081,19.515,0.633,35.793,2.16,-3.01,280.386,62.663,98360.54,31.919,111.96
湖北,鄂州市,18.84,26.336,6.507,21.026,0.664,23.693,0.346,-5.333,283.291,84.967,102053.184,30.337,114.794
湖北,随州市,28.543,43.757,9.941,20.38,0.665,31.088,0.873,-4.513,281.171,64.113,100420.643,31.809,113.43
湖北,黄冈市,19.143,25.995,8.357,15.114,0.582,30.612,-1.142,-4.019,282.125,84.547,100238.722,30.702,115.358
湖北,黄石市,18.526,25.798,6.394,21.642,0.649,21.168,0.344,-3.535,283.181,89.653,101009.732,29.925,115.034
湖南,娄底市,14.666,22.896,5.923,13.082,0.835,28.908,-0.301,-5.371,279.863,89.702,98019.151,27.715,111.632
湖南,岳阳市,22.319,28.956,9.359,14.342,0.737,30.373,-0.692,-5.495,282.154,87.113,100950.409,29.081,113.275
湖南,常德市,14.314,28.025,8.848,14.64,0.789,29.453,-0.94,-4.469,281.043,81.647,100234.201,29.271,111.524
湖南,张家界市,12.413,26.711,9.448,12.395,0.653,28.322,-2.069,-1.434,279.657,86.566,96146.378,29.379,110.526
湖南,怀化市,9.961,19.428,6.494,9.049,0.72,31.288,-1.94,-3.807,280.417,88.662,97098.192,27.535,110.071
湖南,株洲市,17.599,24.887,6.673,19.582,0.766,16.409,1.644,-3.479,282.895,95.127,98650.235,27.109,113.513
湖南,永州市,14.875,22.253,6.08,15.929,0.712,16.774,-2.106,-4.536,282.572,92.31,97208.013,25.748,111.723
湖南,湘潭市,14.101,19.649,4.426,18.618,0.792,21.165,1.994,-5.88,281.729,90.24,101072.542,27.744,112.619
湖南,湘西土家族苗族自治州,12.486,22.654,5.522,9.924,0.663,27.479,-1.781,-0.903,279.678,88.418,96084.663,28.708,109.718
湖南,益阳市,17.005,26.837,6.074,11.844,0.857,32.826,0.305,-5.152,280.254,89.678,99682.453,28.525,111.919
湖南,衡阳市,12.984,17.141,5.146,19.139,0.777,16.113,0.992,-5.138,282.375,91.045,100541.433,26.781,112.565
湖南,邵阳市,14.15,22.271,7.292,13.265,0.762,25.103,-1.621,-3.212,280.523,91.45,95692.458,26.893,110.881
湖南,郴州市,14.527,19.797,4.413,19.267,0.828,14.792,0.646,-3.902,282.984,96.531,96324.418,25.769,113.109
湖南,长沙市,19.248,25.338,6.81,17.733,0.778,24.821,1.082,-5.129,282.403,90.688,100424.668,28.235,113.159
甘肃,临夏回族自治州,31.403,46.616,5.594,14.805,0.854,60.879,3.394,1.402,269.036,50.126,77632.642,35.617,103.291
甘肃,兰州市,38.869,61.824,17.529,34.714,0.972,43.727,3.645,1.429,269.104,56.062,79279.389,36.359,103.633
甘肃,嘉峪关市,15.277,58.49,10.555,27.608,0.385,50.803,1.717,-0.303,269.273,36.178,81721.417,39.798,98.145
甘肃,天水市,32.797,54.297,8.579,20.546,0.631,47.328,1.407,-0.127,271.345,48.894,83103.516,34.645,105.739
甘肃,定西市,30.007,45.701,6.14,15.567,0.638,59.177,3.171,0.777,268.207,54.47,77440.568,35.124,104.432
甘肃,平凉市,29.925,64.145,8.071,25.061,0.631,45.74,1.309,-0.439,271.197,46.212,85000.64,35.304,106.644
甘肃,庆阳市,19.874,40.897,7.006,14.657,0.433,53.312,2.127,-0.702,271.606,44.254,86290.155,36.149,107.596
甘肃,张掖市,7.154,14.874,2.765,4.118,0.197,72.118,4.502,1.202,265.595,39.199,74497.342,38.94,99.855
甘肃,武威市,17.461,28.703,5.66,8.435,0.38,60.025,2.211,1.571,270.109,41.996,81554.086,38.163,103.073
甘肃,甘南藏族自治州,3.098,4.128,0.752,2.245,0.18,73.288,7.789,-0.238,261.505,56.255,67540.265,34.331,102.768
甘肃,白银市,37.971,64.154,15.415,25.414,0.737,48.477,2.379,2.292,269.963,53.903,81754.219,36.59,104.646
甘肃,酒泉市,4.37,7.118,1.491,2.072,0.154,63.281,5.738,2.05,266.439,43.139,79071.162,40.236,96.062
甘肃,金昌市,16.651,38.033,7.491,11.315,0.404,61.146,1.739,1.012,269.873,40.566,80708.695,38.44,102.048
甘肃,陇南市,19.433,27.771,5.835,11.831,0.437,55.018,1.216,-2.147,271.917,52.213,82643.98,33.599,105.224
福建,三明市,16.342,26.786,12.564,14.789,0.76,22.966,0.337,-0.292,288.163,92.706,95549.29,26.29,117.395
福建,南平市,13.654,22.408,9.617,11.099,0.522,32.947,0.58,-0.259,287.489,92.165,96321.138,27.324,118.143
福建,厦门市,22.552,36.762,7.77,28.742,0.583,36.163,-2.853,-3.673,294.027,82.343,100631.163,24.642,118.11
福建,宁德市,18.332,25.631,6.985,12.982,0.465,40.703,-0.039,-0.968,289.001,91.694,95600.953,26.968,119.474
福建,泉州市,18.646,27.994,6.544,16.481,0.522,42.986,-1.29,-2.085,291.619,88.091,96898.443,25.201,118.249
福建,漳州市,21.756,34.112,7.359,17.806,0.549,43.78,-1.879,-2.253,292.804,85.477,98478.651,24.372,117.444
福建,福州市,16.992,25.891,5.693,18.514,0.52,42.873,-0.695,-2.561,291.188,90.203,97678.071,26.083,119.206
福建,莆田市,18.815,26.65,6.482,16.539,0.502,47.972,-1.748,-3.355,292.328,87.755,98415.997,25.445,118.864
福建,龙岩市,18.704,32.247,11.857,14.947,0.695,27.295,-0.127,-1.404,289.426,91.263,95507.346,25.256,116.739
西藏,山南市,13.204,15.249,1.884,1.445,0.19,85.03,5.032,0.204,273.473,56.184,66119.579,28.295,92.274
西藏,拉萨市,5.938,8.393,0.088,2.184,0.15,80.445,5.571,-0.664,266.194,50.795,56371.68,30.043,91.093
西藏,日喀则市,3.198,4.3,0.316,0.394,0.129,81.354,11.367,-1.461,267.102,39.616,55200.749,29.483,86.493
西藏,昌都市,2.574,3.079,0.429,0.805,0.141,78.022,4.998,0.849,262.371,58.761,58918.229,30.753,97.044
西藏,林芝市,11.65,12.768,2.134,1.316,0.179,81.605,1.742,0.621,270.4,72.565,66378.843,29.184,95.25
西藏,玉树藏族自治州,0.461,0.549,0.043,0.398,0.127,85.424,7.767,0.135,256.587,48.731,56966.272,34.196,94.317
西藏,那曲市,0.262,0.451,0.037,0.221,0.123,82.216,8.234,-1.047,260.722,47.773,55149.337,32.709,89.262
西藏,阿里地区,0.489,0.736,0.085,0.677,0.118,77.316,10.606,-2.415,261.371,45.593,54596.918,33.013,82.553
贵州,六盘水市,12.936,30.92,13.356,11.78,0.519,40.762,-1.195,0.906,281.327,81.868,83477.564,26.106,104.896
贵州,安顺市,20.097,36.963,15.171,11.569,0.516,32.001,-2.621,-3.707,281.48,80.973,88684.758,25.986,105.978
贵州,毕节市,14.627,28.3,11.753,9.274,0.477,44.913,0.485,-3.358,276.691,83.845,83926.193,27.063,105.211
贵州,贵阳市,18.89,27.411,11.888,13.783,0.509,29.547,0.297,-5.139,278.554,87.725,88827.158,26.845,106.71
贵州,遵义市,24.852,33.362,16.505,10.283,0.505,30.987,2.391,-3.191,278.542,87.965,91110.278,28.167,107.102
贵州,铜仁市,17.174,30.434,15.341,9.814,0.724,26.642,-1.4,-1.635,279.678,89.504,93503.773,27.937,108.534
贵州,黔东南苗族侗族自治州,12.433,24.828,17.074,11.453,0.739,25.45,-1.582,-4.541,280.386,90.74,93327.595,26.495,108.574
贵州,黔南布依族苗族自治州,23.795,32.698,18.617,11.387,0.606,26.584,-1.287,-4.705,281.359,86.659,90951.973,26.0,107.265
贵州,黔西南布依族苗族自治州,23.925,44.522,16.188,10.389,0.601,27.523,-2.358,-0.498,283.469,83.11,89038.621,25.256,105.467
辽宁,丹东市,47.013,79.039,25.76,37.01,1.234,20.708,1.447,1.403,275.038,65.435,98933.236,40.554,124.376
辽宁,大连市,55.75,78.761,20.486,36.706,0.886,29.027,4.743,-0.214,280.103,47.461,101224.317,39.591,122.22
辽宁,抚顺市,38.038,63.085,16.95,34.827,0.958,23.544,2.858,3.039,272.487,57.153,97106.261,41.841,124.65
辽宁,朝阳市,30.167,63.866,14.632,22.454,0.854,34.459,3.599,-3.531,273.357,35.298,96694.489,41.545,120.053
辽宁,本溪市,38.571,66.026,19.962,34.01,1.1,22.823,2.298,2.926,273.009,60.514,96461.428,41.232,124.544
辽宁,沈阳市,38.451,61.326,19.604,32.342,0.856,24.889,1.893,-0.363,273.159,41.698,101412.316,42.081,123.159
辽宁,盘锦市,39.864,72.855,21.771,39.036,0.925,26.157,1.646,-1.917,274.903,33.589,102094.996,41.13,122.01
辽宁,营口市,42.257,70.011,19.265,41.188,0.89,25.557,2.697,-0.94,277.313,43.528,99786.743,40.395,122.478
辽宁,葫芦岛市,38.833,75.571,17.903,31.874,1.168,30.987,4.095,-3.046,276.49,26.192,99514.596,40.66,120.215
辽宁,辽阳市,39.481,65.69,19.532,39.728,1.069,24.953,2.17,1.012,275.071,45.726,100005.922,41.153,123.261
辽宁,铁岭市,40.309,61.656,15.966,34.17,0.849,23.318,2.494,1.676,272.151,50.132,99763.542,42.653,124.158
辽宁,锦州市,40.978,74.987,21.251,31.891,0.909,27.863,2.042,-2.877,274.439,32.875,101253.23,41.502,121.659
辽宁,阜新市,32.585,54.582,14.774,19.696,0.662,29.897,3.362,-2.662,272.479,39.755,99713.531,42.289,121.968
辽宁,鞍山市,40.22,69.201,19.827,39.875,0.999,24.468,1.974,-0.062,275.741,45.98,100075.3,40.731,123.007
重庆,重庆城区,20.761,33.796,12.178,18.036,0.527,30.359,1.625,-0.855,280.276,82.383,95832.664,29.824,107.125
重庆,重庆郊县,26.384,46.701,18.871,14.915,0.605,28.585,-0.567,-0.806,277.739,87.38,91817.628,30.334,108.755
陕西,咸阳市,35.444,67.142,9.191,29.639,0.734,37.601,2.106,-1.286,274.98,47.034,92240.3,34.779,108.367
陕西,商洛市,19.268,29.597,8.009,11.454,0.349,52.571,1.857,-3.369,275.497,49.195,89983.599,33.64,109.889
陕西,安康市,21.49,32.542,10.668,8.449,0.427,47.964,0.719,-1.016,275.002,69.471,90602.452,32.735,108.932
陕西,宝鸡市,22.409,40.153,6.048,18.616,0.462,47.884,0.465,-0.943,272.708,47.744,86946.899,34.386,107.193
陕西,延安市,21.512,31.881,11.663,22.546,0.69,44.343,2.607,-1.407,273.143,39.549,88075.752,36.432,109.316
陕西,榆林市,17.622,31.094,13.321,27.316,0.547,45.393,4.276,-1.257,272.71,34.144,88377.432,38.041,109.581
陕西,汉中市,20.474,30.12,8.608,9.852,0.386,54.679,-0.459,-1.537,275.399,55.188,89638.034,33.088,107.098
陕西,渭南市,31.984,56.617,11.021,33.472,0.664,36.377,3.645,0.603,276.563,47.403,94644.287,34.919,109.855
陕西,西安市,23.586,44.956,7.195,23.446,0.555,45.231,3.445,0.719,274.507,54.72,91292.773,34.12,108.77
陕西,铜川市,27.465,43.955,11.581,26.583,0.562,40.835,2.103,-2.314,274.098,41.401,89802.529,35.198,109.058
青海,保亭黎族苗族自治县,11.39,16.718,1.956,4.898,0.348,41.618,-2.928,-1.618,295.872,87.048,97344.976,18.566,109.618
青海,吐鲁番市,17.903,29.293,3.223,4.26,0.356,54.519,2.728,0.747,270.688,47.798,90511.342,42.386,89.851
青海,果洛藏族自治州,0.628,1.597,0.092,0.525,0.12,78.069,8.326,0.665,254.972,56.831,59697.042,34.127,99.404
青海,海东市,13.168,18.815,7.215,11.118,0.376,67.566,5.637,-0.219,265.279,53.61,72721.975,36.347,102.34
青海,海北藏族自治州,2.404,3.06,0.862,1.101,0.137,79.619,8.1,-0.813,258.39,48.807,64939.573,37.775,100.288
青海,海南藏族自治州,0.931,1.124,0.2,0.541,0.119,80.845,8.161,0.398,260.708,47.025,66306.02,35.89,100.272
青海,海西蒙古族藏族自治州,1.228,1.374,0.314,0.389,0.12,77.298,4.974,1.226,259.67,46.037,64279.93,36.677,94.519
青海,西宁市,8.866,13.75,5.482,9.633,0.36,75.187,6.37,-1.524,262.654,53.755,69372.041,36.842,101.423
青海,黄南藏族自治州,1.184,1.412,0.259,0.876,0.126,75.284,7.8,0.836,259.226,53.258,65647.976,35.022,101.631
香港,香港特别行政区,18.005,31.395,6.165,22.465,0.445,53.105,-6.55,-2.305,295.845,89.395,101148.275,22.45,114.22
黑龙江,七台河市,36.717,60.125,10.212,25.719,0.653,34.367,1.348,0.478,266.197,67.186,98631.768,45.87,130.943
黑龙江,伊春市,15.773,26.301,6.24,7.666,0.325,41.35,2.993,0.965,263.778,73.691,97027.826,47.772,129.184
黑龙江,佳木斯市,23.914,36.855,6.413,13.897,0.452,37.119,3.012,1.495,264.168,69.638,100715.562,47.207,132.11
黑龙江,双鸭山市,23.859,34.989,7.51,14.778,0.413,37.636,2.677,0.996,265.233,67.143,100287.655,46.722,132.643
黑龙江,哈尔滨市,37.437,55.139,10.149,20.182,0.577,34.272,0.022,0.077,267.984,61.624,98946.607,45.634,127.964
黑龙江,大兴安岭地区,1.492,2.224,1.98,1.817,0.197,43.039,5.056,-0.342,258.583,75.251,94805.531,52.286,124.212
黑龙江,大庆市,28.316,42.278,7.919,16.798,0.463,35.2,1.239,-0.972,267.442,56.222,100371.752,46.327,124.687
黑龙江,牡丹江市,37.063,54.823,11.831,21.063,0.623,32.69,1.822,1.521,267.842,64.218,95670.339,44.592,129.883
黑龙江,绥化市,29.87,44.089,9.015,18.202,0.522,35.27,0.752,0.19,266.148,68.067,99510.455,46.89,126.634
黑龙江,鸡西市,34.803,52.754,10.721,20.907,0.596,33.906,1.572,0.103,267.451,64.129,99997.753,45.626,132.289
黑龙江,鹤岗市,21.34,35.172,7.75,15.676,0.436,34.348,3.332,0.786,263.83,72.075,99642.271,47.661,130.778
黑龙江,黑河市,17.967,29.008,6.774,6.655,0.365,40.935,3.909,1.492,262.985,78.901,97350.677,49.268,127.004
黑龙江,齐齐哈尔市,20.719,30.024,8.256,9.654,0.404,41.591,2.785,-1.288,265.836,63.774,99505.654,47.715,124.57
