province,city,PM2.5,PM10,SO2,NO2,CO,O3,U,V,TEMP,RH,PSFC,lat,lon
上海,上海市,28.051,62.125,11.821,35.396,0.558,106.944,-0.122,9.388,292.717,56.65,101284.9,31.173,121.42
云南,临沧市,35.469,47.304,5.504,7.4,0.648,84.178,6.769,-0.559,291.971,57.85,83883.562,23.935,99.686
云南,丽江市,19.036,31.048,5.546,4.413,0.803,91.037,9.333,-1.853,285.589,54.101,74440.493,26.96,100.515
云南,保山市,33.311,51.287,6.585,10.512,0.777,66.937,5.876,-1.108,289.176,64.174,81872.944,24.953,98.962
云南,大理白族自治州,22.163,36.837,5.237,4.444,0.663,81.854,8.514,-0.646,287.275,60.715,78019.614,25.726,100.053
云南,德宏傣族景颇族自治州,48.558,62.832,6.859,13.95,0.721,59.365,3.656,-1.593,291.598,65.72,86094.682,24.535,98.052
云南,怒江傈僳族自治州,26.995,38.911,4.331,1.243,0.536,72.39,4.94,-1.145,280.329,89.902,72794.681,26.916,98.885
云南,文山壮族苗族自治州,48.569,74.071,6.582,4.285,0.586,100.862,7.382,6.208,292.919,59.079,86326.286,23.696,104.735
云南,昆明市,27.912,40.16,6.776,11.282,0.579,94.226,11.185,3.24,289.949,51.118,79031.853,25.384,102.863
云南,昭通市,52.303,94.172,13.971,12.472,0.626,99.215,1.33,-0.967,290.959,55.454,83635.635,27.667,103.985
云南,普洱市,32.046,47.86,4.803,7.896,0.525,82.411,5.919,0.55,294.389,51.483,85905.901,23.159,100.718
云南,曲靖市,29.397,44.517,7.369,7.71,0.462,94.423,10.808,3.05,291.051,47.233,79719.01,25.737,103.929
云南,楚雄彝族自治州,24.907,36.159,5.246,5.676,0.595,92.813,9.694,2.03,290.937,50.099,80787.606,25.328,101.567
云南,玉溪市,29.897,45.653,4.984,5.58,0.418,94.784,8.138,2.592,292.73,51.408,83346.408,24.136,102.217
云南,红河哈尼族彝族自治州,42.376,68.725,5.645,4.621,0.468,103.296,5.75,3.691,293.017,54.63,85047.369,23.451,103.034
云南,西双版纳傣族自治州,43.629,78.336,5.735,18.597,1.067,69.617,4.124,1.901,296.765,45.474,88889.763,21.939,100.912
云南,迪庆藏族自治州,16.11,25.549,4.707,2.126,0.53,92.608,7.234,-0.398,277.489,77.304,67200.604,27.957,99.459
内蒙古,乌兰察布市,16.339,44.548,1.702,1.253,0.193,64.538,7.671,-6.145,277.788,59.498,85344.618,41.691,112.44
内蒙古,乌海市,63.728,210.32,14.388,15.814,0.299,103.021,5.841,-5.652,284.116,20.298,87527.906,39.396,106.856
内蒙古,兴安盟,31.191,46.574,10.648,6.727,0.37,62.474,0.828,-3.146,276.988,62.178,93207.897,46.244,121.341
内蒙古,包头市,20.283,44.229,2.035,1.561,0.192,63.078,5.83,-6.034,278.724,54.897,85505.242,41.549,110.276
内蒙古,呼伦贝尔市,13.087,15.603,3.927,3.749,0.211,65.87,2.952,-1.592,275.197,56.771,92117.784,49.636,121.171
内蒙古,呼和浩特市,42.221,161.381,4.676,5.784,0.362,68.911,6.011,-6.312,280.657,44.04,85792.465,40.578,111.513
内蒙古,巴彦淖尔市,34.905,47.589,1.398,0.887,0.157,60.056,4.174,-5.096,280.885,43.534,87074.303,41.446,107.582
内蒙古,赤峰市,34.297,55.948,7.152,6.459,0.312,64.17,6.969,-5.216,279.437,49.591,90422.966,43.226,118.892
内蒙古,通辽市,44.159,67.527,13.56,9.978,0.409,77.182,2.289,-0.075,280.52,60.718,96140.055,43.814,121.591
内蒙古,鄂尔多斯市,93.179,164.432,4.758,5.285,0.216,69.371,6.149,-5.804,283.514,26.128,86755.033,39.407,108.63
内蒙古,锡林郭勒盟,18.055,32.935,2.447,1.831,0.175,67.823,5.805,-6.42,276.117,57.901,88046.754,44.179,115.482
内蒙古,阿拉善盟,67.365,70.56,0.676,0.689,0.143,62.967,2.566,-2.668,283.383,21.716,87452.638,40.473,102.467
北京,北京市,38.348,71.542,6.435,25.273,0.606,57.398,6.236,-6.49,288.164,32.602,96556.732,40.158,116.395
台湾,台湾省,19.635,22.74,5.875,16.334,0.205,87.103,-0.513,0.9,291.425,65.977,93263.864,23.757,120.975
吉林,吉林市,33.558,41.275,9.252,10.31,0.549,86.043,-0.204,7.084,279.814,74.401,95623.988,43.573,126.859
吉林,四平市,40.494,69.433,13.528,15.1,0.543,87.322,1.778,5.988,281.948,63.435,97660.833,43.472,124.386
吉林,延边朝鲜族自治州,27.571,33.07,7.356,8.674,0.382,78.389,-1.847,5.1,277.035,78.499,93013.549,43.141,129.147
吉林,松原市,47.577,66.996,14.5,13.713,0.521,71.227,0.025,2.99,280.981,56.644,98055.823,44.785,124.496
吉林,白城市,44.288,68.056,14.474,10.591,0.493,70.908,-0.258,-0.07,280.551,53.722,98181.195,45.35,123.031
吉林,白山市,22.857,31.045,10.055,9.344,0.531,92.826,3.501,10.965,279.656,70.247,90979.002,42.063,127.256
吉林,辽源市,32.008,50.002,10.272,11.131,0.494,91.935,2.459,10.138,281.021,70.047,95881.335,42.836,125.32
吉林,通化市,25.894,39.325,10.845,10.617,0.605,96.791,2.066,12.319,280.265,71.353,94311.672,41.939,125.927
吉林,长春市,45.231,63.35,9.658,14.937,0.639,80.278,-0.083,5.026,281.099,63.023,97643.45,44.268,125.611
四川,乐山市,73.533,123.636,15.703,34.844,0.822,87.709,0.539,-3.146,291.97,59.752,89003.117,29.218,103.569
四川,内江市,64.391,133.743,12.939,39.752,0.893,78.092,0.207,-5.268,296.962,48.942,95802.823,29.62,104.95
四川,凉山彝族自治州,25.892,38.586,8.887,8.278,0.638,95.328,2.773,0.915,285.633,53.822,73883.199,27.883,102.065
四川,南充市,50.885,107.747,11.557,36.969,0.682,77.089,-3.772,-1.908,296.991,47.957,95861.975,31.19,106.199
四川,宜宾市,76.337,137.039,18.092,33.096,0.878,91.477,2.016,-3.147,296.418,49.106,94234.431,28.573,104.621
四川,巴中市,47.717,78.001,9.539,19.721,0.477,76.251,-5.287,-1.956,294.432,42.872,91810.191,32.033,107.031
四川,广元市,51.637,89.693,8.925,23.333,0.457,68.568,-3.42,-4.772,293.347,42.488,90983.204,32.261,105.788
四川,广安市,54.399,115.221,14.724,38.442,0.792,80.678,-3.088,2.215,297.988,47.53,95833.177,30.43,106.628
四川,德阳市,56.876,112.149,9.92,31.718,0.607,81.138,-2.932,-5.359,294.345,46.584,92461.763,31.13,104.436
四川,成都市,62.123,123.914,12.732,39.664,0.76,85.953,-2.069,-4.387,294.383,48.633,92600.162,30.64,103.929
四川,攀枝花市,25.249,41.283,19.56,26.101,1.236,78.406,7.492,3.199,292.973,36.61,81072.915,26.791,101.734
四川,泸州市,65.798,118.612,16.345,24.79,0.731,96.103,2.279,-0.577,296.235,51.241,92629.141,28.424,105.675
四川,甘孜藏族自治州,12.885,15.766,1.863,1.711,0.185,107.504,3.404,1.76,275.801,59.09,61104.091,30.936,100.009
四川,眉山市,68.458,129.864,13.301,41.671,0.859,80.237,-0.092,-3.475,294.431,52.804,93039.035,29.912,103.766
四川,绵阳市,54.517,85.093,6.768,17.596,0.387,79.296,-2.866,-5.0,290.818,48.745,87447.952,31.86,104.704
四川,自贡市,75.396,140.366,14.665,45.717,0.969,77.955,0.557,-5.073,297.329,46.899,95789.334,29.307,104.659
四川,资阳市,53.883,125.242,10.816,32.716,0.787,78.094,-1.03,-5.255,296.823,48.672,96042.382,30.102,105.149
四川,达州市,48.988,80.84,13.518,29.664,0.52,80.81,-3.786,0.47,295.553,48.396,93322.564,31.335,107.636
四川,遂宁市,53.145,120.789,10.568,35.166,0.753,75.647,-2.681,-5.067,297.085,47.198,96274.015,30.642,105.457
四川,阿坝藏族羌族自治州,23.595,36.948,3.624,2.465,0.216,101.035,0.401,3.211,278.265,57.702,65364.185,32.406,102.61
四川,雅安市,54.05,86.716,11.88,11.513,0.525,102.367,-1.185,-1.078,285.672,72.204,79717.802,29.932,102.689
天津,天津市,54.599,134.081,12.939,45.166,1.23,49.26,6.102,-4.265,290.751,35.652,100133.936,39.315,117.308
宁夏,中卫市,87.472,198.063,3.408,9.665,0.226,54.592,1.387,-3.518,283.166,25.176,83545.025,37.018,105.509
宁夏,吴忠市,87.672,164.452,6.612,9.346,0.204,61.391,3.832,-3.763,284.137,20.022,85039.764,37.454,106.577
宁夏,固原市,93.049,249.31,3.931,18.323,0.256,57.21,0.113,-5.604,282.371,27.669,80930.112,35.905,106.183
宁夏,石嘴山市,53.839,169.346,11.319,11.314,0.283,95.826,5.202,-6.018,284.224,17.452,86609.362,39.013,106.499
宁夏,银川市,66.795,170.904,12.162,14.738,0.332,88.818,2.458,-2.958,285.578,15.072,86933.242,38.287,106.342
安徽,亳州市,53.612,128.751,15.209,26.381,0.653,108.557,5.329,4.237,296.515,38.276,100499.431,33.44,116.162
安徽,六安市,38.208,72.762,11.455,17.225,0.471,122.882,6.198,7.291,295.956,39.455,98236.513,31.617,116.209
安徽,合肥市,42.026,107.171,13.372,36.707,0.73,107.415,4.232,7.908,296.088,40.236,100589.786,31.766,117.359
安徽,安庆市,41.762,88.21,13.384,23.264,0.649,113.88,4.304,6.874,294.255,45.86,98848.859,30.557,116.473
安徽,宣城市,33.257,61.181,8.858,18.901,0.584,91.638,4.709,7.643,295.278,40.719,98833.534,30.676,118.846
安徽,宿州市,54.831,131.716,16.856,32.573,0.681,99.913,5.876,4.72,295.893,37.641,100446.496,33.844,117.23
安徽,池州市,35.615,69.935,11.595,19.643,0.596,105.776,3.709,8.691,294.967,44.242,99063.119,30.296,117.379
安徽,淮北市,53.768,131.169,17.311,33.108,0.685,103.375,5.556,4.258,296.144,37.58,100495.032,33.722,116.747
安徽,淮南市,42.474,97.061,13.214,23.879,0.562,123.146,5.273,5.887,296.461,39.919,100648.02,32.463,116.746
安徽,滁州市,42.454,104.762,13.73,33.241,0.619,102.974,5.152,7.802,295.663,40.911,100432.268,32.55,118.076
安徽,芜湖市,39.198,88.65,13.614,34.888,0.796,98.507,5.806,8.195,296.038,39.998,100870.518,31.167,118.162
安徽,蚌埠市,48.769,108.655,15.446,30.407,0.604,109.354,5.378,5.591,296.062,40.97,100584.441,33.121,117.263
安徽,铜陵市,41.07,91.542,15.744,36.688,0.835,106.29,5.654,8.972,295.588,42.22,100743.754,30.883,117.531
安徽,阜阳市,49.912,114.096,15.63,22.428,0.622,113.676,5.865,5.259,297.002,39.428,100499.411,32.937,115.723
安徽,马鞍山市,42.741,108.567,15.054,44.822,0.793,94.009,5.806,8.334,295.394,41.263,100838.468,31.622,118.386
安徽,黄山市,34.357,60.789,10.458,17.823,0.594,87.067,3.988,6.332,293.326,47.805,96995.751,29.869,118.09
山东,东营市,61.935,181.769,20.983,28.668,0.763,69.975,10.153,1.437,295.23,29.663,100282.202,37.57,118.572
山东,临沂市,68.733,210.778,23.976,41.048,0.748,80.322,7.069,4.086,294.129,34.368,98908.827,35.289,118.27
山东,威海市,43.224,96.219,13.4,23.925,0.728,107.108,3.514,9.38,284.416,75.688,99880.454,37.148,122.028
山东,德州市,77.12,221.214,15.976,34.641,0.817,68.326,8.19,-0.528,296.01,23.982,100313.387,37.233,116.679
山东,日照市,70.046,214.184,20.913,39.87,0.721,82.4,7.683,5.133,293.787,35.412,98968.501,35.566,119.108
山东,枣庄市,60.906,178.688,27.03,39.266,0.739,84.179,5.968,3.326,295.086,32.44,99662.829,34.925,117.383
山东,泰安市,85.38,282.036,23.026,40.184,0.838,80.116,6.099,1.664,294.313,30.551,98753.538,35.993,117.04
山东,济南市,87.125,295.612,21.396,37.141,0.85,80.116,7.782,2.308,294.296,29.73,98644.36,36.639,117.254
山东,济宁市,64.661,197.597,23.512,38.301,0.843,83.997,5.601,2.217,295.639,29.456,100038.978,35.375,116.697
山东,淄博市,83.952,300.115,25.699,38.06,0.982,84.25,9.839,3.887,293.61,31.548,97998.587,36.623,118.062
山东,滨州市,64.087,196.046,16.62,26.365,0.764,73.35,10.098,1.417,295.609,27.601,100274.058,37.516,117.852
山东,潍坊市,73.48,233.464,22.765,38.023,0.91,80.66,9.265,4.689,294.389,31.406,99357.19,36.53,119.092
山东,烟台市,49.32,134.937,15.774,27.682,0.736,92.934,5.307,6.491,290.347,45.116,99281.018,37.25,120.789
山东,聊城市,77.254,215.533,17.277,41.83,0.856,66.747,6.078,-0.941,296.345,24.474,100211.332,36.458,115.863
山东,菏泽市,64.151,180.125,18.667,37.144,0.966,81.633,4.805,2.003,296.219,29.677,100195.587,35.134,115.69
山东,青岛市,60.359,173.913,18.103,41.947,0.791,84.58,5.855,5.933,292.41,39.53,99942.33,36.46,120.172
山西,临汾市,85.345,188.462,14.606,25.656,0.795,57.761,4.152,-6.983,288.919,18.163,89629.301,36.227,111.398
山西,吕梁市,107.259,247.769,7.691,18.572,0.426,61.091,6.091,-5.843,285.464,22.104,87298.224,37.663,111.27
山西,大同市,59.337,160.249,6.755,7.697,0.358,67.28,9.695,-7.016,282.348,37.439,86503.651,39.911,113.713
山西,太原市,117.282,323.281,6.043,17.698,0.319,74.88,9.25,-5.985,285.557,22.755,87049.584,37.967,112.321
山西,忻州市,109.801,222.559,5.642,10.807,0.248,71.775,9.478,-5.946,283.021,29.239,85551.54,38.877,112.391
山西,晋中市,86.045,293.487,12.334,25.557,0.612,68.429,7.974,-5.109,287.277,18.737,87938.062,37.328,112.997
山西,晋城市,71.583,207.078,19.157,32.443,0.878,63.464,5.052,-6.132,290.656,18.356,89890.252,35.625,112.752
山西,朔州市,94.867,250.171,6.944,9.065,0.395,78.767,9.535,-5.489,282.385,35.428,85979.128,39.619,112.655
山西,运城市,85.718,243.539,24.799,38.007,0.76,55.059,2.36,-5.908,292.573,18.891,93711.048,35.205,111.071
山西,长治市,63.516,193.202,14.424,24.672,0.706,69.151,6.755,-5.36,288.727,16.973,88252.378,36.48,112.915
山西,阳泉市,110.125,272.421,9.593,23.331,0.372,68.566,10.329,-6.379,288.033,19.687,89685.356,38.031,113.512
广东,东莞市,37.47,66.469,9.754,36.174,0.749,75.272,-2.436,4.228,295.164,79.244,101303.028,22.931,113.81
广东,中山市,24.522,39.728,6.582,14.301,0.459,86.039,-3.668,4.12,295.249,80.211,101297.437,22.5,113.383
广东,云浮市,29.367,43.685,2.517,12.002,0.55,71.21,-2.098,5.941,295.346,75.568,99191.208,22.776,111.818
广东,佛山市,33.672,62.655,10.111,34.825,0.701,78.008,-2.461,4.779,296.183,72.804,101290.164,23.035,112.979
广东,广州市,39.438,70.493,11.074,42.623,0.737,76.695,-2.334,4.605,295.125,75.071,100419.869,23.339,113.525
广东,惠州市,26.183,38.863,4.283,12.809,0.427,87.86,-2.674,3.97,294.341,77.955,99484.046,23.244,114.485
广东,揭阳市,41.821,72.087,11.048,20.803,0.786,90.713,-2.881,1.849,294.033,79.323,100138.704,23.323,116.123
广东,梅州市,38.838,65.05,7.568,19.166,0.752,87.476,-1.449,4.404,293.571,69.954,98067.379,24.169,116.07
广东,汕头市,33.965,55.662,9.828,17.155,0.568,107.081,-3.579,1.185,294.186,82.436,101280.32,23.339,116.614
广东,汕尾市,29.045,45.81,4.239,10.084,0.49,91.479,-3.618,2.165,294.043,82.334,99858.369,23.024,115.527
广东,江门市,20.653,29.668,2.759,8.918,0.328,87.11,-3.24,4.551,295.252,80.346,100709.901,22.289,112.676
广东,河源市,29.849,43.855,3.542,12.354,0.513,85.155,-0.398,4.678,293.958,70.379,98233.643,24.021,114.969
广东,深圳市,26.902,48.741,7.501,26.402,0.573,80.013,-3.72,3.774,294.66,83.938,100837.38,22.667,114.143
广东,清远市,40.562,61.773,8.922,27.007,0.602,79.8,-0.471,6.579,293.944,75.146,97663.967,24.295,112.871
广东,湛江市,20.181,37.206,4.225,6.505,0.631,82.599,-3.837,4.33,296.375,80.287,101053.32,21.091,110.163
广东,潮州市,39.572,68.949,8.958,18.859,0.694,97.293,-2.632,2.174,293.223,79.975,99597.866,23.755,116.754
广东,珠海市,13.873,19.608,2.152,4.538,0.235,96.493,-3.972,3.403,294.928,84.615,101387.617,22.095,113.317
广东,肇庆市,34.413,53.076,4.764,18.921,0.579,70.577,-1.806,5.814,295.37,73.576,99295.435,23.505,112.199
广东,茂名市,22.443,37.132,4.93,8.384,0.708,80.78,-3.094,5.629,295.079,80.421,99281.684,22.013,110.952
广东,阳江市,19.202,26.475,1.79,5.051,0.349,84.989,-2.701,4.871,294.988,81.8,99843.401,22.042,111.786
广东,韶关市,40.186,60.809,12.646,22.623,0.753,92.542,1.183,6.122,293.602,72.732,96882.047,24.785,113.819
广西,北海市,24.981,45.881,4.062,7.097,0.79,84.412,-1.464,5.862,296.334,78.239,101061.036,21.674,109.37
广西,南宁市,38.398,69.355,6.544,16.007,0.745,83.056,0.558,7.591,295.721,67.41,99083.82,23.051,108.469
广西,崇左市,34.655,50.291,4.47,5.937,0.594,87.588,2.072,6.644,295.042,69.575,97778.238,22.483,107.291
广西,来宾市,44.383,78.886,6.562,13.837,0.689,77.117,0.833,8.682,295.486,68.006,97915.619,23.859,109.417
广西,柳州市,44.02,72.33,7.891,12.196,0.605,78.134,1.343,9.377,295.132,65.442,97225.7,24.956,109.372
广西,桂林市,49.621,76.374,7.123,12.942,0.625,78.301,2.318,8.617,293.834,68.368,95652.849,25.353,110.513
广西,梧州市,44.9,78.294,6.666,23.119,0.926,59.886,-0.493,6.539,295.796,70.687,98845.203,23.484,110.996
广西,河池市,42.649,68.322,6.236,9.595,0.628,78.403,0.604,9.292,294.275,66.147,94822.11,24.628,107.843
广西,玉林市,33.323,59.591,12.002,12.901,0.903,76.851,-1.535,7.093,295.778,75.663,99273.052,22.452,110.164
广西,百色市,46.816,65.253,10.58,6.433,0.871,95.156,2.767,7.159,295.372,58.766,92692.156,23.981,106.292
广西,贵港市,49.154,89.388,10.135,19.626,0.932,72.838,0.274,7.208,296.641,68.226,99635.435,23.322,110.021
广西,贺州市,45.038,71.047,6.29,15.896,0.726,66.632,-0.199,7.711,294.304,73.951,97019.076,24.364,111.394
广西,钦州市,32.785,63.558,5.925,12.725,0.822,82.641,-0.36,6.781,295.89,74.859,100301.309,22.173,109.01
广西,防城港市,28.182,45.057,4.171,7.062,0.55,92.546,0.488,6.476,294.121,77.497,98694.929,21.88,108.002
新疆,乌鲁木齐市,12.086,17.964,2.662,12.486,0.269,64.006,1.627,-1.042,278.301,48.402,84216.926,43.746,87.818
新疆,五家渠市,8.22,14.653,4.39,11.99,0.34,67.217,-1.957,-0.397,284.327,35.09,96583.93,44.363,87.517
新疆,伊犁哈萨克自治州,10.118,14.6,2.538,3.642,0.295,65.903,1.319,0.441,274.038,83.318,80427.155,43.438,82.146
新疆,克孜勒苏柯尔克孜自治州,17.704,30.211,0.34,1.07,0.202,75.734,4.733,-2.732,273.135,53.669,70322.351,39.661,75.949
新疆,克拉玛依市,7.638,14.423,2.557,3.709,0.361,71.469,0.604,-1.314,283.556,50.163,97436.285,45.457,85.207
新疆,北屯市,2.37,2.784,2.256,1.416,0.202,70.362,-1.614,2.756,281.388,45.758,95477.578,47.27,87.868
新疆,博尔塔拉蒙古自治州,7.147,10.412,2.861,2.709,0.248,64.773,2.92,1.387,277.348,63.156,86185.326,44.714,82.114
新疆,双河市,9.874,14.822,3.934,4.438,0.29,58.562,-1.632,-2.826,283.884,49.44,97914.794,44.87,82.474
新疆,可克达拉市,11.678,21.476,6.372,9.634,0.544,59.418,1.17,-0.49,283.654,59.328,94995.74,43.918,80.786
新疆,和田地区,98.517,120.098,1.186,0.747,0.144,61.901,2.513,-0.609,280.746,32.238,73758.095,37.059,80.934
新疆,哈密市,7.39,8.261,0.779,0.9,0.167,70.891,0.059,-0.805,282.878,23.239,88116.404,43.042,93.517
新疆,喀什地区,70.385,99.63,1.136,2.169,0.233,63.808,2.779,-0.31,279.74,42.96,75932.981,38.125,77.178
新疆,图木舒克市,93.538,134.42,1.465,1.352,0.16,47.223,-4.407,-2.617,288.545,27.905,88930.963,39.892,79.182
新疆,塔城地区,5.059,6.595,1.919,1.807,0.223,66.293,2.802,-0.162,278.891,58.941,89571.885,45.642,84.789
新疆,巴音郭楞蒙古自治州,55.581,59.005,0.629,0.787,0.144,61.459,-1.824,-0.769,281.39,29.711,78947.67,39.463,87.481
新疆,新星市,8.715,17.745,1.93,5.1,0.335,67.48,-2.975,0.94,287.01,17.435,92471.005,42.75,93.68
新疆,昆玉市,168.24,278.14,5.163,3.14,0.177,44.387,3.287,-2.923,289.633,25.463,86619.49,37.457,79.093
新疆,昌吉回族自治州,5.69,7.759,1.92,4.233,0.207,68.938,0.239,-0.434,280.702,41.489,89883.423,44.342,88.608
新疆,石河子市,13.115,19.725,7.92,16.02,0.325,67.205,2.025,-1.105,284.11,46.46,94708.79,44.245,86.035
新疆,胡杨河市,9.982,15.628,2.792,4.012,0.376,72.232,0.698,-0.35,283.244,60.676,97925.834,44.852,84.772
新疆,铁门关市,64.167,162.907,4.097,15.533,0.377,54.973,-0.823,-1.713,288.363,23.557,91413.233,41.773,85.66
新疆,阿克苏地区,141.379,197.004,1.341,2.249,0.18,48.732,-2.888,-1.153,283.998,33.878,85008.127,40.965,81.578
新疆,阿勒泰地区,1.826,2.114,1.504,0.817,0.169,70.266,-0.486,1.422,277.135,50.678,88433.745,46.902,88.421
新疆,阿拉尔市,176.066,293.021,1.648,4.704,0.223,41.047,-4.997,-2.493,287.99,26.467,89767.732,40.629,80.998
江苏,南京市,43.224,111.529,16.662,47.813,0.764,90.152,5.195,7.838,295.353,40.795,100881.077,31.899,118.876
江苏,南通市,39.602,87.517,18.74,53.024,0.638,96.956,2.454,9.048,293.799,47.914,101123.658,32.201,120.979
江苏,宿迁市,50.492,115.519,14.586,27.929,0.651,96.484,5.96,6.198,295.476,39.473,100723.448,33.765,118.495
江苏,常州市,41.252,88.282,11.699,43.804,0.734,90.313,4.617,7.403,295.691,39.596,101003.526,31.613,119.666
江苏,徐州市,58.718,148.735,19.85,35.556,0.719,90.881,6.179,4.31,295.715,35.156,100402.55,34.363,117.513
江苏,扬州市,48.048,119.916,19.022,52.95,0.789,92.804,4.655,8.473,294.794,42.098,100957.573,32.709,119.486
江苏,无锡市,40.382,89.896,14.56,52.026,0.75,90.05,3.538,7.655,295.254,41.76,100943.717,31.546,120.066
江苏,泰州市,49.009,112.66,18.484,54.564,0.796,93.056,4.24,8.676,294.713,42.002,100969.297,32.605,120.048
江苏,淮安市,48.758,113.696,15.686,35.244,0.659,98.784,5.365,7.29,295.313,41.082,100786.299,33.362,118.985
江苏,盐城市,50.08,109.075,19.176,44.513,0.716,91.991,4.82,8.573,294.628,42.39,100884.661,33.529,120.156
江苏,苏州市,37.309,85.622,14.924,51.788,0.698,96.686,2.528,8.338,294.49,43.61,101159.01,31.374,120.661
江苏,连云港市,58.462,144.02,17.895,36.535,0.696,88.099,6.662,6.318,295.246,37.165,100542.193,34.519,119.133
江苏,镇江市,45.021,105.043,14.472,49.86,0.764,91.796,5.259,7.821,295.247,40.205,100932.053,32.016,119.49
江西,上饶市,35.142,67.698,16.612,21.667,0.67,87.133,2.85,6.013,295.193,48.177,99076.74,28.778,117.47
江西,九江市,34.176,69.205,12.448,16.94,0.554,106.159,3.426,6.878,295.359,46.125,98872.124,29.313,115.444
江西,南昌市,34.792,78.536,18.407,29.41,0.699,104.83,3.448,7.098,296.632,46.547,100806.03,28.671,116.016
江西,吉安市,35.589,63.904,15.767,13.203,0.698,102.063,2.188,6.907,295.835,55.318,98650.361,26.954,114.831
江西,宜春市,36.504,67.517,15.839,19.058,0.71,96.694,3.858,6.253,295.669,48.971,98900.842,28.29,114.974
江西,抚州市,31.293,47.663,9.856,11.152,0.532,97.192,2.208,6.947,295.107,54.177,98714.934,27.514,116.42
江西,新余市,38.646,76.891,21.321,22.421,0.859,94.777,2.547,6.144,296.652,47.231,99827.569,27.847,114.836
江西,景德镇市,37.657,71.145,12.849,22.22,0.606,90.08,2.684,6.54,295.135,47.478,99856.379,29.287,117.24
江西,萍乡市,38.749,74.024,17.115,20.353,0.749,85.254,4.11,7.395,295.237,54.817,97594.753,27.505,113.908
江西,赣州市,32.903,52.467,8.036,11.463,0.889,96.197,1.331,6.592,293.822,63.015,97181.57,25.692,115.279
江西,鹰潭市,32.944,55.641,18.78,18.871,0.591,91.054,2.307,7.755,295.747,49.717,99612.992,28.222,117.094
河北,保定市,68.749,115.447,8.336,25.456,0.508,60.744,7.309,-6.883,291.342,22.916,96679.074,39.018,115.159
河北,唐山市,47.495,109.834,21.684,41.096,1.285,56.606,5.388,-3.171,289.302,43.189,99499.213,39.731,118.354
河北,廊坊市,58.442,141.188,12.421,43.874,1.199,48.906,4.817,-5.153,290.7,33.304,100251.917,39.267,116.632
河北,张家口市,27.646,47.104,3.012,8.663,0.325,64.875,9.691,-7.758,280.295,46.819,86774.467,40.877,115.042
河北,承德市,27.375,47.587,5.667,11.788,0.418,67.327,6.927,-5.333,281.466,46.137,89714.17,41.339,117.578
河北,沧州市,63.089,157.747,13.407,34.327,0.82,62.378,8.141,-2.399,294.695,23.422,100314.007,38.258,116.744
河北,石家庄市,109.499,235.543,13.173,36.928,0.602,63.317,8.35,-6.399,293.88,16.303,97327.12,38.135,114.407
河北,秦皇岛市,30.497,65.542,12.981,23.799,0.651,66.6,4.573,-2.579,287.162,49.497,97181.863,40.12,119.193
河北,衡水市,81.994,190.716,15.75,40.739,0.838,60.871,6.961,-3.925,295.456,19.373,100301.649,37.755,115.813
河北,邢台市,108.695,242.807,18.924,46.055,0.837,62.292,5.451,-5.262,295.883,15.382,98941.509,37.195,114.815
河北,邯郸市,103.852,237.675,24.335,50.075,1.124,63.541,4.058,-3.231,295.938,17.503,98520.226,36.538,114.596
河南,三门峡市,78.07,200.397,15.295,31.89,0.544,57.332,3.554,-4.547,291.491,24.442,91386.887,34.362,111.101
河南,信阳市,44.232,87.041,15.843,21.815,0.565,118.407,5.792,8.75,296.672,41.044,99608.063,32.091,114.907
河南,南阳市,60.983,113.624,11.295,18.437,0.659,93.297,1.471,-0.444,296.351,33.15,97506.555,33.034,112.323
河南,周口市,60.047,164.724,16.457,29.972,0.811,109.156,3.776,3.316,296.808,36.538,100214.381,33.738,114.884
河南,商丘市,64.569,176.457,17.371,34.235,0.828,97.139,4.415,3.295,296.258,33.65,100279.094,34.277,115.718
河南,安阳市,86.512,201.756,23.702,50.389,1.262,61.061,4.156,-1.76,296.221,20.045,98167.228,35.888,114.318
河南,平顶山市,71.631,192.469,15.444,28.919,0.695,86.943,5.321,-0.732,296.857,27.973,98097.791,33.8,113.025
河南,开封市,76.363,207.874,19.909,43.155,0.996,77.522,3.163,2.735,296.583,33.038,99910.897,34.594,114.514
河南,新乡市,76.239,209.46,23.412,52.017,1.209,58.408,2.337,0.201,296.536,25.775,98978.51,35.256,114.111
河南,洛阳市,75.808,183.768,15.895,27.525,0.586,64.942,5.626,-3.11,294.066,23.935,93623.739,34.274,112.019
河南,济源市,75.037,188.331,16.605,29.745,0.662,65.098,4.407,-7.184,295.544,15.425,95318.172,35.105,112.445
河南,漯河市,62.452,192.394,16.618,33.634,0.872,100.342,3.685,1.564,297.352,33.634,100051.955,33.652,113.945
河南,濮阳市,74.546,192.118,19.987,43.652,1.087,67.393,4.541,0.432,296.296,27.264,100139.666,35.809,115.283
河南,焦作市,85.042,267.77,22.489,51.649,1.012,55.411,3.127,-2.113,297.739,18.861,98781.032,35.121,113.163
河南,许昌市,76.57,247.205,18.62,41.332,0.896,83.883,4.293,1.168,296.999,31.078,99378.507,34.075,113.707
河南,郑州市,89.507,292.642,23.463,52.691,0.965,62.66,4.629,0.777,296.462,26.405,98079.072,34.634,113.438
河南,驻马店市,55.157,138.803,15.486,25.385,0.715,117.444,4.334,3.455,297.392,35.869,99793.537,32.925,114.174
河南,鹤壁市,89.937,211.212,27.096,60.818,1.466,55.492,2.982,-1.166,296.793,21.204,99306.052,35.716,114.319
浙江,丽水市,27.823,47.582,7.997,15.967,0.445,97.323,1.97,5.435,291.823,48.901,94543.097,28.194,119.51
浙江,台州市,27.768,53.856,8.319,20.834,0.455,102.561,0.796,6.758,291.238,69.677,98827.431,28.742,121.109
浙江,嘉兴市,34.533,71.74,10.861,40.271,0.641,102.221,2.749,7.121,295.273,40.005,101245.675,30.635,120.754
浙江,宁波市,22.037,41.6,7.317,14.184,0.418,109.389,0.464,8.759,292.985,61.515,100202.289,29.706,121.49
浙江,杭州市,33.002,61.537,9.446,27.006,0.58,85.413,4.082,6.025,294.349,44.431,98410.792,29.891,119.464
浙江,温州市,33.887,66.934,8.337,27.047,0.513,102.192,0.718,4.343,290.632,67.881,97682.33,27.897,120.411
浙江,湖州市,34.302,66.913,9.693,34.012,0.611,86.219,3.975,7.156,295.643,40.486,99915.849,30.757,119.871
浙江,绍兴市,28.013,53.755,7.51,21.587,0.523,102.755,2.293,7.265,294.847,41.21,99288.022,29.709,120.64
浙江,舟山市,11.115,19.578,2.18,2.595,0.208,113.992,-0.81,12.332,290.455,86.845,101268.168,30.038,122.23
浙江,衢州市,33.513,62.05,12.282,25.55,0.689,78.735,3.836,5.362,294.532,46.383,97726.081,28.912,118.675
浙江,金华市,30.53,56.865,8.141,27.194,0.538,93.887,2.212,5.813,294.19,43.141,97999.123,29.109,119.967
海南,万宁市,14.512,21.339,1.049,1.617,0.208,84.433,-3.48,2.494,295.701,89.362,100066.534,18.842,110.294
海南,三亚市,14.95,25.62,1.534,4.689,0.484,71.157,-4.477,1.447,295.366,85.327,98814.51,18.413,109.407
海南,东方市,17.325,22.486,1.624,2.953,0.201,69.546,-1.417,3.205,296.815,72.065,99381.878,18.971,108.838
海南,临高县,21.277,36.33,2.41,5.591,0.463,60.044,-2.064,1.747,296.647,79.561,100588.077,19.821,109.733
海南,乐东黎族自治县,15.462,21.885,1.071,3.02,0.278,67.864,-3.208,2.985,295.392,80.242,97901.393,18.659,109.072
海南,五指山市,16.41,22.454,1.012,3.166,0.246,67.916,-3.186,3.532,293.58,85.612,94704.116,18.81,109.518
海南,儋州市,21.546,31.283,1.849,3.577,0.314,74.029,-0.855,0.282,296.487,77.173,100239.204,19.568,109.399
海南,定安县,17.342,29.913,1.442,4.04,0.408,63.668,-3.56,3.355,296.245,83.802,100317.64,19.47,110.28
海南,屯昌县,17.372,27.714,1.386,3.406,0.35,65.814,-3.24,3.464,295.868,84.79,99525.744,19.342,110.076
海南,文昌市,14.251,23.028,1.125,1.878,0.283,75.641,-4.672,3.179,296.018,86.806,101120.675,19.707,110.773
海南,昌江黎族自治县,20.354,26.294,2.091,3.571,0.229,72.129,-0.444,1.323,295.784,75.779,98382.061,19.233,109.016
海南,海口市,18.408,33.704,2.18,5.907,0.472,59.509,-3.689,3.079,296.668,81.051,100890.265,19.842,110.393
海南,澄迈县,20.469,36.549,2.404,6.264,0.507,54.299,-2.934,3.17,296.476,81.313,100423.076,19.676,109.989
海南,琼中黎族苗族自治县,16.637,23.721,1.079,2.641,0.244,69.116,-2.497,3.628,294.892,85.261,97335.782,19.087,109.847
海南,琼海市,14.935,23.27,1.075,2.25,0.265,76.845,-3.855,2.592,296.293,86.118,100891.628,19.22,110.43
海南,白沙黎族自治县,17.689,24.125,1.239,2.843,0.24,70.191,-1.055,1.956,295.776,75.646,97024.89,19.2,109.388
海南,陵水黎族自治县,14.979,22.084,0.844,2.253,0.294,79.13,-2.973,1.273,295.38,88.459,99391.169,18.581,109.913
湖北,仙桃市,43.83,89.837,9.988,18.534,0.646,109.868,3.525,8.197,296.987,46.072,100704.801,30.284,113.417
湖北,十堰市,56.654,81.843,8.79,10.361,0.575,81.475,1.684,-2.351,294.938,34.303,92827.602,32.462,110.476
湖北,咸宁市,37.183,70.108,9.132,13.561,0.618,109.347,4.061,7.901,296.034,44.836,98971.324,29.621,114.178
湖北,天门市,47.208,94.728,11.069,21.255,0.685,100.102,3.262,8.029,297.203,45.651,100605.672,30.633,113.053
湖北,孝感市,45.801,96.443,11.631,28.43,0.708,101.864,3.676,7.953,296.483,45.638,100044.326,31.116,113.869
湖北,宜昌市,40.982,74.348,9.919,11.867,0.587,94.405,1.454,2.193,294.874,49.886,93615.283,30.746,111.129
湖北,恩施土家族苗族自治州,43.698,68.139,10.123,9.607,0.585,76.327,0.211,3.418,290.644,64.77,89227.886,30.195,109.552
湖北,武汉市,47.893,109.448,9.873,42.791,0.871,93.707,3.495,6.744,296.382,44.712,100647.494,30.606,114.349
湖北,潜江市,44.804,85.877,9.402,15.798,0.628,102.562,2.864,8.333,297.257,46.184,100612.983,30.33,112.77
湖北,神农架林区,41.312,53.757,7.228,3.891,0.333,89.47,1.512,-0.582,288.438,56.082,82804.312,31.592,110.49
湖北,荆州市,42.947,82.266,10.56,13.304,0.626,108.537,2.89,7.678,297.333,46.451,100387.712,30.01,112.512
湖北,荆门市,46.187,93.824,11.863,19.944,0.686,102.907,1.71,6.884,297.033,45.744,99547.952,31.059,112.616
湖北,襄阳市,48.686,89.774,10.509,13.823,0.586,102.585,0.867,1.887,296.818,39.265,96810.304,31.919,111.96
湖北,鄂州市,43.61,91.063,13.694,34.264,0.981,100.806,3.791,5.669,296.683,42.431,100740.636,30.337,114.794
湖北,随州市,46.192,88.436,12.249,15.853,0.587,112.461,2.665,5.884,296.619,42.672,98854.89,31.809,113.43
湖北,黄冈市,44.702,85.739,12.921,27.472,0.757,104.509,2.391,5.68,294.959,44.388,99059.218,30.702,115.358
湖北,黄石市,35.935,70.346,11.88,19.29,0.786,106.172,3.763,6.034,296.325,42.641,99810.586,29.925,115.034
湖南,娄底市,44.167,82.505,11.489,16.209,1.033,87.982,2.59,6.999,295.656,51.764,96829.355,27.715,111.632
湖南,岳阳市,40.186,73.212,11.233,16.75,0.598,114.18,2.186,8.426,296.379,46.636,99659.598,29.081,113.275
湖南,常德市,38.945,66.696,9.641,8.932,0.626,96.97,3.758,4.797,296.736,49.233,98736.056,29.271,111.524
湖南,张家界市,39.102,70.695,8.414,8.196,0.7,83.355,3.394,3.469,293.42,59.308,94891.672,29.379,110.526
湖南,怀化市,40.938,84.215,8.17,12.997,0.894,87.664,2.773,7.979,294.574,59.502,95878.338,27.535,110.071
湖南,株洲市,38.984,72.381,16.318,17.918,0.712,94.381,2.722,7.838,295.228,56.763,97725.604,27.109,113.513
湖南,永州市,35.074,53.165,5.592,7.069,0.482,89.825,2.767,9.096,294.472,65.64,96365.524,25.748,111.723
湖南,湘潭市,38.138,75.795,11.632,16.247,0.837,104.613,2.169,8.372,296.915,48.374,99822.572,27.744,112.619
湖南,湘西土家族苗族自治州,43.132,92.519,8.786,21.146,0.808,64.419,0.139,5.606,293.691,60.525,94813.359,28.708,109.718
湖南,益阳市,38.828,72.867,9.912,12.185,0.835,100.683,2.547,6.701,296.484,48.839,98323.6,28.525,111.919
湖南,衡阳市,36.796,66.492,10.076,13.676,0.752,97.65,2.222,7.957,296.63,54.291,99437.577,26.781,112.565
湖南,邵阳市,46.409,78.837,9.395,12.623,0.771,86.259,3.493,8.259,294.135,58.827,94665.762,26.893,110.881
湖南,郴州市,37.852,64.666,15.684,15.605,0.825,110.986,1.714,8.15,293.578,68.898,95637.645,25.769,113.109
湖南,长沙市,41.07,78.559,14.315,22.753,0.759,103.951,2.178,7.889,296.249,48.149,99252.372,28.235,113.159
甘肃,临夏回族自治州,121.288,447.955,4.605,19.058,0.437,52.938,-3.449,1.79,281.162,31.419,77422.864,35.617,103.291
甘肃,兰州市,101.339,327.802,6.742,22.276,0.477,53.014,-2.802,0.057,281.489,31.109,79076.713,36.359,103.633
甘肃,嘉峪关市,18.65,137.855,11.037,32.165,0.45,99.402,-4.62,1.608,281.198,26.202,81561.442,39.798,98.145
甘肃,天水市,72.484,147.107,3.042,16.047,0.28,56.687,-2.016,-2.792,284.947,26.394,82599.944,34.645,105.739
甘肃,定西市,94.717,268.896,2.858,12.411,0.247,51.539,-2.772,-0.728,280.488,32.768,77236.621,35.124,104.432
甘肃,平凉市,88.798,186.898,3.01,16.089,0.252,53.892,-0.692,-4.857,285.666,23.97,84428.144,35.304,106.644
甘肃,庆阳市,102.873,181.439,4.129,9.901,0.209,54.859,1.909,-5.998,285.753,20.98,85674.566,36.149,107.596
甘肃,张掖市,40.388,63.431,1.83,4.586,0.177,67.449,-1.191,-0.454,277.864,34.831,74573.629,38.94,99.855
甘肃,武威市,94.355,129.22,1.834,3.648,0.201,59.867,-0.003,-1.014,281.416,28.336,81365.569,38.163,103.073
甘肃,甘南藏族自治州,47.318,127.361,2.365,3.336,0.186,76.957,-2.376,1.54,277.102,52.096,67572.045,34.331,102.768
甘肃,白银市,97.661,235.466,3.251,10.725,0.262,51.225,-1.068,-2.934,282.325,29.58,81472.263,36.59,104.646
甘肃,酒泉市,24.092,29.178,0.967,1.642,0.147,67.908,-1.674,-0.665,280.318,25.903,78977.552,40.236,96.062
甘肃,金昌市,61.573,110.487,4.433,5.356,0.228,78.117,-1.555,-0.262,280.859,30.667,80568.899,38.44,102.048
甘肃,陇南市,63.896,114.257,5.99,15.929,0.279,62.134,-3.045,-4.101,285.554,36.015,82076.832,33.599,105.224
福建,三明市,34.735,51.104,8.09,18.639,0.81,81.974,1.614,4.793,292.319,52.87,95209.778,26.29,117.395
福建,南平市,31.426,48.974,10.21,14.248,0.593,95.022,0.806,3.816,292.524,52.58,95944.52,27.324,118.143
福建,厦门市,47.097,81.685,14.538,34.535,0.588,88.227,0.225,1.468,292.322,71.5,100525.855,24.642,118.11
福建,宁德市,29.934,52.146,6.181,11.352,0.435,120.072,0.219,2.543,290.452,61.593,95359.92,26.968,119.474
福建,泉州市,42.371,68.53,9.695,22.74,0.568,91.631,1.182,2.893,291.105,63.53,96733.918,25.201,118.249
福建,漳州市,38.282,60.776,7.018,16.746,0.454,97.202,-0.297,2.136,291.941,75.7,98342.992,24.372,117.444
福建,福州市,35.513,68.516,8.118,21.066,0.549,109.604,0.936,2.329,291.637,61.597,97460.822,26.083,119.206
福建,莆田市,40.703,69.664,8.783,19.212,0.539,108.676,1.646,1.977,291.33,63.533,98268.945,25.445,118.864
福建,龙岩市,33.643,51.663,6.713,16.925,0.553,88.183,-0.032,4.741,291.6,62.6,95248.536,25.256,116.739
西藏,山南市,21.795,24.231,2.406,1.343,0.207,109.01,3.221,2.249,276.868,73.461,66222.605,28.295,92.274
西藏,拉萨市,12.277,19.021,1.765,2.639,0.226,113.696,3.962,3.032,271.917,59.519,56618.728,30.043,91.093
西藏,日喀则市,12.573,14.065,1.323,0.493,0.173,107.845,5.258,1.253,269.63,63.388,55383.208,29.483,86.493
西藏,昌都市,12.333,13.961,1.195,0.896,0.174,106.297,4.329,2.418,273.074,61.824,59123.16,30.753,97.044
西藏,林芝市,20.639,22.387,2.071,1.274,0.19,104.095,0.32,1.427,275.559,82.675,66491.248,29.184,95.25
西藏,玉树藏族自治州,6.228,6.985,0.418,0.35,0.137,95.246,2.854,0.943,273.006,43.299,57276.654,34.196,94.317
西藏,那曲市,6.675,7.663,0.524,0.206,0.154,100.703,2.794,0.397,271.692,48.52,55440.455,32.709,89.262
西藏,阿里地区,3.287,3.837,0.375,0.433,0.144,92.689,6.354,-2.648,269.411,43.203,54929.531,33.013,82.553
贵州,六盘水市,41.371,76.25,11.377,11.918,0.574,94.088,4.617,1.671,292.547,49.501,82777.568,26.106,104.896
贵州,安顺市,46.861,81.852,8.511,6.459,0.416,106.569,0.51,8.054,293.912,54.89,87756.524,25.986,105.978
贵州,毕节市,49.532,95.17,10.625,10.157,0.528,99.645,2.896,2.421,291.187,56.52,83102.169,27.063,105.211
贵州,贵阳市,55.387,109.347,8.815,19.459,0.528,112.186,2.714,9.265,292.486,61.349,87786.069,26.845,106.71
贵州,遵义市,46.688,74.355,9.35,11.209,0.45,96.473,-0.071,4.632,293.318,59.59,89887.993,28.167,107.102
贵州,铜仁市,39.077,71.773,6.776,10.411,0.511,72.667,0.784,6.901,293.402,61.202,92302.104,27.937,108.534
贵州,黔东南苗族侗族自治州,39.658,59.205,6.24,4.737,0.415,89.566,1.956,10.045,292.819,67.21,92313.3,26.495,108.574
贵州,黔南布依族苗族自治州,46.891,78.613,5.374,5.236,0.386,102.238,0.737,9.262,292.528,65.781,90035.307,26.0,107.265
贵州,黔西南布依族苗族自治州,37.375,56.33,7.709,5.313,0.506,97.959,5.229,6.292,296.135,44.856,88161.691,25.256,105.467
辽宁,丹东市,31.608,56.634,8.468,12.993,0.612,90.347,-1.448,8.114,279.481,84.309,97363.432,40.554,124.376
辽宁,大连市,41.207,87.981,10.794,23.22,0.694,94.592,0.832,4.694,283.519,72.006,99403.513,39.591,122.22
辽宁,抚顺市,29.76,57.55,11.137,11.75,0.508,103.602,0.273,10.648,280.298,74.397,95380.423,41.841,124.65
辽宁,朝阳市,28.056,57.479,9.457,9.831,0.502,76.498,4.295,-2.974,282.469,56.224,94873.462,41.545,120.053
辽宁,本溪市,29.997,57.147,10.325,11.807,0.582,100.089,-0.999,10.882,279.064,79.314,94851.445,41.232,124.544
辽宁,沈阳市,39.514,90.534,15.398,17.86,0.68,99.248,2.379,5.96,284.074,62.093,99340.468,42.081,123.159
辽宁,盘锦市,37.253,86.111,15.209,19.721,0.79,101.16,2.718,4.323,284.15,65.459,100044.815,41.13,122.01
辽宁,营口市,43.375,89.117,13.056,19.524,0.719,101.067,-0.852,6.619,282.91,73.013,97922.407,40.395,122.478
辽宁,葫芦岛市,25.755,54.826,9.379,12.318,0.479,79.147,3.466,-2.309,284.258,61.133,97565.932,40.66,120.215
辽宁,辽阳市,37.099,82.511,13.031,17.163,0.807,103.787,-1.021,8.293,282.47,72.326,98101.425,41.153,123.261
辽宁,铁岭市,36.936,75.217,14.401,17.07,0.55,96.226,1.58,7.888,282.303,67.067,97797.658,42.653,124.158
辽宁,锦州市,35.066,77.367,14.206,16.115,0.664,99.223,2.947,1.947,283.22,67.302,99213.478,41.502,121.659
辽宁,阜新市,39.401,73.487,14.255,12.339,0.531,95.272,3.972,2.11,282.285,65.447,97690.135,42.289,121.968
辽宁,鞍山市,40.39,83.41,12.099,17.911,0.777,96.859,-0.784,5.798,281.836,77.864,98246.86,40.731,123.007
重庆,重庆城区,48.545,89.165,14.29,29.064,0.649,83.699,-2.081,1.996,296.618,50.265,94242.861,29.824,107.125
重庆,重庆郊县,41.418,59.537,10.452,10.406,0.431,81.209,-2.135,2.564,293.177,55.101,90663.113,30.334,108.755
陕西,咸阳市,98.406,247.682,5.744,34.559,0.54,50.343,0.961,-4.734,291.104,19.123,91177.207,34.779,108.367
陕西,商洛市,74.987,131.073,7.39,18.294,0.382,63.359,1.306,-5.433,291.069,27.79,89011.482,33.64,109.889
陕西,安康市,60.304,87.327,7.121,9.98,0.36,77.507,-0.05,-2.985,292.418,35.331,89514.559,32.735,108.932
陕西,宝鸡市,80.941,153.678,3.664,20.285,0.346,56.511,-1.353,-5.013,287.458,23.751,86218.332,34.386,107.193
陕西,延安市,94.641,188.227,6.378,20.602,0.459,54.7,2.577,-6.241,286.743,19.757,87338.055,36.432,109.316
陕西,榆林市,122.799,261.723,6.424,14.478,0.396,65.168,5.272,-6.117,285.528,21.062,87640.628,38.041,109.581
陕西,汉中市,61.976,94.627,7.685,15.84,0.463,70.764,-2.573,-3.346,291.382,33.814,88622.375,33.088,107.098
陕西,渭南市,97.581,235.055,12.733,38.105,0.542,51.639,1.31,-4.196,292.761,19.402,93397.613,34.919,109.855
陕西,西安市,80.616,223.702,8.205,41.696,0.683,53.489,2.161,-2.344,290.615,25.247,90258.505,34.12,108.77
陕西,铜川市,102.888,203.178,6.397,23.985,0.384,51.58,0.506,-7.464,289.394,17.038,88899.996,35.198,109.058
青海,保亭黎族苗族自治县,16.736,26.178,1.358,4.814,0.426,69.432,-3.216,1.08,294.192,89.596,97232.848,18.566,109.618
青海,吐鲁番市,16.238,23.463,1.302,1.649,0.213,68.145,-0.903,-1.228,285.128,24.159,90090.206,42.386,89.851
青海,果洛藏族自治州,7.799,9.489,0.451,0.847,0.137,98.239,2.739,1.079,275.281,42.22,59943.156,34.127,99.404
青海,海东市,86.077,144.377,6.775,9.465,0.323,52.994,-4.058,2.291,277.975,36.651,72720.576,36.347,102.34
青海,海北藏族自治州,36.81,42.825,2.162,2.547,0.159,65.36,0.062,1.054,273.757,40.222,65276.523,37.775,100.288
青海,海南藏族自治州,32.529,45.817,1.169,1.407,0.139,75.609,-1.013,-0.12,277.324,28.81,66403.147,35.89,100.272
青海,海西蒙古族藏族自治州,16.704,17.1,0.327,0.357,0.13,78.359,2.048,-0.759,276.398,28.654,64432.756,36.677,94.519
青海,西宁市,98.751,267.499,7.359,12.603,0.537,61.696,-2.134,2.433,276.155,37.586,69517.121,36.842,101.423
青海,黄南藏族自治州,26.576,43.606,1.317,1.439,0.153,77.952,-1.598,0.472,276.806,41.951,65739.852,35.022,101.631
香港,香港特别行政区,15.105,22.41,3.095,15.695,0.265,88.785,-4.295,3.06,294.64,86.205,101030.315,22.45,114.22
黑龙江,七台河市,45.877,71.369,8.23,20.723,0.607,71.249,-2.803,7.064,277.832,55.395,97198.599,45.87,130.943
黑龙江,伊春市,29.751,36.095,6.912,6.235,0.373,81.273,-2.988,3.664,277.66,45.619,95592.729,47.772,129.184
黑龙江,佳木斯市,31.501,42.3,5.675,10.063,0.389,75.672,-2.431,6.079,278.969,46.222,99337.248,47.207,132.11
黑龙江,双鸭山市,21.256,30.283,5.21,6.356,0.317,75.005,-2.475,7.507,278.279,51.855,98994.586,46.722,132.643
黑龙江,哈尔滨市,48.696,57.947,8.964,13.789,0.5,67.745,-1.963,5.102,279.472,60.771,97197.056,45.634,127.964
黑龙江,大兴安岭地区,6.41,7.801,1.925,1.784,0.192,63.154,-0.245,0.233,274.645,59.953,93587.822,52.286,124.212
黑龙江,大庆市,54.294,80.841,13.096,18.545,0.678,62.834,-1.907,1.287,279.194,57.381,98399.403,46.327,124.687
黑龙江,牡丹江市,44.554,58.858,7.718,18.78,0.641,55.906,-1.682,7.331,276.658,70.595,94350.339,44.592,129.883
黑龙江,绥化市,65.035,87.73,9.473,12.967,0.582,67.411,-3.056,2.106,277.63,60.891,97698.804,46.89,126.634
黑龙江,鸡西市,29.905,42.294,5.611,9.823,0.446,65.441,-2.162,7.572,277.205,62.749,98723.231,45.626,132.289
黑龙江,鹤岗市,37.648,56.695,7.526,12.605,0.497,80.907,-2.594,4.052,278.618,42.936,98203.389,47.661,130.778
黑龙江,黑河市,27.144,36.451,5.801,4.656,0.325,71.053,-0.698,3.306,277.873,39.994,95895.779,49.268,127.004
黑龙江,齐齐哈尔市,44.986,60.221,11.528,12.045,0.515,56.124,-1.868,1.384,277.127,63.681,97697.26,47.715,124.57
