province,city,PM2.5,PM10,SO2,NO2,CO,O3,U,V,TEMP,RH,PSFC,lat,lon
上海,上海市,27.212,65.784,10.791,29.128,0.456,70.007,-4.684,7.448,291.51,91.834,101392.361,31.173,121.42
云南,临沧市,49.331,72.367,4.899,10.139,0.679,101.628,3.943,-1.459,293.408,34.252,83914.117,23.935,99.686
云南,丽江市,17.587,33.437,3.066,4.947,0.609,102.775,5.976,-1.763,285.68,34.884,74629.804,26.96,100.515
云南,保山市,38.661,71.408,4.924,13.254,0.645,96.9,3.722,-2.911,290.77,39.013,81920.749,24.953,98.962
云南,大理白族自治州,25.566,47.936,4.263,8.111,0.564,101.649,5.922,-2.013,288.057,36.951,78139.328,25.726,100.053
云南,德宏傣族景颇族自治州,56.384,84.44,5.657,15.302,0.616,92.579,1.738,-2.638,293.663,40.044,86087.665,24.535,98.052
云南,怒江傈僳族自治州,22.159,35.65,2.772,2.018,0.444,104.241,3.647,-1.22,281.736,52.78,72900.979,26.916,98.885
云南,文山壮族苗族自治州,51.281,73.684,6.515,4.611,0.664,105.825,4.972,4.941,293.32,62.622,86427.996,23.696,104.735
云南,昆明市,43.525,67.754,8.439,17.759,0.806,101.641,8.409,2.297,290.469,30.861,79184.063,25.384,102.863
云南,昭通市,32.387,59.042,9.182,10.756,0.586,94.162,0.679,-0.362,292.146,47.808,83818.768,27.667,103.985
云南,普洱市,44.58,63.567,4.591,7.276,0.597,101.829,2.639,0.546,294.595,41.754,85939.473,23.159,100.718
云南,曲靖市,35.018,52.412,7.716,12.34,0.606,95.105,8.164,1.9,291.095,31.807,79906.327,25.737,103.929
云南,楚雄彝族自治州,33.609,49.603,4.843,15.224,0.625,94.612,6.898,0.578,291.579,28.11,80924.317,25.328,101.567
云南,玉溪市,46.499,78.043,5.195,8.365,0.782,110.256,4.757,2.718,293.275,41.23,83441.792,24.136,102.217
云南,红河哈尼族彝族自治州,57.504,88.709,6.375,5.37,0.732,121.289,2.409,3.175,292.962,56.994,85132.901,23.451,103.034
云南,西双版纳傣族自治州,54.794,88.457,6.146,13.633,0.851,84.65,1.969,1.749,296.375,48.589,88894.765,21.939,100.912
云南,迪庆藏族自治州,11.504,21.821,2.647,2.618,0.393,109.224,4.182,-0.998,277.967,49.243,67348.461,27.957,99.459
内蒙古,乌兰察布市,9.955,20.016,2.258,3.476,0.255,65.385,-4.648,-2.062,270.612,72.219,86464.257,41.691,112.44
内蒙古,乌海市,36.106,155.625,32.574,24.022,0.617,83.086,-2.736,-3.8,283.779,41.56,87848.421,39.396,106.856
内蒙古,兴安盟,2.428,4.114,1.175,1.089,0.187,81.209,5.183,-6.511,270.307,26.42,95770.558,46.244,121.341
内蒙古,包头市,18.446,30.174,2.58,3.656,0.282,62.909,-4.58,-2.105,273.543,69.233,86345.388,41.549,110.276
内蒙古,呼伦贝尔市,1.531,2.405,1.118,0.857,0.178,85.066,6.277,-6.388,266.229,32.153,94355.899,49.636,121.171
内蒙古,呼和浩特市,20.819,66.121,7.421,12.409,0.556,59.018,-4.929,-2.253,275.519,68.685,86619.047,40.578,111.513
内蒙古,巴彦淖尔市,25.173,32.108,1.698,2.087,0.205,60.867,-4.236,-3.235,277.269,48.846,87701.582,41.446,107.582
内蒙古,赤峰市,4.455,7.044,1.708,2.217,0.21,73.292,-0.266,-6.568,270.62,27.057,92867.221,43.226,118.892
内蒙古,通辽市,5.609,8.807,2.316,2.443,0.193,73.707,1.949,-7.777,274.469,18.875,98989.136,43.814,121.591
内蒙古,鄂尔多斯市,32.568,104.748,8.734,10.752,0.392,56.73,-4.011,-3.868,281.141,47.75,87217.408,39.407,108.63
内蒙古,锡林郭勒盟,2.22,2.968,0.805,0.707,0.167,76.135,-1.822,-3.614,268.997,30.181,89924.765,44.179,115.482
内蒙古,阿拉善盟,38.327,46.66,1.363,1.116,0.167,57.527,-1.189,-2.335,281.502,30.001,87802.455,40.473,102.467
北京,北京市,13.508,71.804,3.793,10.892,0.295,70.56,-3.617,-6.467,277.017,57.954,98717.878,40.158,116.395
台湾,台湾省,24.556,28.402,6.354,17.581,0.213,78.096,-0.433,-0.138,291.17,80.299,93118.036,23.757,120.975
吉林,吉林市,19.358,29.328,4.563,7.811,0.417,78.873,3.509,-5.192,274.078,25.82,97869.59,43.573,126.859
吉林,四平市,14.479,28.952,2.529,5.955,0.353,73.85,1.652,-6.761,275.874,17.75,100376.557,43.472,124.386
吉林,延边朝鲜族自治州,9.247,14.424,3.382,4.131,0.277,85.326,6.313,-4.541,273.012,35.099,94583.523,43.141,129.147
吉林,松原市,7.64,11.886,2.233,3.9,0.244,76.215,3.656,-6.98,275.154,17.777,100781.804,44.785,124.496
吉林,白城市,4.39,7.545,1.67,2.124,0.209,76.114,3.896,-6.968,274.879,18.29,101009.789,45.35,123.031
吉林,白山市,13.78,20.171,5.073,6.775,0.297,76.812,1.463,-4.868,272.627,49.899,92745.595,42.063,127.256
吉林,辽源市,21.835,42.162,4.77,9.272,0.447,72.481,1.028,-6.47,274.915,23.555,98336.301,42.836,125.32
吉林,通化市,17.666,29.483,5.804,9.156,0.387,73.245,-0.583,-6.922,274.72,38.274,96345.176,41.939,125.927
吉林,长春市,17.176,29.184,3.288,7.773,0.384,76.238,3.47,-6.484,275.208,18.29,100220.205,44.268,125.611
四川,乐山市,38.05,64.973,9.453,22.006,0.614,95.416,0.109,-0.653,294.178,42.172,89133.792,29.218,103.569
四川,内江市,42.698,90.851,14.891,44.141,0.845,79.103,-3.384,-0.824,298.328,37.322,95977.796,29.62,104.95
四川,凉山彝族自治州,17.396,25.714,5.055,7.814,0.534,105.747,1.862,-0.294,284.902,41.795,74114.767,27.883,102.065
四川,南充市,44.394,95.388,11.221,32.24,0.751,83.433,-3.155,-0.741,296.512,41.734,96094.384,31.19,106.199
四川,宜宾市,47.494,88.413,14.942,28.231,0.735,89.057,-0.546,-0.981,298.036,39.971,94367.613,28.573,104.621
四川,巴中市,38.228,76.799,11.392,17.309,0.672,89.008,-0.719,-0.174,294.109,44.55,91993.705,32.033,107.031
四川,广元市,38.265,81.69,14.876,20.947,0.619,87.183,-0.279,1.747,293.13,47.902,91123.001,32.261,105.788
四川,广安市,39.559,83.85,12.529,31.609,0.719,80.434,-3.674,-0.097,298.055,33.414,96084.331,30.43,106.628
四川,德阳市,47.656,106.684,10.22,40.727,0.729,96.921,-1.127,0.015,294.452,41.22,92613.062,31.13,104.436
四川,成都市,42.276,87.195,9.942,38.157,0.735,104.541,-0.886,-0.741,295.173,38.295,92734.3,30.64,103.929
四川,攀枝花市,31.472,53.897,14.375,24.238,1.041,90.724,3.872,0.758,292.126,27.326,81317.541,26.791,101.734
四川,泸州市,47.348,80.067,12.863,23.439,0.699,80.084,-1.622,1.011,296.808,53.38,92815.109,28.424,105.675
四川,甘孜藏族自治州,3.603,4.179,0.368,1.839,0.155,123.566,2.148,-0.369,273.106,38.938,61320.242,30.936,100.009
四川,眉山市,39.882,81.213,10.471,31.186,0.738,90.513,-1.159,-0.817,295.935,39.41,93161.879,29.912,103.766
四川,绵阳市,41.694,80.947,9.711,25.32,0.538,95.33,-0.832,0.512,291.103,46.636,87583.889,31.86,104.704
四川,自贡市,53.667,102.365,16.439,46.309,0.894,80.631,-2.401,-0.887,298.545,36.787,95941.678,29.307,104.659
四川,资阳市,34.838,88.519,10.979,34.732,0.765,82.327,-3.579,-0.636,297.695,37.05,96246.782,30.102,105.149
四川,达州市,43.527,76.051,12.482,28.942,0.691,84.012,-2.451,-0.266,295.56,40.177,93535.772,31.335,107.636
四川,遂宁市,42.92,103.504,10.757,35.84,0.775,82.57,-3.205,-0.747,297.149,38.698,96502.667,30.642,105.457
四川,阿坝藏族羌族自治州,6.632,9.36,1.132,2.194,0.177,113.633,1.808,1.111,276.72,39.648,65571.39,32.406,102.61
四川,雅安市,22.343,31.913,4.287,7.404,0.327,114.763,0.618,-0.648,287.352,44.334,79867.925,29.932,102.689
天津,天津市,22.125,125.362,7.695,21.289,0.603,64.478,-7.701,-7.778,279.836,47.266,102393.0,39.315,117.308
宁夏,中卫市,43.122,253.597,9.498,11.557,0.271,60.848,-0.008,-4.782,283.685,41.034,83689.77,37.018,105.509
宁夏,吴忠市,39.282,137.513,8.685,9.391,0.247,50.335,-2.457,-4.029,284.227,40.558,85210.472,37.454,106.577
宁夏,固原市,57.556,304.699,9.298,20.421,0.34,62.164,-1.193,-6.067,283.575,41.861,81013.596,35.905,106.183
宁夏,石嘴山市,40.78,183.319,34.964,23.589,0.668,84.503,-1.228,-4.12,284.088,39.173,86923.614,39.013,106.499
宁夏,银川市,39.384,149.588,15.29,13.491,0.402,69.015,-3.068,-3.168,285.522,35.977,87182.96,38.287,106.342
安徽,亳州市,75.636,156.617,14.013,25.353,0.948,98.049,-2.09,-0.918,294.772,63.956,100982.255,33.44,116.162
安徽,六安市,47.91,76.273,9.678,13.781,0.734,99.609,-0.67,-0.069,296.469,57.441,98456.243,31.617,116.209
安徽,合肥市,52.198,80.279,9.569,25.665,0.868,89.306,-1.62,0.872,296.587,62.729,100768.382,31.766,117.359
安徽,安庆市,42.569,64.341,11.692,14.777,0.738,80.107,0.062,0.808,295.82,67.104,98883.441,30.557,116.473
安徽,宣城市,30.986,47.487,7.924,14.278,0.635,72.878,-1.08,2.199,295.874,65.545,98840.586,30.676,118.846
安徽,宿州市,93.041,146.387,16.678,31.613,0.947,98.021,-4.142,-0.438,293.22,69.038,100989.31,33.844,117.23
安徽,池州市,31.667,46.122,10.182,13.235,0.601,73.406,-0.744,1.961,296.412,65.29,99048.358,30.296,117.379
安徽,淮北市,86.008,147.032,19.508,34.21,0.979,95.402,-3.448,-0.124,294.138,66.567,101005.343,33.722,116.747
安徽,淮南市,64.011,104.633,11.326,24.317,0.882,102.7,-2.379,-0.15,295.566,64.279,100957.858,32.463,116.746
安徽,滁州市,73.224,114.121,11.609,31.379,0.837,101.05,-3.265,0.06,294.717,70.63,100728.111,32.55,118.076
安徽,芜湖市,36.712,58.456,10.923,27.962,0.82,76.646,-0.395,1.071,296.83,62.064,100937.193,31.167,118.162
安徽,蚌埠市,77.64,115.991,14.545,26.595,0.872,103.989,-3.547,-0.253,294.372,68.497,100999.158,33.121,117.263
安徽,铜陵市,38.536,60.92,13.041,33.36,0.854,70.258,0.085,1.486,296.874,63.226,100786.273,30.883,117.531
安徽,阜阳市,66.971,159.89,11.936,21.781,0.925,93.615,-1.597,-1.543,295.508,62.416,100920.02,32.937,115.723
安徽,马鞍山市,45.583,78.331,11.456,33.731,0.865,81.593,-1.722,1.091,296.311,64.655,100956.363,31.622,118.386
安徽,黄山市,29.029,43.581,9.874,10.215,0.633,66.135,-0.894,1.211,294.876,70.397,96923.107,29.869,118.09
山东,东营市,24.706,99.479,7.196,9.249,0.379,78.762,-9.159,-10.63,281.13,60.744,102065.368,37.57,118.572
山东,临沂市,72.18,178.682,15.697,34.956,0.893,68.874,-4.286,-2.875,288.377,69.744,99761.503,35.289,118.27
山东,威海市,27.538,70.971,8.942,17.745,0.505,67.192,-2.312,-6.351,281.692,78.278,101139.584,37.148,122.028
山东,德州市,30.388,136.15,9.382,14.719,0.46,75.21,-8.939,-7.873,283.378,47.053,101872.199,37.233,116.679
山东,日照市,69.829,168.094,13.8,37.146,0.784,56.744,-2.532,-3.557,286.983,73.589,99936.357,35.566,119.108
山东,枣庄市,85.406,187.974,20.7,31.349,0.906,88.244,-5.664,-0.909,291.136,66.523,100377.227,34.925,117.383
山东,泰安市,55.584,184.558,21.931,26.879,0.944,79.254,-5.376,-3.712,287.703,57.972,99713.319,35.993,117.04
山东,济南市,44.832,182.533,16.87,22.37,0.757,79.348,-7.499,-5.545,284.94,54.16,99872.343,36.639,117.254
山东,济宁市,65.153,195.567,22.907,28.88,1.009,85.904,-3.705,-2.493,290.631,59.106,100882.556,35.375,116.697
山东,淄博市,46.019,163.607,15.818,21.722,0.805,78.545,-6.002,-5.289,283.93,60.128,99296.581,36.623,118.062
山东,滨州市,25.648,112.381,8.306,11.504,0.418,78.265,-9.407,-8.997,281.761,54.451,102019.59,37.516,117.852
山东,潍坊市,53.654,158.055,11.087,22.131,0.677,71.138,-3.336,-5.563,285.237,63.407,100687.111,36.53,119.092
山东,烟台市,36.152,113.178,9.532,18.072,0.609,70.682,-4.82,-7.251,282.332,69.595,100704.742,37.25,120.789
山东,聊城市,43.106,180.977,13.906,19.912,0.673,72.419,-4.487,-6.957,286.084,44.049,101459.046,36.458,115.863
山东,菏泽市,56.593,234.617,16.115,25.968,1.019,77.776,-0.693,-5.788,289.914,53.186,101063.175,35.134,115.69
山东,青岛市,49.478,137.138,9.991,25.444,0.58,63.839,-3.964,-4.075,284.962,71.096,101165.961,36.46,120.172
山西,临汾市,65.687,241.453,39.771,38.465,1.345,73.845,-5.573,-1.64,287.74,35.426,89955.772,36.227,111.398
山西,吕梁市,58.173,217.825,19.462,32.099,1.06,55.049,-5.936,-1.925,284.41,37.52,87690.021,37.663,111.27
山西,大同市,25.1,78.272,6.328,10.524,0.522,58.052,-4.496,-1.541,275.194,66.296,87625.789,39.911,113.713
山西,太原市,60.576,255.316,17.075,35.44,0.938,61.257,-7.178,-1.771,279.65,46.375,87786.588,37.967,112.321
山西,忻州市,45.619,176.411,11.298,18.371,0.671,55.241,-5.255,1.2,278.834,51.518,86301.977,38.877,112.391
山西,晋中市,49.082,190.151,17.269,28.795,0.864,65.381,-6.783,-4.459,279.78,47.745,88663.23,37.328,112.997
山西,晋城市,58.12,217.547,25.618,34.83,1.272,78.415,-3.818,-2.434,286.764,43.69,90365.581,35.625,112.752
山西,朔州市,34.468,146.903,10.506,15.946,0.694,50.345,-4.462,-0.971,276.593,63.296,86862.941,39.619,112.655
山西,运城市,64.565,221.338,37.093,39.738,1.327,90.54,-5.767,1.746,291.369,36.697,93948.738,35.205,111.071
山西,长治市,49.996,184.622,17.976,24.82,0.914,72.689,-5.812,-2.038,282.002,46.841,88885.932,36.48,112.915
山西,阳泉市,47.224,189.18,14.794,29.235,0.843,70.836,-8.752,-3.094,277.253,52.394,90816.2,38.031,113.512
广东,东莞市,42.22,72.732,10.481,39.369,0.707,71.177,-0.41,4.604,296.101,77.743,101168.3,22.931,113.81
广东,中山市,31.494,48.658,6.404,16.254,0.489,80.831,-1.221,4.329,296.371,76.318,101164.69,22.5,113.383
广东,云浮市,48.042,64.147,5.057,14.407,0.625,84.614,0.376,4.845,297.352,63.118,99074.015,22.776,111.818
广东,佛山市,44.787,72.028,11.255,33.255,0.69,86.733,-0.42,4.67,297.901,66.975,101144.599,23.035,112.979
广东,广州市,51.569,86.931,13.948,49.094,0.802,81.094,-0.736,4.616,296.641,71.053,100280.862,23.339,113.525
广东,惠州市,41.376,60.525,7.431,19.826,0.494,94.031,-0.137,4.01,295.439,76.236,99353.205,23.244,114.485
广东,揭阳市,50.709,78.589,7.85,13.341,0.683,80.66,-0.228,3.458,295.642,75.338,99985.702,23.323,116.123
广东,梅州市,55.332,85.421,8.78,16.542,0.762,88.83,0.441,4.347,295.864,68.854,97910.85,24.169,116.07
广东,汕头市,38.571,60.404,10.288,15.016,0.523,79.191,-0.459,3.552,295.686,79.924,101117.516,23.339,116.614
广东,汕尾市,38.598,51.842,4.394,7.555,0.397,89.081,-0.257,3.135,295.022,80.235,99724.317,23.024,115.527
广东,江门市,32.301,43.08,3.474,9.154,0.374,89.272,-0.4,4.565,296.47,76.402,100584.52,22.289,112.676
广东,河源市,47.992,64.968,8.453,12.503,0.546,106.0,1.692,4.641,295.627,71.719,98089.81,24.021,114.969
广东,深圳市,35.462,58.494,8.747,35.219,0.566,61.468,-0.817,4.001,295.31,82.226,100712.227,22.667,114.143
广东,清远市,57.477,77.287,8.942,24.154,0.72,95.298,1.237,5.262,296.592,67.017,97534.595,24.295,112.871
广东,湛江市,32.498,44.899,5.957,9.39,0.585,81.101,-2.085,3.793,297.031,69.93,100972.016,21.091,110.163
广东,潮州市,47.548,85.408,14.019,21.595,0.774,73.634,-0.336,3.647,295.005,76.989,99437.631,23.755,116.754
广东,珠海市,23.18,29.528,2.495,5.078,0.253,92.897,-1.322,3.86,295.865,81.78,101264.61,22.095,113.317
广东,肇庆市,53.043,71.473,6.47,17.325,0.645,87.055,0.592,4.228,297.659,63.714,99168.201,23.505,112.199
广东,茂名市,42.29,55.492,7.467,11.468,0.693,86.161,-0.956,4.235,296.043,73.543,99197.771,22.013,110.952
广东,阳江市,36.184,45.033,3.484,7.605,0.419,85.753,-0.133,4.043,295.97,77.044,99736.966,22.042,111.786
广东,韶关市,63.937,83.33,15.799,23.474,0.98,122.293,2.394,5.02,296.152,68.27,96748.336,24.785,113.819
广西,北海市,33.869,46.631,6.044,8.221,0.695,86.091,0.901,3.561,297.391,74.968,100980.306,21.674,109.37
广西,南宁市,36.937,61.945,8.416,21.574,0.728,79.223,1.56,6.0,297.267,60.403,99035.764,23.051,108.469
广西,崇左市,38.26,54.657,6.269,10.183,0.599,81.018,2.872,5.377,296.624,63.878,97752.647,22.483,107.291
广西,来宾市,44.986,70.73,9.54,14.795,0.678,85.362,1.955,6.482,297.175,58.478,97870.07,23.859,109.417
广西,柳州市,45.796,69.392,10.379,13.886,0.631,81.589,1.252,6.979,296.89,60.182,97202.235,24.956,109.372
广西,桂林市,50.124,69.797,9.474,11.673,0.627,84.222,3.139,5.902,296.301,60.145,95624.685,25.353,110.513
广西,梧州市,63.661,89.893,10.848,21.575,0.933,83.809,2.049,5.151,297.854,58.858,98750.668,23.484,110.996
广西,河池市,45.66,74.671,7.198,10.173,0.665,73.74,0.969,7.084,296.042,64.963,94838.799,24.628,107.843
广西,玉林市,55.754,73.931,13.243,13.405,0.959,95.376,-0.373,5.317,297.129,65.768,99199.684,22.452,110.164
广西,百色市,50.481,72.121,9.902,7.69,0.91,91.34,2.428,5.505,296.324,61.575,92763.536,23.981,106.292
广西,贵港市,61.538,90.436,13.419,18.416,0.981,94.874,1.892,5.435,298.286,58.439,99562.163,23.322,110.021
广西,贺州市,63.775,87.628,9.118,14.267,0.84,83.571,2.352,5.09,297.017,59.714,96932.105,24.364,111.394
广西,钦州市,37.443,56.077,8.055,14.838,0.789,80.42,1.41,4.78,296.84,72.671,100234.361,22.173,109.01
广西,防城港市,26.761,36.839,4.929,7.998,0.477,76.62,1.766,5.053,295.576,71.164,98645.537,21.88,108.002
新疆,乌鲁木齐市,12.507,16.557,2.596,7.168,0.262,62.435,1.689,-2.118,274.075,36.733,84619.908,43.746,87.818
新疆,五家渠市,14.167,15.66,2.043,2.84,0.23,68.603,-2.363,-2.473,279.137,30.703,97302.91,44.363,87.517
新疆,伊犁哈萨克自治州,8.363,12.817,2.593,3.571,0.331,69.387,2.718,-0.537,273.722,53.347,80744.122,43.438,82.146
新疆,克孜勒苏柯尔克孜自治州,87.549,43.534,0.434,0.726,0.185,70.582,3.531,-0.723,274.809,66.924,70678.551,39.661,75.949
新疆,克拉玛依市,8.746,13.535,2.927,2.619,0.249,73.641,-0.478,-2.378,277.948,38.38,98272.156,45.457,85.207
新疆,北屯市,2.878,3.344,3.54,2.096,0.154,83.94,-0.192,-1.27,272.406,54.88,96366.082,47.27,87.868
新疆,博尔塔拉蒙古自治州,13.723,16.683,3.097,2.632,0.252,71.794,1.885,-0.231,273.149,47.349,86802.63,44.714,82.114
新疆,双河市,15.948,18.222,3.84,3.26,0.278,72.47,0.066,-3.714,278.882,46.666,98840.258,44.87,82.474
新疆,可克达拉市,22.866,36.228,7.392,12.752,0.79,58.272,2.064,-0.664,281.858,37.918,95444.754,43.918,80.786
新疆,和田地区,125.634,126.352,0.89,0.624,0.157,66.834,-0.046,-1.545,279.424,35.998,74125.003,37.059,80.934
新疆,哈密市,24.078,25.404,0.938,0.595,0.201,70.163,0.807,-1.508,278.439,23.78,88522.694,43.042,93.517
新疆,喀什地区,248.015,203.508,0.602,1.22,0.178,58.343,0.857,-0.433,280.188,42.901,76328.517,38.125,77.178
新疆,图木舒克市,292.667,304.13,0.99,1.04,0.16,41.135,-6.222,-2.29,287.435,32.65,89393.722,39.892,79.182
新疆,塔城地区,7.588,9.525,2.452,1.979,0.226,74.13,1.954,-1.66,273.312,48.353,90195.778,45.642,84.789
新疆,巴音郭楞蒙古自治州,55.885,62.684,0.727,0.52,0.144,68.278,-1.3,-1.575,279.199,33.765,79289.684,39.463,87.481
新疆,新星市,19.43,31.775,2.445,2.865,0.54,76.545,-2.57,0.45,282.97,17.81,92957.855,42.75,93.68
新疆,昆玉市,133.47,138.44,5.92,2.8,0.307,50.89,-1.007,-2.027,290.347,23.56,86925.483,37.457,79.093
新疆,昌吉回族自治州,10.862,14.559,1.726,2.47,0.192,71.283,0.793,-1.574,275.831,33.782,90414.595,44.342,88.608
新疆,石河子市,17.37,21.74,6.68,12.51,0.325,62.455,-0.95,-0.825,278.37,37.76,95396.925,44.245,86.035
新疆,胡杨河市,17.084,21.72,3.15,3.208,0.252,70.422,-1.448,-1.032,278.288,43.198,98758.734,44.852,84.772
新疆,铁门关市,30.9,117.85,4.753,7.423,0.23,80.143,0.587,-2.783,286.01,32.803,91861.14,41.773,85.66
新疆,阿克苏地区,163.827,176.92,1.328,1.341,0.183,56.838,-2.688,-1.448,281.975,45.038,85468.291,40.965,81.578
新疆,阿勒泰地区,2.504,2.732,1.714,0.907,0.147,80.987,0.061,-1.011,269.402,47.309,88977.033,46.902,88.421
新疆,阿拉尔市,223.139,242.572,1.381,2.137,0.214,49.473,-5.101,-1.626,285.927,36.858,90302.149,40.629,80.998
江苏,南京市,64.823,107.036,13.65,37.688,0.885,85.79,-2.714,0.844,295.699,67.843,101031.47,31.899,118.876
江苏,南通市,40.732,85.554,14.78,41.979,0.575,71.889,-3.901,5.133,292.464,85.626,101331.626,32.201,120.979
江苏,宿迁市,91.334,146.84,15.617,38.929,1.042,88.078,-4.844,-1.642,291.08,77.327,101289.094,33.765,118.495
江苏,常州市,56.193,101.509,14.187,44.638,1.007,86.853,-3.328,2.751,295.299,69.516,101106.145,31.613,119.666
江苏,徐州市,99.749,174.337,17.971,34.508,0.989,90.877,-4.811,-0.662,292.057,69.866,101052.515,34.363,117.513
江苏,扬州市,79.5,138.607,15.918,49.416,0.975,86.754,-3.507,0.324,293.497,78.013,101251.172,32.709,119.486
江苏,无锡市,53.43,106.848,15.518,50.206,1.006,83.609,-3.636,3.922,294.578,73.254,101044.364,31.546,120.066
江苏,泰州市,69.175,125.416,16.034,52.703,0.942,81.993,-3.93,1.782,293.17,80.59,101237.125,32.605,120.048
江苏,淮安市,82.317,138.854,14.812,41.366,0.983,86.576,-4.082,-1.207,292.05,78.213,101250.328,33.362,118.985
江苏,盐城市,62.092,106.944,13.876,34.583,0.692,70.754,-3.963,-0.535,289.774,87.711,101384.857,33.529,120.156
江苏,苏州市,41.832,95.641,13.609,45.419,0.755,75.103,-4.192,5.43,293.872,77.191,101252.899,31.374,120.661
江苏,连云港市,74.354,143.719,14.665,36.612,0.869,65.894,-4.75,-2.678,288.38,81.812,101304.236,34.519,119.133
江苏,镇江市,73.868,127.393,16.697,51.029,1.042,91.895,-3.335,1.859,295.037,71.811,101090.439,32.016,119.49
江西,上饶市,33.651,49.803,12.581,8.66,0.688,69.798,0.144,2.014,296.818,67.238,98924.908,28.778,117.47
江西,九江市,43.246,63.214,11.762,8.24,0.712,81.733,-0.177,1.465,296.563,66.386,98834.822,29.313,115.444
江西,南昌市,37.972,61.762,13.009,19.077,0.907,65.135,-0.209,0.866,297.476,68.893,100676.534,28.671,116.016
江西,吉安市,54.246,73.781,14.791,9.435,0.797,89.383,2.144,2.762,298.376,61.462,98503.279,26.954,114.831
江西,宜春市,53.206,76.904,18.835,10.457,0.955,80.852,1.076,0.786,297.259,67.575,98803.119,28.29,114.974
江西,抚州市,44.589,58.13,15.068,7.075,0.601,80.671,1.609,3.591,297.242,69.075,98534.967,27.514,116.42
江西,新余市,58.36,90.393,26.261,17.02,1.168,72.531,1.361,0.625,298.231,65.555,99705.913,27.847,114.836
江西,景德镇市,31.595,47.821,11.689,8.571,0.627,66.773,-0.425,1.204,297.191,64.919,99720.965,29.287,117.24
江西,萍乡市,55.068,79.281,16.682,12.837,0.937,77.486,2.221,2.831,297.796,61.542,97503.717,27.505,113.908
江西,赣州市,60.967,79.838,18.45,12.296,1.075,120.238,2.89,5.164,296.739,66.705,97012.079,25.692,115.279
江西,鹰潭市,37.325,50.991,15.681,9.595,0.593,72.709,1.099,3.583,297.523,67.972,99433.816,28.222,117.094
河北,保定市,31.83,111.698,8.296,16.259,0.478,69.291,-7.592,-6.486,279.665,51.155,98544.869,39.018,115.159
河北,唐山市,21.881,91.775,6.903,17.035,0.527,66.512,-7.165,-8.698,278.841,43.605,101872.566,39.731,118.354
河北,廊坊市,24.543,126.046,7.05,18.575,0.52,66.115,-6.855,-7.482,280.259,49.033,102464.766,39.267,116.632
河北,张家口市,9.733,28.881,2.741,5.35,0.282,68.228,-3.895,-3.034,271.807,73.54,88226.192,40.877,115.042
河北,承德市,7.3,18.491,2.49,4.032,0.213,73.884,-4.45,-6.458,271.523,45.621,91721.925,41.339,117.578
河北,沧州市,25.077,110.33,7.424,16.548,0.459,67.008,-10.104,-8.147,280.733,47.309,102277.394,38.258,116.744
河北,石家庄市,42.052,167.047,12.884,24.548,0.706,70.803,-7.027,-6.449,281.782,43.247,99005.183,38.135,114.407
河北,秦皇岛市,18.266,42.722,3.068,6.538,0.256,71.759,-6.798,-10.605,277.178,36.272,99514.008,40.12,119.193
河北,衡水市,30.299,126.6,9.808,19.242,0.519,65.895,-8.514,-7.332,282.774,41.323,102025.06,37.755,115.813
河北,邢台市,37.463,159.18,12.436,21.699,0.697,66.523,-3.713,-8.519,283.726,39.496,100438.979,37.195,114.815
河北,邯郸市,39.856,176.209,13.25,20.623,0.738,68.967,-2.556,-9.844,284.097,41.369,99822.63,36.538,114.596
河南,三门峡市,51.759,172.175,17.993,23.907,0.821,93.254,-4.331,2.869,290.567,42.964,91583.808,34.362,111.101
河南,信阳市,59.617,122.201,13.958,14.881,0.806,97.092,-0.537,-0.179,296.472,56.92,99928.749,32.091,114.907
河南,南阳市,53.69,160.321,12.528,23.709,0.829,83.43,-3.577,-2.429,292.295,49.257,97933.307,33.034,112.323
河南,周口市,62.22,252.872,13.436,24.996,0.962,79.487,-1.329,-5.038,291.741,54.414,100843.703,33.738,114.884
河南,商丘市,70.905,221.927,14.508,27.08,0.994,86.057,-1.014,-3.586,292.266,58.089,100943.088,34.277,115.718
河南,安阳市,43.652,204.762,14.522,23.571,0.842,70.198,-1.321,-10.368,284.578,43.449,99339.155,35.888,114.318
河南,平顶山市,55.734,236.005,12.806,31.159,0.84,68.834,-3.659,-3.673,289.859,47.514,98732.841,33.8,113.025
河南,开封市,54.824,266.116,12.389,24.632,0.891,68.811,-2.104,-8.945,287.571,49.034,100772.172,34.594,114.514
河南,新乡市,49.025,235.806,15.138,26.969,0.908,67.231,-3.73,-12.147,286.136,44.109,99945.512,35.256,114.111
河南,洛阳市,53.892,209.99,18.864,27.44,0.872,81.022,-4.065,0.348,289.605,43.641,94074.222,34.274,112.019
河南,济源市,61.7,251.606,25.993,43.277,1.275,71.34,-5.793,0.615,289.524,40.231,95947.894,35.105,112.445
河南,漯河市,60.458,260.085,12.285,29.22,0.882,70.483,-2.388,-6.046,290.253,51.501,100729.592,33.652,113.945
河南,濮阳市,45.889,220.2,13.868,20.924,0.805,69.033,-1.223,-8.741,286.338,45.711,101259.997,35.809,115.283
河南,焦作市,55.731,262.326,21.481,39.544,1.184,63.383,-8.788,-4.041,290.092,37.781,99553.398,35.121,113.163
河南,许昌市,61.641,283.784,12.749,35.199,0.918,65.284,-3.451,-7.304,288.479,49.125,100120.766,34.075,113.707
河南,郑州市,58.226,286.508,15.594,34.051,0.949,66.893,-6.488,-6.015,287.481,44.795,98882.083,34.634,113.438
河南,驻马店市,63.485,215.532,14.374,22.121,0.924,82.98,-1.035,-3.207,293.514,54.325,100299.922,32.925,114.174
河南,鹤壁市,43.308,211.078,15.021,25.766,0.854,68.491,-0.684,-11.49,285.056,42.648,100501.484,35.716,114.319
浙江,丽水市,33.976,50.238,9.473,10.754,0.529,74.031,-0.932,4.958,292.454,77.19,94416.104,28.194,119.51
浙江,台州市,25.236,47.568,6.716,17.624,0.356,61.473,-1.89,6.732,292.087,87.565,98754.396,28.742,121.109
浙江,嘉兴市,35.033,68.543,9.036,33.863,0.617,70.983,-3.54,4.636,294.72,71.065,101270.551,30.635,120.754
浙江,宁波市,21.398,38.786,5.901,13.981,0.33,71.628,-2.905,7.68,292.764,85.08,100192.104,29.706,121.49
浙江,杭州市,32.945,52.644,8.922,18.964,0.665,71.056,-1.098,3.076,294.809,70.699,98347.097,29.891,119.464
浙江,温州市,34.526,69.382,7.895,24.372,0.477,58.444,-1.679,3.944,291.557,87.429,97571.911,27.897,120.411
浙江,湖州市,40.841,74.564,10.541,35.056,0.839,73.293,-2.053,3.996,295.791,66.582,99928.529,30.757,119.871
浙江,绍兴市,30.125,47.236,6.709,17.684,0.495,71.346,-1.884,6.741,294.755,68.199,99231.43,29.709,120.64
浙江,舟山市,3.818,9.805,1.155,2.442,0.148,81.772,-4.093,8.515,290.828,97.265,101288.8,30.038,122.23
浙江,衢州市,32.109,46.776,11.007,10.596,0.759,72.127,0.326,2.71,295.684,68.56,97583.071,28.912,118.675
浙江,金华市,30.281,45.18,7.04,14.728,0.527,69.49,-2.094,6.238,294.246,70.192,97898.04,29.109,119.967
海南,万宁市,21.499,26.814,1.776,2.702,0.23,88.577,-2.474,0.701,295.32,83.439,99997.276,18.842,110.294
海南,三亚市,24.589,32.639,2.833,8.543,0.469,70.661,-4.059,0.587,295.251,77.821,98743.131,18.413,109.407
海南,东方市,24.453,29.397,2.197,3.593,0.233,80.145,-0.413,1.644,296.595,70.292,99341.816,18.971,108.838
海南,临高县,26.284,36.314,2.987,4.963,0.364,67.424,-2.334,1.746,297.19,66.86,100519.104,19.821,109.733
海南,乐东黎族自治县,25.459,31.052,1.941,4.625,0.295,76.603,-2.357,1.497,295.27,75.266,97840.274,18.659,109.072
海南,五指山市,26.968,32.704,1.846,5.074,0.282,77.206,-3.026,1.91,293.69,74.232,94637.324,18.81,109.518
海南,儋州市,28.162,36.139,2.699,3.99,0.299,78.785,-0.511,0.159,296.844,70.451,100172.138,19.568,109.399
海南,定安县,24.242,33.473,2.45,5.3,0.39,66.57,-2.412,2.672,295.958,77.3,100252.467,19.47,110.28
海南,屯昌县,24.19,31.492,2.006,3.9,0.322,70.38,-2.524,3.192,295.912,74.974,99458.758,19.342,110.076
海南,文昌市,21.067,26.84,1.759,2.633,0.269,77.69,-3.052,2.066,295.844,81.906,101051.774,19.707,110.773
海南,昌江黎族自治县,27.613,33.317,3.049,4.358,0.257,83.189,0.181,-0.109,295.918,71.081,98331.539,19.233,109.016
海南,海口市,24.811,35.868,3.241,7.206,0.435,62.19,-2.83,2.227,296.262,76.269,100827.809,19.842,110.393
海南,澄迈县,24.974,34.979,3.004,5.711,0.403,63.227,-2.647,2.967,296.86,69.19,100355.357,19.676,109.989
海南,琼中黎族苗族自治县,25.51,31.607,1.8,3.897,0.272,75.911,-2.318,2.697,295.048,72.707,97271.784,19.087,109.847
海南,琼海市,22.712,29.375,2.023,3.715,0.282,77.847,-2.168,1.32,295.665,81.257,100826.487,19.22,110.43
海南,白沙黎族自治县,27.039,32.876,2.224,3.82,0.269,80.434,-0.929,1.099,295.968,65.325,96967.254,19.2,109.388
海南,陵水黎族自治县,24.527,30.347,1.446,4.711,0.31,79.867,-2.441,-0.389,295.116,81.194,99316.384,18.581,109.913
湖北,仙桃市,51.539,88.652,11.64,22.158,0.975,77.905,-0.795,2.301,298.707,57.484,100778.046,30.284,113.417
湖北,十堰市,34.839,64.451,10.538,9.943,0.53,93.498,-1.446,0.735,293.519,44.443,93042.863,32.462,110.476
湖北,咸宁市,45.805,68.066,10.13,9.87,0.826,90.643,-0.261,2.152,297.897,58.311,98986.829,29.621,114.178
湖北,天门市,55.414,98.983,14.452,28.421,1.1,75.901,-1.395,1.898,298.267,56.867,100729.936,30.633,113.053
湖北,孝感市,58.51,101.978,13.944,23.724,1.016,81.998,-2.136,0.808,296.967,59.985,100209.742,31.116,113.869
湖北,宜昌市,34.255,62.333,10.918,16.395,0.695,83.317,0.107,-0.003,295.369,43.173,93823.225,30.746,111.129
湖北,恩施土家族苗族自治州,34.823,54.935,12.429,11.322,0.56,76.201,0.046,1.452,293.044,42.606,89389.047,30.195,109.552
湖北,武汉市,52.248,92.785,12.771,32.667,1.107,77.164,-1.771,1.054,297.547,60.825,100722.678,30.606,114.349
湖北,潜江市,55.233,93.187,14.034,28.297,1.058,76.416,-0.798,2.746,298.742,55.262,100712.294,30.33,112.77
湖北,神农架林区,32.1,47.152,8.95,4.708,0.41,91.703,-0.025,2.062,288.588,50.374,82967.429,31.592,110.49
湖北,荆州市,50.767,84.034,13.222,22.949,0.987,77.733,-0.556,2.292,298.916,51.145,100471.043,30.01,112.512
湖北,荆门市,54.402,98.942,16.86,27.512,1.06,82.42,-1.669,1.023,297.373,53.283,99747.201,31.059,112.616
湖北,襄阳市,44.445,96.162,12.911,14.938,0.734,91.092,-1.426,-0.44,294.761,46.112,97132.048,31.919,111.96
湖北,鄂州市,49.126,79.153,14.479,28.98,1.22,78.304,-0.899,1.027,297.907,60.559,100769.537,30.337,114.794
湖北,随州市,62.389,111.935,14.85,17.163,0.948,93.212,-2.581,0.258,295.441,56.028,99136.572,31.809,113.43
湖北,黄冈市,46.827,73.966,13.045,12.782,0.886,82.234,-1.931,0.875,296.612,63.348,99108.928,30.702,115.358
湖北,黄石市,47.231,69.759,12.694,17.425,1.016,85.479,-0.291,1.58,297.38,61.866,99821.437,29.925,115.034
湖南,娄底市,48.549,76.495,13.516,17.245,0.982,74.247,1.939,1.871,297.971,56.168,96843.13,27.715,111.632
湖南,岳阳市,53.048,78.502,12.436,14.697,0.813,83.373,-0.828,2.667,298.305,59.845,99651.291,29.081,113.275
湖南,常德市,38.667,62.747,12.438,10.665,0.739,82.148,0.916,1.632,298.433,49.487,98806.538,29.271,111.524
湖南,张家界市,32.457,56.514,11.984,7.426,0.664,81.258,1.1,1.027,296.313,46.962,94982.869,29.379,110.526
湖南,怀化市,45.224,74.422,10.218,10.584,0.73,83.809,1.401,4.761,296.783,63.057,95939.702,27.535,110.071
湖南,株洲市,53.411,77.078,13.344,14.551,0.888,79.904,2.485,4.091,298.074,59.966,97632.591,27.109,113.513
湖南,永州市,51.692,71.119,8.928,10.221,0.688,88.934,3.942,5.834,297.397,56.996,96313.908,25.748,111.723
湖南,湘潭市,49.49,80.556,14.968,21.829,0.983,74.324,1.152,2.026,299.24,56.755,99758.386,27.744,112.619
湖南,湘西土家族苗族自治州,39.832,73.052,10.998,13.721,0.663,64.722,-0.674,2.084,295.893,59.037,94912.302,28.708,109.718
湖南,益阳市,45.451,71.385,11.732,13.474,0.848,80.555,0.832,1.91,297.979,58.857,98360.853,28.525,111.919
湖南,衡阳市,55.45,83.819,12.133,20.836,0.952,75.699,3.292,4.391,299.746,53.388,99339.643,26.781,112.565
湖南,邵阳市,49.472,70.619,11.087,10.952,0.682,88.355,3.181,4.344,296.855,58.474,94696.933,26.893,110.881
湖南,郴州市,53.513,74.168,11.564,16.318,1.167,92.628,3.138,5.052,296.652,62.464,95552.477,25.769,113.109
湖南,长沙市,52.85,80.63,15.173,21.641,0.913,77.238,-0.568,1.75,298.207,61.764,99199.614,28.235,113.159
甘肃,临夏回族自治州,47.998,222.132,7.217,14.775,0.4,67.703,-2.374,-1.441,281.531,42.556,77583.378,35.617,103.291
甘肃,兰州市,48.284,205.282,4.932,10.173,0.314,61.229,-3.711,-3.14,281.777,41.533,79227.226,36.359,103.633
甘肃,嘉峪关市,12.472,89.035,12.24,17.042,0.452,95.397,-3.508,0.83,277.72,26.477,81828.748,39.798,98.145
甘肃,天水市,36.359,117.652,7.932,20.55,0.362,75.58,-0.638,-1.531,287.437,44.569,82584.322,34.645,105.739
甘肃,定西市,30.947,154.886,4.685,11.891,0.227,67.286,-1.905,-3.81,282.287,41.492,77325.124,35.124,104.432
甘肃,平凉市,47.022,220.05,7.974,22.443,0.331,61.392,0.073,-5.326,287.694,36.694,84425.692,35.304,106.644
甘肃,庆阳市,47.429,194.604,9.027,12.08,0.323,58.643,-1.429,-5.775,287.1,38.212,85709.873,36.149,107.596
甘肃,张掖市,33.36,55.658,1.507,2.384,0.172,69.501,0.251,-0.808,276.339,35.002,74788.927,38.94,99.855
甘肃,武威市,56.115,85.541,1.736,2.275,0.188,56.55,0.193,-2.285,281.158,36.989,81593.816,38.163,103.073
甘肃,甘南藏族自治州,9.429,37.156,1.118,2.624,0.17,92.59,0.246,0.725,278.46,37.902,67738.874,34.331,102.768
甘肃,白银市,44.172,208.666,5.394,8.534,0.231,59.376,-0.641,-6.215,282.652,42.15,81616.762,36.59,104.646
甘肃,酒泉市,17.146,20.811,0.936,1.037,0.153,68.927,-0.644,-0.534,278.075,32.746,79239.272,40.236,96.062
甘肃,金昌市,59.632,103.507,3.234,3.27,0.201,72.253,-0.224,-2.216,279.994,32.734,80805.657,38.44,102.048
甘肃,陇南市,27.307,53.528,9.61,12.744,0.351,88.549,-0.252,-0.158,288.046,43.475,82085.91,33.599,105.224
福建,三明市,48.301,62.98,12.727,11.463,1.035,80.866,2.271,4.297,294.697,72.932,95038.02,26.29,117.395
福建,南平市,40.505,54.143,12.372,7.846,0.634,82.192,0.157,3.352,294.61,74.476,95758.715,27.324,118.143
福建,厦门市,40.44,69.675,9.363,24.635,0.535,67.308,0.07,3.458,294.22,85.392,100333.392,24.642,118.11
福建,宁德市,37.82,59.405,7.838,9.138,0.426,88.384,-0.999,2.799,291.663,83.789,95216.826,26.968,119.474
福建,泉州市,45.808,72.116,9.019,17.789,0.621,74.24,0.719,3.872,293.037,81.42,96568.341,25.201,118.249
福建,漳州市,40.759,64.084,6.705,14.114,0.473,81.056,0.616,3.511,294.247,78.509,98165.585,24.372,117.444
福建,福州市,45.686,77.31,8.641,18.37,0.556,82.248,-0.31,3.044,293.009,80.909,97304.451,26.083,119.206
福建,莆田市,54.451,75.621,8.068,16.306,0.547,79.852,1.062,3.408,293.028,81.618,98093.932,25.445,118.864
福建,龙岩市,53.023,77.155,12.07,15.427,0.76,92.2,1.27,4.569,294.293,73.702,95091.139,25.256,116.739
西藏,山南市,9.674,11.466,0.808,1.192,0.165,126.632,-0.145,0.392,276.548,52.35,66346.868,28.295,92.274
西藏,拉萨市,4.352,8.701,0.232,2.216,0.17,143.343,-0.783,1.152,269.672,35.34,56845.33,30.043,91.093
西藏,日喀则市,4.721,6.133,0.363,0.785,0.144,144.005,2.188,0.879,269.099,48.379,55544.364,29.483,86.493
西藏,昌都市,3.524,4.294,0.172,1.008,0.147,127.148,2.554,0.294,270.735,40.087,59321.536,30.753,97.044
西藏,林芝市,6.066,7.367,0.467,1.079,0.149,121.904,-0.036,-0.949,275.777,44.055,66614.37,29.184,95.25
西藏,玉树藏族自治州,4.258,4.335,0.077,0.412,0.134,103.358,1.888,0.246,270.737,34.104,57514.38,34.196,94.317
西藏,那曲市,1.575,1.649,0.078,0.272,0.136,129.622,2.337,2.014,269.799,33.349,55658.52,32.709,89.262
西藏,阿里地区,0.91,1.046,0.105,0.583,0.129,97.734,3.849,-2.795,268.794,39.187,55076.94,33.013,82.553
贵州,六盘水市,41.533,64.939,10.461,16.314,0.688,80.155,4.843,1.834,292.886,36.913,82961.13,26.106,104.896
贵州,安顺市,34.852,49.693,7.097,9.886,0.479,95.552,1.407,6.239,294.454,54.557,87926.688,25.986,105.978
贵州,毕节市,39.975,63.53,7.799,15.846,0.672,80.729,2.03,1.537,291.732,52.637,83284.75,27.063,105.211
贵州,贵阳市,35.216,56.928,6.294,29.845,0.597,85.57,1.708,6.632,293.656,62.646,87951.335,26.845,106.71
贵州,遵义市,44.307,68.885,10.334,16.916,0.566,84.599,-2.642,2.543,293.8,66.864,90092.885,28.167,107.102
贵州,铜仁市,38.108,72.061,9.982,12.744,0.584,74.546,-0.782,3.166,294.871,68.143,92453.179,27.937,108.534
贵州,黔东南苗族侗族自治州,40.375,57.719,7.005,5.724,0.461,88.545,1.39,6.852,294.831,68.811,92401.83,26.495,108.574
贵州,黔南布依族苗族自治州,37.75,53.608,5.588,6.896,0.434,93.784,1.034,6.818,294.228,67.829,90146.71,26.0,107.265
贵州,黔西南布依族苗族自治州,37.388,56.356,7.728,6.588,0.599,95.63,3.855,5.276,296.089,44.424,88322.793,25.256,105.467
辽宁,丹东市,13.049,28.726,5.478,6.964,0.291,72.875,-2.625,-9.573,278.444,43.961,99125.552,40.554,124.376
辽宁,大连市,23.071,79.637,7.926,13.235,0.395,68.78,-3.304,-11.662,279.933,43.403,101393.264,39.591,122.22
辽宁,抚顺市,14.404,43.353,5.263,7.808,0.331,76.858,-1.969,-7.669,275.429,30.455,97625.043,41.841,124.65
辽宁,朝阳市,8.788,24.361,2.668,3.972,0.287,73.705,-2.171,-9.96,274.835,26.512,97408.256,41.545,120.053
辽宁,本溪市,13.037,40.344,5.602,8.178,0.324,75.899,-2.031,-8.879,275.594,39.01,96847.046,41.232,124.544
辽宁,沈阳市,10.073,49.208,5.194,7.397,0.353,75.774,-1.336,-9.026,278.26,19.2,102036.051,42.081,123.159
辽宁,盘锦市,9.597,63.248,5.478,8.055,0.4,76.868,-3.337,-10.966,279.203,20.789,102635.746,41.13,122.01
辽宁,营口市,21.406,85.603,9.446,13.444,0.494,72.571,-3.35,-11.822,278.038,34.445,100134.614,40.395,122.478
辽宁,葫芦岛市,10.746,44.371,4.303,6.473,0.305,75.236,-3.741,-11.16,277.522,25.044,100081.616,40.66,120.215
辽宁,辽阳市,15.931,75.404,8.858,13.687,0.505,74.438,-2.383,-9.923,277.776,29.593,100466.206,41.153,123.261
辽宁,铁岭市,15.703,44.123,4.383,7.46,0.361,75.914,-0.243,-7.406,276.66,20.013,100433.952,42.653,124.158
辽宁,锦州市,7.448,44.6,4.416,6.368,0.302,76.742,-2.22,-10.018,278.533,19.077,101882.675,41.502,121.659
辽宁,阜新市,5.717,18.87,3.11,3.654,0.217,73.921,-0.41,-9.224,276.941,17.388,100442.337,42.289,121.968
辽宁,鞍山市,15.847,64.722,7.885,11.257,0.456,72.918,-2.288,-10.86,278.323,32.586,100444.643,40.731,123.007
重庆,重庆城区,36.464,67.724,14.054,27.387,0.641,81.738,-3.211,1.065,297.148,42.261,94470.228,29.824,107.125
重庆,重庆郊县,35.618,55.368,12.834,10.865,0.473,84.067,-1.11,1.311,294.165,44.735,90847.773,30.334,108.755
陕西,咸阳市,64.83,190.023,12.696,37.241,0.801,85.056,-0.493,-1.383,293.438,35.592,91097.594,34.779,108.367
陕西,商洛市,35.005,74.327,9.898,11.057,0.511,91.338,-0.202,2.697,291.973,44.97,89111.866,33.64,109.889
陕西,安康市,33.372,63.129,11.254,7.726,0.462,91.744,0.951,0.783,292.671,44.46,89623.66,32.735,108.932
陕西,宝鸡市,49.032,157.04,9.474,23.858,0.512,72.409,0.851,-1.724,290.647,39.83,86164.869,34.386,107.193
陕西,延安市,53.016,227.088,18.281,30.698,0.891,62.883,-2.317,-2.809,288.257,37.193,87432.783,36.432,109.316
陕西,榆林市,51.862,252.159,15.963,24.168,0.841,53.219,-2.765,-5.726,284.352,45.072,87950.597,38.041,109.581
陕西,汉中市,39.275,80.378,14.564,13.08,0.638,91.429,1.563,0.844,292.304,45.695,88688.101,33.088,107.098
陕西,渭南市,63.083,190.429,32.613,47.69,1.048,87.156,-3.939,-0.592,293.759,33.915,93439.278,34.919,109.855
陕西,西安市,56.845,148.98,13.247,39.322,0.86,90.297,0.076,-0.164,293.236,38.175,90194.279,34.12,108.77
陕西,铜川市,57.384,156.299,18.681,34.581,0.848,91.158,-1.926,0.254,291.496,37.675,88916.143,35.198,109.058
青海,保亭黎族苗族自治县,26.39,33.478,2.288,7.796,0.404,71.796,-2.862,0.18,294.088,81.114,97159.438,18.566,109.618
青海,吐鲁番市,50.425,80.564,1.591,1.934,0.174,65.008,-1.066,-2.531,280.565,24.828,90565.095,42.386,89.851
青海,果洛藏族自治州,5.402,5.431,0.103,0.857,0.138,101.363,2.81,-0.032,272.547,36.094,60186.346,34.127,99.404
青海,海东市,33.77,79.388,6.614,7.794,0.329,58.346,-4.635,2.333,278.466,46.158,72874.2,36.347,102.34
青海,海北藏族自治州,14.312,22.312,2.109,2.333,0.168,71.037,1.529,0.869,274.767,41.194,65418.159,37.775,100.288
青海,海南藏族自治州,15.922,17.981,1.115,1.354,0.153,82.787,1.72,0.083,278.392,27.97,66572.523,35.89,100.272
青海,海西蒙古族藏族自治州,18.817,19.001,0.271,0.321,0.135,81.705,4.05,-1.165,276.108,25.744,64655.028,36.677,94.519
青海,西宁市,35.242,135.975,7.221,11.112,0.566,66.79,-2.404,3.061,277.079,45.661,69660.866,36.842,101.423
青海,黄南藏族自治州,8.716,14.169,1.127,1.398,0.158,90.596,0.729,0.087,277.626,32.467,65930.307,35.022,101.631
香港,香港特别行政区,26.185,34.775,3.385,25.01,0.29,64.31,-1.285,3.45,295.135,85.5,100908.565,22.45,114.22
黑龙江,七台河市,8.804,31.818,1.89,3.779,0.214,83.328,9.422,-4.238,272.936,24.077,98658.063,45.87,130.943
黑龙江,伊春市,1.329,1.952,0.588,0.775,0.183,90.266,9.509,-4.992,269.392,30.256,97159.426,47.772,129.184
黑龙江,佳木斯市,3.81,9.483,0.997,1.98,0.202,86.466,10.7,-3.281,272.484,26.6,100474.766,47.207,132.11
黑龙江,双鸭山市,4.415,8.959,1.636,3.043,0.197,84.385,10.107,-3.764,272.834,25.978,100043.632,46.722,132.643
黑龙江,哈尔滨市,11.039,16.69,2.241,4.768,0.32,81.342,6.916,-5.017,273.28,23.085,99335.585,45.634,127.964
黑龙江,大兴安岭地区,0.425,0.577,0.575,0.412,0.176,84.967,8.333,-7.895,262.845,39.593,95576.726,52.286,124.212
黑龙江,大庆市,9.501,14.311,3.016,4.64,0.264,77.748,5.924,-6.648,274.038,18.73,100995.934,46.327,124.687
黑龙江,牡丹江市,7.974,15.772,1.626,3.087,0.215,84.868,7.395,-4.621,272.245,27.713,95915.98,44.592,129.883
黑龙江,绥化市,8.598,12.232,1.729,3.126,0.262,80.93,7.151,-5.87,272.608,22.313,99936.649,46.89,126.634
黑龙江,鸡西市,6.025,13.958,1.699,3.235,0.198,81.622,8.733,-4.429,274.332,24.064,99867.366,45.626,132.289
黑龙江,鹤岗市,2.438,5.506,0.902,1.64,0.208,89.296,9.946,-4.837,271.21,26.811,99544.658,47.661,130.778
黑龙江,黑河市,1.138,1.881,0.546,0.606,0.188,89.009,8.431,-6.377,268.366,30.845,97721.058,49.268,127.004
黑龙江,齐齐哈尔市,4.892,7.521,1.421,1.76,0.223,82.172,6.766,-6.593,272.34,21.016,100086.297,47.715,124.57
