province,city,PM2.5,PM10,SO2,NO2,CO,O3,U,V,TEMP,RH,PSFC,lat,lon
上海,上海市,31.52,59.253,10.382,39.487,0.516,101.852,-3.598,4.419,289.775,70.491,101808.038,31.173,121.42
云南,临沧市,35.793,44.726,6.196,8.019,0.58,74.882,3.063,2.448,290.483,69.839,83751.494,23.935,99.686
云南,丽江市,22.921,33.352,4.929,3.518,0.664,96.071,5.622,2.548,284.563,68.967,74366.886,26.96,100.515
云南,保山市,41.589,47.325,6.658,9.906,0.758,61.12,4.119,2.093,289.055,68.979,81699.478,24.953,98.962
云南,大理白族自治州,28.669,38.754,5.176,4.805,0.588,84.449,5.603,3.301,286.711,69.841,77904.658,25.726,100.053
云南,德宏傣族景颇族自治州,48.629,50.029,8.48,11.573,0.733,55.931,2.325,1.316,292.182,63.289,85861.804,24.535,98.052
云南,怒江傈僳族自治州,27.68,34.116,3.765,1.66,0.452,79.306,4.083,2.159,281.258,86.683,72591.616,26.916,98.885
云南,文山壮族苗族自治州,40.751,58.233,9.089,4.352,0.647,91.313,2.449,5.894,290.712,77.533,86386.913,23.696,104.735
云南,昆明市,27.448,42.452,9.9,14.2,0.714,89.394,5.657,5.836,287.408,74.866,79041.302,25.384,102.863
云南,昭通市,29.443,46.519,9.118,7.039,0.475,101.24,3.695,4.911,292.427,52.998,83527.083,27.667,103.985
云南,普洱市,27.007,44.751,6.261,6.484,0.524,81.038,1.426,3.008,291.703,75.289,85820.078,23.159,100.718
云南,曲靖市,27.655,45.158,10.272,9.468,0.56,92.986,5.083,5.855,287.968,73.087,79789.802,25.737,103.929
云南,楚雄彝族自治州,24.742,36.014,5.657,3.921,0.579,95.879,5.155,5.408,289.117,68.269,80757.667,25.328,101.567
云南,玉溪市,22.697,46.391,7.444,6.184,0.618,96.233,2.714,5.221,289.807,77.452,83327.376,24.136,102.217
云南,红河哈尼族彝族自治州,26.323,50.82,8.667,4.923,0.586,98.065,0.578,4.639,289.794,83.664,85045.167,23.451,103.034
云南,西双版纳傣族自治州,25.735,52.577,6.883,15.366,0.732,68.404,0.944,3.586,294.271,71.727,88786.937,21.939,100.912
云南,迪庆藏族自治州,16.958,26.28,4.554,1.312,0.383,101.382,4.803,2.043,277.468,85.667,67045.33,27.957,99.459
内蒙古,乌兰察布市,57.373,100.379,12.353,10.481,0.438,92.92,-2.234,7.45,289.957,30.793,85482.582,41.691,112.44
内蒙古,乌海市,44.586,139.845,24.409,14.164,0.62,140.914,-1.996,10.822,294.524,38.332,86581.76,39.396,106.856
内蒙古,兴安盟,8.576,11.625,2.403,2.055,0.181,63.312,2.115,0.252,284.855,45.483,94511.365,46.244,121.341
内蒙古,包头市,50.213,99.701,13.852,11.769,0.384,97.357,-1.209,8.38,291.232,33.373,85240.287,41.549,110.276
内蒙古,呼伦贝尔市,6.719,8.829,2.068,2.491,0.175,66.063,2.84,1.02,281.115,49.503,93083.348,49.636,121.171
内蒙古,呼和浩特市,42.053,132.751,14.741,21.142,0.622,102.903,-1.465,7.247,291.784,31.778,85792.452,40.578,111.513
内蒙古,巴彦淖尔市,39.659,90.764,13.522,8.72,0.328,97.278,-3.15,4.276,292.805,32.954,86332.994,41.446,107.582
内蒙古,赤峰市,14.383,29.952,3.882,4.273,0.244,66.802,-0.049,0.767,286.923,32.785,91800.149,43.226,118.892
内蒙古,通辽市,14.78,24.718,4.465,4.173,0.226,69.143,1.671,-1.53,287.701,42.961,97659.996,43.814,121.591
内蒙古,鄂尔多斯市,45.15,106.129,14.122,7.004,0.424,116.797,-0.394,10.827,293.204,38.825,86186.5,39.407,108.63
内蒙古,锡林郭勒盟,37.504,46.007,5.51,2.778,0.196,70.933,-2.269,5.511,286.481,37.568,88667.141,44.179,115.482
内蒙古,阿拉善盟,42.089,56.116,5.585,2.175,0.205,74.921,0.576,-1.73,291.72,28.475,86454.256,40.473,102.467
北京,北京市,90.481,148.144,10.531,33.213,0.796,119.554,-4.21,-0.519,293.543,37.242,97474.495,40.158,116.395
台湾,台湾省,20.434,23.776,5.448,14.819,0.194,88.319,-1.193,-1.032,291.08,74.024,93190.782,23.757,120.975
吉林,吉林市,45.545,74.522,10.215,11.499,0.671,124.469,4.49,0.002,286.665,56.514,96792.807,43.573,126.859
吉林,四平市,35.31,63.542,6.201,11.783,0.465,92.365,3.153,-0.807,288.488,49.823,99096.63,43.472,124.386
吉林,延边朝鲜族自治州,37.604,55.02,11.511,7.788,0.455,117.943,6.363,-0.137,284.019,62.91,93815.392,43.141,129.147
吉林,松原市,25.285,37.097,4.485,8.024,0.336,82.695,2.681,-2.085,288.104,51.231,99408.82,44.785,124.496
吉林,白城市,14.563,21.24,3.005,4.236,0.219,68.38,2.144,-1.532,287.924,46.421,99549.574,45.35,123.031
吉林,白山市,39.008,64.042,13.572,10.7,0.551,121.259,5.631,2.063,283.756,56.734,92132.518,42.063,127.256
吉林,辽源市,44.841,75.019,9.238,15.901,0.591,104.508,4.997,0.529,287.792,49.012,97255.782,42.836,125.32
吉林,通化市,42.047,75.189,12.968,13.263,0.628,129.151,3.36,2.259,285.979,54.28,95564.194,41.939,125.927
吉林,长春市,41.897,70.335,5.937,13.628,0.569,106.031,3.282,-1.801,288.05,55.049,98926.218,44.268,125.611
四川,乐山市,63.062,89.206,11.106,18.237,0.651,122.541,0.541,-0.966,293.668,56.588,88763.25,29.218,103.569
四川,内江市,56.408,102.932,13.916,32.211,0.731,107.209,-1.024,1.693,298.918,42.985,95555.244,29.62,104.95
四川,凉山彝族自治州,25.161,34.615,6.209,4.613,0.584,100.634,4.737,4.26,284.592,66.318,73824.781,27.883,102.065
四川,南充市,42.791,80.891,12.405,34.919,0.671,93.083,-4.412,5.572,298.297,40.414,95740.722,31.19,106.199
四川,宜宾市,53.319,83.813,15.224,23.129,0.651,109.487,1.312,0.85,298.693,44.703,93976.663,28.573,104.621
四川,巴中市,35.153,59.998,11.98,26.64,0.519,82.991,-4.3,7.03,294.803,43.085,91738.323,32.033,107.031
四川,广元市,37.994,73.8,16.654,28.636,0.571,85.468,-3.587,5.403,293.583,51.441,90788.01,32.261,105.788
四川,广安市,33.929,65.808,11.66,26.004,0.614,94.279,-3.963,8.064,298.766,39.651,95780.891,30.43,106.628
四川,德阳市,56.083,101.478,11.345,29.921,0.652,111.066,-1.613,-0.647,295.414,48.308,92217.242,31.13,104.436
四川,成都市,57.83,101.506,11.322,32.781,0.699,120.306,-0.328,-2.144,295.688,48.354,92339.935,30.64,103.929
四川,攀枝花市,30.826,44.188,16.338,15.948,1.078,99.345,3.873,4.688,290.926,54.278,81109.049,26.791,101.734
四川,泸州市,38.131,62.172,14.786,16.324,0.497,94.287,-0.895,8.612,297.58,47.323,92526.162,28.424,105.675
四川,甘孜藏族自治州,12.707,14.483,1.443,1.218,0.174,99.461,3.897,2.706,274.776,64.442,60938.437,30.936,100.009
四川,眉山市,66.677,109.222,11.317,33.73,0.765,117.565,0.359,-2.007,295.909,51.188,92769.223,29.912,103.766
四川,绵阳市,49.779,83.812,12.734,21.242,0.534,110.53,-1.36,2.343,291.286,59.184,87219.89,31.86,104.704
四川,自贡市,68.432,112.683,14.413,33.982,0.814,111.049,0.158,-0.347,298.832,44.311,95526.609,29.307,104.659
四川,资阳市,44.343,87.87,12.123,25.956,0.643,106.92,-2.742,2.829,299.196,41.652,95814.438,30.102,105.149
四川,达州市,35.224,57.264,12.748,31.795,0.478,86.566,-4.572,6.947,296.219,39.291,93325.161,31.335,107.636
四川,遂宁市,48.023,92.082,11.646,31.173,0.697,103.922,-3.983,4.172,299.184,40.335,96083.647,30.642,105.457
四川,阿坝藏族羌族自治州,19.94,25.68,4.113,1.885,0.25,105.544,1.818,5.519,277.595,68.793,65176.281,32.406,102.61
四川,雅安市,47.02,60.696,7.654,5.745,0.416,117.412,0.08,-0.365,286.25,72.774,79531.04,29.932,102.689
天津,天津市,79.929,171.486,18.872,43.262,1.07,128.887,-4.234,2.229,294.076,50.278,101077.361,39.315,117.308
宁夏,中卫市,46.501,102.38,13.002,3.67,0.433,116.919,1.399,10.018,290.67,49.13,82626.54,37.018,105.509
宁夏,吴忠市,43.626,84.19,12.391,3.491,0.368,115.142,0.163,12.317,292.078,46.019,84210.808,37.454,106.577
宁夏,固原市,46.211,84.663,13.116,7.449,0.432,131.984,0.811,13.253,287.743,60.395,80313.245,35.905,106.183
宁夏,石嘴山市,44.782,127.428,18.818,13.532,0.634,135.673,-0.154,8.984,293.779,39.538,85705.63,39.013,106.499
宁夏,银川市,44.393,112.15,12.997,9.721,0.496,124.586,-0.119,8.958,294.075,39.963,86013.127,38.287,106.342
安徽,亳州市,48.261,111.873,13.076,21.603,0.623,130.856,-1.693,5.867,296.086,42.649,101095.312,33.44,116.162
安徽,六安市,39.495,76.747,9.758,15.272,0.522,117.446,-1.02,4.531,296.297,33.366,98713.959,31.617,116.209
安徽,合肥市,48.331,107.093,11.141,34.449,0.624,111.295,-2.386,4.556,295.28,40.712,101115.418,31.766,117.359
安徽,安庆市,45.644,93.767,11.368,25.889,0.656,102.041,0.691,2.834,293.832,42.363,99256.262,30.557,116.473
安徽,宣城市,39.549,69.768,7.502,19.314,0.563,98.03,-2.026,2.906,294.686,38.967,99244.412,30.676,118.846
安徽,宿州市,57.956,122.77,16.037,26.896,0.653,138.35,-2.086,5.778,295.685,41.773,101112.32,33.844,117.23
安徽,池州市,34.444,60.175,7.236,20.857,0.485,87.918,-0.474,3.333,295.087,39.566,99433.15,30.296,117.379
安徽,淮北市,54.378,123.075,18.375,29.728,0.66,136.665,-1.766,5.752,295.905,42.864,101126.822,33.722,116.747
安徽,淮南市,49.494,109.266,13.641,27.545,0.583,128.226,-2.973,4.592,295.749,39.297,101213.129,32.463,116.746
安徽,滁州市,56.47,118.494,12.842,41.468,0.646,122.126,-2.893,4.748,294.74,42.349,101045.379,32.55,118.076
安徽,芜湖市,47.482,91.346,10.572,33.819,0.686,101.21,-1.397,2.206,294.882,42.162,101344.961,31.167,118.162
安徽,蚌埠市,53.677,113.433,16.466,30.429,0.612,131.032,-2.383,5.527,295.885,40.013,101212.705,33.121,117.263
安徽,铜陵市,46.918,94.365,11.69,46.444,0.711,88.351,0.204,2.501,294.744,43.112,101186.389,30.883,117.531
安徽,阜阳市,42.881,100.275,11.096,16.71,0.561,124.558,-1.94,5.159,296.397,40.617,101058.109,32.937,115.723
安徽,马鞍山市,55.634,117.504,15.317,43.145,0.774,116.519,-2.462,2.758,294.298,44.355,101359.864,31.622,118.386
安徽,黄山市,33.599,57.061,7.316,16.156,0.511,77.618,-1.467,1.866,294.028,40.101,97300.245,29.869,118.09
山东,东营市,71.66,169.275,27.091,33.712,1.04,135.825,-0.216,4.778,297.356,40.142,101245.861,37.57,118.572
山东,临沂市,70.496,154.984,21.307,35.573,0.897,138.023,-0.49,5.645,294.024,45.536,99715.071,35.289,118.27
山东,威海市,41.32,92.315,12.743,19.287,0.667,163.819,2.615,5.563,288.048,65.813,100953.792,37.148,122.028
山东,德州市,49.494,118.838,16.802,20.425,0.67,148.738,1.11,8.448,298.208,38.948,100991.8,37.233,116.679
山东,日照市,73.003,150.891,19.525,41.647,0.817,131.25,0.048,5.413,292.292,49.797,99869.635,35.566,119.108
山东,枣庄市,62.598,152.2,23.84,30.42,0.744,142.142,-2.174,5.84,294.998,44.076,100377.668,34.925,117.383
山东,泰安市,50.167,129.747,21.692,23.962,0.773,148.673,-0.711,7.181,295.746,42.838,99463.333,35.993,117.04
山东,济南市,48.151,124.245,19.644,22.83,0.773,155.102,1.032,8.46,296.935,39.361,99370.463,36.639,117.254
山东,济宁市,49.693,129.363,19.251,22.732,0.728,143.902,-1.298,7.271,296.391,42.259,100707.113,35.375,116.697
山东,淄博市,55.924,138.438,21.828,27.457,0.957,151.063,2.479,7.39,296.855,38.686,98825.031,36.623,118.062
山东,滨州市,56.411,134.83,21.143,28.508,0.877,143.149,1.742,6.066,298.754,36.585,101128.318,37.516,117.852
山东,潍坊市,63.435,146.035,17.522,28.711,0.845,143.104,0.495,6.497,295.749,41.535,100312.9,36.53,119.092
山东,烟台市,47.775,114.905,13.372,23.196,0.718,150.721,0.891,5.355,291.663,54.191,100371.408,37.25,120.789
山东,聊城市,47.402,114.802,14.789,17.262,0.691,139.811,-0.108,9.059,297.855,39.793,100780.829,36.458,115.863
山东,菏泽市,42.726,121.121,13.375,20.379,0.809,131.198,-0.549,7.948,297.031,41.187,100771.268,35.134,115.69
山东,青岛市,51.313,119.583,13.742,30.894,0.67,142.922,-0.133,6.048,290.633,56.514,100989.612,36.46,120.172
山西,临汾市,51.373,111.91,18.591,21.585,0.961,117.763,-2.396,7.154,293.799,41.908,89624.851,36.227,111.398
山西,吕梁市,51.554,102.817,18.306,23.047,0.917,100.146,-0.642,8.43,293.219,37.637,87246.274,37.663,111.27
山西,大同市,56.52,134.766,16.304,19.1,0.795,112.998,-3.048,5.309,290.823,40.312,86956.762,39.911,113.713
山西,太原市,75.188,162.111,19.92,39.32,1.016,99.483,0.359,6.948,292.906,38.976,87235.994,37.967,112.321
山西,忻州市,60.524,125.879,16.569,21.63,0.689,107.65,-1.098,7.188,291.915,38.933,85766.532,38.877,112.391
山西,晋中市,66.437,137.606,18.02,34.912,0.927,105.1,0.303,6.239,293.01,42.216,88196.583,37.328,112.997
山西,晋城市,65.38,154.141,19.447,35.863,1.171,115.279,-2.201,5.874,292.76,46.526,90163.232,35.625,112.752
山西,朔州市,57.628,167.022,20.848,30.583,0.924,110.537,-1.568,7.019,291.742,38.871,86208.183,39.619,112.655
山西,运城市,51.156,122.905,16.49,19.3,0.884,126.62,-4.143,5.433,296.748,37.107,93617.59,35.205,111.071
山西,长治市,59.364,129.85,17.393,29.772,0.974,114.452,0.263,6.42,292.66,44.407,88520.257,36.48,112.915
山西,阳泉市,105.482,203.398,21.082,43.1,1.083,87.958,-0.639,3.46,293.589,42.141,90021.378,38.031,113.512
广东,东莞市,56.901,82.86,10.908,41.319,0.836,103.334,-3.228,1.498,295.252,76.804,101298.406,22.931,113.81
广东,中山市,38.948,63.762,11.877,28.583,0.642,95.696,-4.012,1.321,295.17,81.871,101292.323,22.5,113.383
广东,云浮市,52.568,70.379,7.012,17.151,0.69,75.082,-3.088,3.394,294.714,80.477,99218.239,22.776,111.818
广东,佛山市,59.074,99.947,16.253,59.794,0.977,80.489,-2.546,2.215,295.919,76.326,101303.651,23.035,112.979
广东,广州市,70.336,95.172,12.969,52.582,0.885,91.041,-2.529,2.384,295.29,75.76,100427.986,23.339,113.525
广东,惠州市,42.833,58.528,6.938,14.458,0.556,109.717,-3.212,1.416,294.342,72.107,99489.526,23.244,114.485
广东,揭阳市,43.76,74.938,12.834,22.678,0.822,126.756,-4.005,-1.269,293.599,63.416,100159.151,23.323,116.123
广东,梅州市,42.977,65.685,8.809,18.076,0.77,107.05,-2.678,1.727,293.595,58.244,98093.281,24.169,116.07
广东,汕头市,30.462,54.01,10.806,18.09,0.585,132.581,-5.273,-2.234,293.76,65.334,101296.327,23.339,116.614
广东,汕尾市,39.207,61.574,8.001,13.738,0.628,117.966,-4.647,-1.051,293.693,69.065,99862.817,23.024,115.527
广东,江门市,39.125,56.632,7.395,18.632,0.528,91.696,-3.887,1.285,294.867,83.947,100707.273,22.289,112.676
广东,河源市,49.744,66.047,7.165,15.125,0.693,107.669,-1.586,1.732,294.028,65.806,98257.979,24.021,114.969
广东,深圳市,38.004,61.727,8.774,28.292,0.643,108.384,-5.287,1.323,294.838,79.607,100827.318,22.667,114.143
广东,清远市,75.438,98.915,13.088,32.683,0.782,93.052,-0.807,3.218,294.09,73.298,97707.451,24.295,112.871
广东,湛江市,22.746,36.435,4.426,5.53,0.504,95.158,-5.344,2.753,296.435,86.286,101018.392,21.091,110.163
广东,潮州市,34.164,60.964,9.175,17.954,0.666,119.304,-4.316,-0.936,293.24,57.647,99607.341,23.755,116.754
广东,珠海市,25.127,36.292,4.782,9.803,0.327,107.188,-5.122,0.285,294.893,86.488,101370.1,22.095,113.317
广东,肇庆市,66.681,94.096,12.13,33.625,0.787,71.981,-2.34,2.891,294.914,77.927,99331.121,23.505,112.199
广东,茂名市,36.829,53.31,6.434,9.303,0.647,88.963,-4.575,3.002,295.101,83.99,99266.395,22.013,110.952
广东,阳江市,41.674,54.718,4.687,11.446,0.541,88.999,-3.809,1.324,294.578,86.485,99838.791,22.042,111.786
广东,韶关市,59.959,82.494,12.813,23.618,0.883,105.807,-0.085,3.05,294.077,65.058,96929.583,24.785,113.819
广西,北海市,24.241,41.004,5.32,7.534,0.585,88.79,-3.156,3.964,296.752,83.269,101029.596,21.674,109.37
广西,南宁市,42.27,62.545,8.345,15.786,0.793,74.691,-1.051,4.051,295.773,74.754,99128.651,23.051,108.469
广西,崇左市,42.86,58.294,7.361,7.793,0.595,72.92,-0.028,3.758,295.278,72.769,97815.553,22.483,107.291
广西,来宾市,56.239,82.267,11.504,14.397,0.799,73.066,-2.26,3.948,295.047,73.856,97989.071,23.859,109.417
广西,柳州市,52.209,75.902,9.312,13.54,0.718,76.166,-1.345,4.095,294.167,68.223,97358.581,24.956,109.372
广西,桂林市,56.998,81.043,13.541,13.894,0.737,80.308,-0.31,4.385,293.451,67.706,95785.58,25.353,110.513
广西,梧州市,57.826,84.787,11.967,17.235,0.84,67.451,-3.024,2.849,294.942,77.956,98896.119,23.484,110.996
广西,河池市,48.882,77.385,9.222,10.905,0.751,73.932,-1.498,5.097,293.251,62.921,94976.754,24.628,107.843
广西,玉林市,40.159,60.884,10.974,12.025,0.817,79.438,-2.881,4.282,295.54,83.029,99281.88,22.452,110.164
广西,百色市,49.04,71.641,11.946,7.149,0.873,86.153,-1.257,5.056,293.39,67.02,92839.56,23.981,106.292
广西,贵港市,60.055,90.152,13.833,17.944,0.997,69.017,-2.458,2.446,295.876,76.682,99687.219,23.322,110.021
广西,贺州市,64.273,93.416,15.604,12.762,0.758,78.267,-2.13,3.526,293.849,74.301,97093.099,24.364,111.394
广西,钦州市,31.018,49.846,7.095,10.854,0.788,80.824,-1.928,4.384,296.148,83.144,100294.479,22.173,109.01
广西,防城港市,37.121,52.12,8.14,8.629,0.655,85.437,-0.852,4.166,294.781,85.934,98688.813,21.88,108.002
新疆,乌鲁木齐市,5.553,10.377,3.341,5.137,0.256,59.17,3.694,-5.124,275.642,81.379,84091.094,43.746,87.818
新疆,五家渠市,6.013,9.69,5.607,5.823,0.27,56.447,4.513,-1.42,282.597,72.42,96685.407,44.363,87.517
新疆,伊犁哈萨克自治州,4.623,5.71,3.03,2.909,0.267,62.985,1.47,-0.552,270.408,86.644,80396.623,43.438,82.146
新疆,克孜勒苏柯尔克孜自治州,1.104,2.973,0.304,0.593,0.203,82.443,5.076,-5.408,270.782,49.721,69982.586,39.661,75.949
新疆,克拉玛依市,3.837,6.608,3.77,2.26,0.254,64.27,3.693,-1.075,283.852,49.277,97429.844,45.457,85.207
新疆,北屯市,3.736,4.226,3.524,1.372,0.348,66.94,3.592,-4.16,280.362,61.822,95478.366,47.27,87.868
新疆,博尔塔拉蒙古自治州,3.071,4.973,2.634,1.635,0.22,63.382,2.98,0.163,275.473,61.877,86212.187,44.714,82.114
新疆,双河市,2.496,5.116,2.32,1.612,0.206,61.378,0.502,-2.642,283.206,49.14,98027.42,44.87,82.474
新疆,可克达拉市,5.866,7.47,5.734,5.892,0.436,62.948,2.896,0.11,280.39,61.452,95176.57,43.918,80.786
新疆,和田地区,51.87,56.593,0.74,0.436,0.147,80.779,5.851,-0.934,279.385,40.084,73489.917,37.059,80.934
新疆,哈密市,26.703,32.227,2.127,1.163,0.198,64.186,2.221,-5.45,285.775,41.466,87568.672,43.042,93.517
新疆,喀什地区,4.69,8.133,0.816,1.178,0.241,81.915,6.616,-0.574,278.537,43.544,75608.856,38.125,77.178
新疆,图木舒克市,2.278,3.048,0.553,0.57,0.153,74.84,2.095,-2.602,287.992,45.728,88520.855,39.892,79.182
新疆,塔城地区,2.725,3.376,2.959,1.127,0.198,61.019,3.352,-1.14,277.452,69.587,89566.966,45.642,84.789
新疆,巴音郭楞蒙古自治州,73.141,78.328,1.099,0.526,0.14,69.209,-0.634,-1.097,283.224,36.442,78432.331,39.463,87.481
新疆,新星市,52.88,77.815,3.445,10.375,0.59,71.25,-1.36,-2.92,293.015,24.59,91687.945,42.75,93.68
新疆,昆玉市,45.49,66.52,1.947,0.95,0.167,75.197,4.527,-3.907,288.113,35.963,86408.903,37.457,79.093
新疆,昌吉回族自治州,5.175,7.581,3.708,2.399,0.189,58.002,5.091,-2.248,279.196,74.635,89820.916,44.342,88.608
新疆,石河子市,4.595,7.135,6.11,5.57,0.21,61.015,2.905,0.135,281.165,78.355,94811.315,44.245,86.035
新疆,胡杨河市,3.892,5.362,2.54,2.068,0.204,61.866,4.678,1.504,283.014,58.204,97986.524,44.852,84.772
新疆,铁门关市,43.247,134.23,3.223,4.023,0.2,67.807,-4.677,-4.87,292.16,26.543,90609.123,41.773,85.66
新疆,阿克苏地区,34.699,38.336,1.151,0.895,0.152,70.847,-1.803,-6.392,283.615,47.115,84534.737,40.965,81.578
新疆,阿勒泰地区,3.199,3.484,3.084,0.657,0.21,63.594,2.553,-3.207,276.401,70.926,88346.958,46.902,88.421
新疆,阿拉尔市,28.564,36.833,1.189,1.502,0.158,74.087,-1.626,-5.95,287.412,48.724,89354.128,40.629,80.998
江苏,南京市,55.512,112.21,13.204,43.454,0.72,120.405,-3.339,3.264,294.027,44.871,101434.116,31.899,118.876
江苏,南通市,43.899,76.183,14.471,41.005,0.558,98.305,-3.4,4.079,290.299,64.424,101750.407,32.201,120.979
江苏,宿迁市,72.168,133.932,16.554,41.527,0.804,139.151,-2.641,5.405,293.958,44.711,101468.216,33.765,118.495
江苏,常州市,56.253,103.817,13.858,45.429,0.779,126.178,-3.714,3.229,292.867,50.2,101547.844,31.613,119.666
江苏,徐州市,63.827,135.341,16.945,27.641,0.71,140.928,-1.916,5.944,295.326,42.784,101113.369,34.363,117.513
江苏,扬州市,68.333,127.417,15.474,46.448,0.8,126.057,-3.582,4.207,292.73,51.224,101620.717,32.709,119.486
江苏,无锡市,52.388,103.437,15.448,53.365,0.812,118.571,-3.881,3.413,291.974,54.735,101489.594,31.546,120.066
江苏,泰州市,61.149,115.507,15.83,48.611,0.791,112.702,-3.746,4.015,291.761,56.007,101631.213,32.605,120.048
江苏,淮安市,71.63,132.227,15.446,45.554,0.799,131.492,-3.014,4.905,293.347,47.834,101514.729,33.362,118.985
江苏,盐城市,61.43,111.836,15.692,36.281,0.695,113.315,-3.056,4.608,290.697,58.135,101666.117,33.529,120.156
江苏,苏州市,44.664,89.835,13.902,52.985,0.72,106.178,-3.969,3.657,291.003,60.922,101696.38,31.374,120.661
江苏,连云港市,73.216,136.497,18.417,37.874,0.777,129.216,-1.892,5.493,293.14,47.485,101374.54,34.519,119.133
江苏,镇江市,62.913,117.589,15.562,49.688,0.792,126.465,-3.813,3.551,292.752,51.016,101516.025,32.016,119.49
江西,上饶市,37.207,66.886,18.036,22.056,0.675,74.877,-1.389,1.495,295.103,41.694,99314.872,28.778,117.47
江西,九江市,35.681,72.548,9.57,16.65,0.536,97.795,-1.84,4.066,294.823,41.642,99177.037,29.313,115.444
江西,南昌市,41.362,87.824,15.633,34.52,0.699,79.218,-1.554,2.669,295.464,41.043,101072.815,28.671,116.016
江西,吉安市,42.161,82.015,13.286,17.241,0.736,89.246,-1.562,3.245,295.651,41.828,98810.42,26.954,114.831
江西,宜春市,42.331,81.041,14.285,22.054,0.676,83.573,-1.553,2.528,295.23,41.004,99143.208,28.29,114.974
江西,抚州市,35.096,54.388,10.448,15.007,0.44,86.74,-2.099,2.8,294.968,44.177,98881.297,27.514,116.42
江西,新余市,45.803,95.573,21.156,30.255,0.888,75.534,-1.775,2.659,295.454,42.007,100054.071,27.847,114.836
江西,景德镇市,37.656,68.099,11.546,19.676,0.595,76.832,-1.566,1.381,295.085,41.49,100129.348,29.287,117.24
江西,萍乡市,40.342,75.433,13.9,19.62,0.747,85.257,-2.11,4.097,296.117,39.677,97770.632,27.505,113.908
江西,赣州市,47.487,81.765,11.702,17.704,0.977,94.418,-0.95,3.096,294.171,54.885,97251.913,25.692,115.279
江西,鹰潭市,36.102,58.847,18.211,23.854,0.549,79.208,-1.326,2.763,295.699,42.787,99819.641,28.222,117.094
河北,保定市,82.24,154.319,18.11,31.044,0.746,116.423,-2.778,0.309,295.342,45.444,97302.444,39.018,115.159
河北,唐山市,79.759,167.399,22.817,50.55,1.303,103.354,-5.092,0.659,292.713,39.722,100705.234,39.731,118.354
河北,廊坊市,78.367,168.257,18.817,41.345,0.911,130.009,-3.558,2.709,295.898,47.817,101031.515,39.267,116.632
河北,张家口市,63.667,118.986,9.568,13.55,0.596,116.866,-4.936,4.442,288.611,38.744,87512.618,40.877,115.042
河北,承德市,47.571,91.151,7.977,15.01,0.567,97.97,-2.461,1.02,288.434,32.016,90936.332,41.339,117.578
河北,沧州市,60.335,134.666,19.404,28.731,0.718,137.388,-0.246,5.765,297.77,43.109,101044.212,38.258,116.744
河北,石家庄市,105.643,204.086,18.904,39.29,1.063,90.988,-1.156,2.376,296.694,43.763,97741.25,38.135,114.407
河北,秦皇岛市,59.474,117.673,12.99,36.61,0.905,101.631,-3.969,-1.03,291.379,33.365,98540.11,40.12,119.193
河北,衡水市,55.735,119.524,16.062,19.288,0.658,137.664,0.372,7.872,298.57,40.991,100839.622,37.755,115.813
河北,邢台市,61.379,135.746,17.715,24.504,0.911,121.494,0.127,7.154,298.119,40.605,99347.596,37.195,114.815
河北,邯郸市,55.519,133.222,17.72,25.036,0.936,120.672,0.199,7.511,297.506,41.502,98929.956,36.538,114.596
河南,三门峡市,47.085,102.254,13.684,14.261,0.663,117.513,-2.063,6.989,294.747,39.748,91360.534,34.362,111.101
河南,信阳市,38.532,79.704,10.341,13.075,0.536,125.55,-0.435,6.836,297.122,36.498,100080.535,32.091,114.907
河南,南阳市,43.855,96.634,12.53,20.949,0.754,109.405,-2.216,6.416,296.213,40.354,97799.113,33.034,112.323
河南,周口市,42.03,121.536,13.528,20.606,0.726,127.541,-0.991,7.309,296.701,41.23,100741.717,33.738,114.884
河南,商丘市,45.399,120.233,13.415,21.307,0.728,131.917,-1.012,7.123,296.567,41.909,100860.319,34.277,115.718
河南,安阳市,49.342,127.519,16.171,25.301,0.922,119.673,0.328,7.895,297.288,40.58,98568.658,35.888,114.318
河南,平顶山市,44.601,102.935,11.982,25.867,0.709,110.918,-0.28,7.898,297.14,37.314,98422.753,33.8,113.025
河南,开封市,43.829,126.305,14.827,23.907,0.809,120.383,-0.638,8.092,297.235,40.141,100395.408,34.594,114.514
河南,新乡市,48.989,134.054,16.559,29.258,0.931,115.359,-0.02,7.151,297.149,40.822,99418.635,35.256,114.111
河南,洛阳市,49.832,106.88,14.029,21.967,0.786,114.515,-1.492,6.002,295.625,38.713,93760.306,34.274,112.019
河南,济源市,73.808,183.061,21.545,47.01,1.41,107.281,-3.764,2.145,295.591,43.987,95611.609,35.105,112.445
河南,漯河市,43.078,119.028,14.116,25.035,0.762,116.665,-1.145,7.776,297.722,37.018,100490.51,33.652,113.945
河南,濮阳市,44.836,122.595,14.424,19.307,0.816,129.243,-0.153,8.774,297.654,40.626,100654.724,35.809,115.283
河南,焦作市,68.336,178.999,20.837,42.922,1.321,107.196,-1.922,2.323,297.565,39.766,99157.587,35.121,113.163
河南,许昌市,49.71,133.883,14.606,33.572,0.8,109.584,-0.619,7.672,297.278,38.504,99791.061,34.075,113.707
河南,郑州市,52.93,138.269,15.255,35.054,0.845,108.891,-0.607,8.188,297.036,38.82,98441.743,34.634,113.438
河南,驻马店市,40.381,103.41,12.373,19.304,0.669,126.284,-0.574,7.803,297.224,37.643,100260.81,32.925,114.174
河南,鹤壁市,46.868,125.224,16.207,25.487,0.907,117.469,0.7,8.479,297.272,42.216,99722.681,35.716,114.319
浙江,丽水市,26.277,40.877,5.558,13.234,0.379,95.943,-1.87,2.465,290.827,56.537,94734.609,28.194,119.51
浙江,台州市,26.718,48.479,8.133,25.92,0.398,91.729,-1.005,3.701,289.867,66.824,99093.753,28.742,121.109
浙江,嘉兴市,40.029,73.653,9.911,43.815,0.675,108.411,-3.587,3.063,291.55,56.508,101712.34,30.635,120.754
浙江,宁波市,25.261,43.827,7.76,23.835,0.433,100.061,-2.146,4.636,290.633,64.479,100567.237,29.706,121.49
浙江,杭州市,40.938,74.251,9.413,32.759,0.627,94.054,-1.844,1.532,293.27,45.619,98752.663,29.891,119.464
浙江,温州市,26.107,49.18,6.919,25.114,0.388,91.738,-1.005,1.83,288.987,74.224,97907.05,27.897,120.411
浙江,湖州市,47.832,90.004,11.309,41.09,0.754,109.796,-2.828,2.936,293.609,46.244,100363.316,30.757,119.871
浙江,绍兴市,35.015,59.67,7.717,30.799,0.552,102.48,-1.821,3.56,293.001,44.993,99623.964,29.709,120.64
浙江,舟山市,9.678,13.43,2.228,3.843,0.195,101.44,-2.795,5.625,289.28,78.24,101648.518,30.038,122.23
浙江,衢州市,33.704,56.65,12.22,25.879,0.589,76.474,-1.5,1.057,294.392,42.314,97960.306,28.912,118.675
浙江,金华市,32.346,54.204,6.573,27.091,0.477,95.775,-2.21,3.155,292.894,46.402,98270.207,29.109,119.967
海南,万宁市,19.51,28.518,1.54,1.74,0.249,85.164,-4.864,0.163,296.173,93.299,99998.099,18.842,110.294
海南,三亚市,15.499,24.881,1.884,4.063,0.561,70.26,-6.264,0.283,296.48,84.756,98728.943,18.413,109.407
海南,东方市,23.959,29.525,2.698,3.131,0.257,74.866,-0.859,1.155,297.68,77.442,99320.328,18.971,108.838
海南,临高县,19.836,31.307,3.27,5.126,0.471,56.257,-4.573,1.936,297.121,83.973,100529.337,19.821,109.733
海南,乐东黎族自治县,18.399,24.519,1.618,2.84,0.344,69.077,-4.099,2.025,296.652,79.98,97823.318,18.659,109.072
海南,五指山市,19.62,25.576,1.568,2.622,0.316,71.654,-5.22,2.934,294.272,87.796,94645.732,18.81,109.518
海南,儋州市,21.911,30.057,2.393,3.12,0.322,69.611,-3.301,1.216,297.14,82.95,100170.419,19.568,109.399
海南,定安县,17.962,28.698,1.992,3.59,0.462,64.243,-4.838,2.008,296.657,87.122,100262.333,19.47,110.28
海南,屯昌县,19.144,28.676,1.942,3.036,0.402,66.76,-4.568,2.35,296.33,87.944,99470.024,19.342,110.076
海南,文昌市,19.562,29.274,1.627,1.757,0.349,78.991,-5.404,1.097,296.362,91.45,101066.92,19.707,110.773
海南,昌江黎族自治县,24.754,30.711,2.669,3.083,0.271,76.768,-1.452,0.32,296.688,79.566,98318.04,19.233,109.016
海南,海口市,18.092,29.981,2.762,5.019,0.518,61.313,-5.071,1.651,296.848,86.383,100843.349,19.842,110.393
海南,澄迈县,17.91,29.689,3.011,5.203,0.53,55.653,-4.639,2.253,296.996,84.704,100368.816,19.676,109.989
海南,琼中黎族苗族自治县,20.964,28.938,1.769,2.601,0.297,70.063,-4.233,2.511,295.095,90.769,97286.781,19.087,109.847
海南,琼海市,19.075,28.462,1.497,2.043,0.31,76.682,-4.842,0.885,296.635,90.537,100829.983,19.22,110.43
海南,白沙黎族自治县,21.219,27.2,1.879,2.322,0.266,72.17,-2.82,1.975,295.84,83.662,96972.66,19.2,109.388
海南,陵水黎族自治县,18.969,27.629,1.337,2.391,0.389,79.364,-4.491,-0.634,296.004,91.367,99316.793,18.581,109.913
湖北,仙桃市,37.576,82.868,10.101,19.342,0.615,109.832,-0.494,6.06,297.234,40.179,101025.51,30.284,113.417
湖北,十堰市,36.005,66.079,8.864,8.12,0.549,98.624,-1.904,3.992,295.775,34.86,92880.656,32.462,110.476
湖北,咸宁市,32.086,63.063,6.886,10.381,0.521,110.565,-1.186,5.978,296.699,38.074,99260.484,29.621,114.178
湖北,天门市,44.364,104.262,16.339,27.684,0.811,110.725,-0.859,6.417,297.084,39.192,100940.916,30.633,113.053
湖北,孝感市,43.835,101.781,12.813,28.976,0.76,109.829,-2.567,5.9,295.977,43.146,100421.679,31.116,113.869
湖北,宜昌市,32.783,60.913,9.254,11.699,0.565,99.059,-0.011,5.045,294.692,39.14,93889.75,30.746,111.129
湖北,恩施土家族苗族自治州,32.594,47.528,9.052,11.288,0.478,78.974,-1.287,6.009,291.275,49.019,89413.602,30.195,109.552
湖北,武汉市,42.994,98.938,13.273,32.225,0.866,105.641,-3.16,4.59,296.164,41.679,101000.072,30.606,114.349
湖北,潜江市,45.157,103.661,16.517,27.077,0.808,112.244,-0.793,6.866,297.273,38.98,100933.152,30.33,112.77
湖北,神农架林区,24.902,34.628,5.115,2.602,0.29,100.367,0.302,9.663,288.758,39.907,82916.709,31.592,110.49
湖北,荆州市,37.87,82.597,13.058,19.712,0.694,109.428,-0.814,6.592,297.407,38.386,100690.649,30.01,112.512
湖北,荆门市,44.293,100.283,16.781,24.528,0.804,114.719,-1.275,7.111,296.714,38.945,99884.267,31.059,112.616
湖北,襄阳市,36.563,76.824,11.268,12.554,0.591,114.042,-1.171,8.103,296.712,36.422,97062.822,31.919,111.96
湖北,鄂州市,41.817,90.42,17.364,30.313,0.977,108.329,-3.64,4.217,296.217,40.81,101089.501,30.337,114.794
湖北,随州市,43.278,98.122,13.163,20.788,0.755,118.265,-2.09,7.393,295.841,42.016,99242.585,31.809,113.43
湖北,黄冈市,45.096,95.217,15.141,21.477,0.846,107.096,-3.523,4.2,294.82,40.763,99431.7,30.702,115.358
湖北,黄石市,35.699,73.796,11.897,18.418,0.693,109.85,-2.557,4.372,295.884,39.09,100144.098,29.925,115.034
湖南,娄底市,40.468,81.071,15.917,21.597,1.06,82.254,-0.278,4.571,295.702,40.757,97057.672,27.715,111.632
湖南,岳阳市,36.414,74.621,10.43,18.098,0.575,105.304,-2.008,6.223,296.719,40.16,99917.518,29.081,113.275
湖南,常德市,30.418,59.304,10.152,11.322,0.635,98.096,0.385,5.085,297.156,36.883,98998.203,29.271,111.524
湖南,张家界市,29.711,52.196,8.536,10.253,0.616,88.616,0.918,3.564,294.516,43.874,95124.072,29.379,110.526
湖南,怀化市,40.213,79.071,10.654,16.29,0.722,77.138,1.008,5.82,294.396,50.142,96108.416,27.535,110.071
湖南,株洲市,40.145,72.384,13.472,18.846,0.713,92.844,-1.044,4.407,295.99,42.484,97886.437,27.109,113.513
湖南,永州市,49.845,81.437,16.681,11.805,0.623,93.208,1.084,5.04,294.662,58.734,96504.084,25.748,111.723
湖南,湘潭市,40.672,84.422,17.29,26.905,0.951,90.419,-0.879,5.014,296.993,39.83,100034.621,27.744,112.619
湖南,湘西土家族苗族自治州,35.675,69.262,10.333,20.074,0.642,66.246,-0.575,5.319,293.871,48.944,95039.232,28.708,109.718
湖南,益阳市,33.065,71.493,11.782,17.673,0.839,96.57,-0.467,5.766,296.577,37.913,98574.459,28.525,111.919
湖南,衡阳市,45.731,87.194,17.781,26.984,0.864,87.332,-0.239,4.206,296.829,44.525,99600.131,26.781,112.565
湖南,邵阳市,45.927,77.817,13.582,14.706,0.703,84.858,0.934,5.054,294.333,49.395,94876.259,26.893,110.881
湖南,郴州市,47.276,83.787,18.708,22.927,0.916,104.13,0.222,4.403,294.249,54.028,95745.918,25.769,113.109
湖南,长沙市,39.728,82.185,15.187,26.287,0.779,93.013,-2.173,4.984,296.481,39.812,99474.436,28.235,113.159
甘肃,临夏回族自治州,21.024,42.892,3.108,9.112,0.401,98.681,1.295,1.689,288.722,40.116,76649.869,35.617,103.291
甘肃,兰州市,41.893,81.069,7.877,19.999,0.471,96.054,-2.444,1.371,288.977,41.602,78240.406,36.359,103.633
甘肃,嘉峪关市,20.758,77.03,10.437,32.233,0.385,79.397,0.098,0.732,286.068,27.728,81022.373,39.798,98.145
甘肃,天水市,38.661,65.829,13.61,5.511,0.439,132.158,-0.523,12.455,288.41,61.392,82034.165,34.645,105.739
甘肃,定西市,36.341,61.847,10.269,5.453,0.382,113.807,-1.647,9.451,286.406,58.654,76545.845,35.124,104.432
甘肃,平凉市,41.704,78.098,11.974,11.075,0.456,119.4,0.251,11.48,290.605,51.631,83860.793,35.304,106.644
甘肃,庆阳市,37.079,68.958,11.484,9.597,0.435,108.826,-0.729,10.79,292.002,44.146,85135.241,36.149,107.596
甘肃,张掖市,22.774,35.813,2.356,5.413,0.181,76.125,1.99,-1.541,281.124,38.902,74102.981,38.94,99.855
甘肃,武威市,68.753,102.45,5.834,5.965,0.231,80.683,3.531,-1.879,289.445,28.376,80444.294,38.163,103.073
甘肃,甘南藏族自治州,13.405,17.364,2.679,2.214,0.257,95.394,2.89,3.829,279.73,59.72,67238.29,34.331,102.768
甘肃,白银市,47.94,92.828,11.868,7.15,0.426,109.024,-1.706,7.324,289.021,50.763,80613.798,36.59,104.646
甘肃,酒泉市,15.574,17.767,1.258,1.862,0.139,70.725,-1.716,-2.094,284.359,33.036,78441.83,40.236,96.062
甘肃,金昌市,51.37,120.747,5.936,6.939,0.226,90.219,8.092,-5.435,287.915,24.799,79750.802,38.44,102.048
甘肃,陇南市,38.56,61.698,16.909,8.914,0.423,129.147,-1.037,10.141,287.42,67.366,81667.393,33.599,105.224
福建,三明市,30.209,43.868,8.664,16.345,0.597,81.473,-2.524,1.629,292.089,54.553,95303.568,26.29,117.395
福建,南平市,26.898,38.337,9.35,10.725,0.449,88.416,-1.666,1.647,292.009,55.448,96089.403,27.324,118.143
福建,厦门市,27.068,59.573,11.852,24.405,0.48,89.077,-3.993,-3.758,292.268,65.21,100557.438,24.642,118.11
福建,宁德市,17.779,28.494,3.373,5.94,0.301,98.746,-1.939,0.323,289.039,71.323,95517.344,26.968,119.474
福建,泉州市,25.729,49.319,7.269,15.547,0.459,91.371,-3.073,-1.767,290.651,65.977,96790.466,25.201,118.249
福建,漳州市,30.07,56.753,9.276,18.579,0.476,100.455,-3.328,-1.616,291.706,65.389,98371.077,24.372,117.444
福建,福州市,19.098,38.806,4.949,12.016,0.426,93.881,-2.907,-2.313,289.772,77.36,97604.715,26.083,119.206
福建,莆田市,21.904,44.036,5.764,12.049,0.438,93.402,-3.269,-3.676,290.656,73.619,98338.822,25.445,118.864
福建,龙岩市,36.599,57.061,9.379,15.769,0.553,98.401,-1.662,2.037,292.279,58.266,95283.47,25.256,116.739
西藏,山南市,16.228,18.373,1.487,1.447,0.185,99.588,2.253,1.108,277.446,72.059,66012.069,28.295,92.274
西藏,拉萨市,5.464,9.473,0.476,3.81,0.173,97.296,2.589,0.48,272.218,59.546,56473.34,30.043,91.093
西藏,日喀则市,6.577,7.619,0.402,0.344,0.132,96.124,6.325,-0.685,270.394,47.387,55306.114,29.483,86.493
西藏,昌都市,11.268,13.259,0.986,0.706,0.172,100.328,5.065,3.605,273.186,59.783,58920.508,30.753,97.044
西藏,林芝市,18.162,19.983,1.635,1.169,0.181,100.938,0.387,1.913,275.879,83.736,66279.336,29.184,95.25
西藏,玉树藏族自治州,6.384,6.879,0.271,0.319,0.129,94.337,3.797,-0.842,270.043,56.98,57124.992,34.196,94.317
西藏,那曲市,4.185,4.399,0.182,0.21,0.134,98.236,4.943,-0.14,270.642,43.861,55318.554,32.709,89.262
西藏,阿里地区,3.44,3.997,0.282,0.366,0.136,97.819,8.382,-0.042,267.561,38.664,54779.379,33.013,82.553
贵州,六盘水市,30.428,54.976,9.728,9.53,0.544,92.933,1.13,6.142,289.099,73.849,82921.58,26.106,104.896
贵州,安顺市,38.171,66.484,8.184,6.138,0.466,93.008,-1.917,7.173,290.549,69.066,87986.68,25.986,105.978
贵州,毕节市,34.98,58.784,9.718,9.726,0.487,98.464,2.496,8.976,289.671,67.559,83165.797,27.063,105.211
贵州,贵阳市,42.704,77.968,7.141,19.558,0.532,98.785,0.347,10.026,290.415,64.309,87975.949,26.845,106.71
贵州,遵义市,36.807,60.962,10.309,12.456,0.448,91.659,-2.163,8.855,292.369,56.938,90033.066,28.167,107.102
贵州,铜仁市,34.994,69.297,10.446,9.114,0.513,76.594,-0.394,7.263,292.622,54.414,92531.275,27.937,108.534
贵州,黔东南苗族侗族自治州,44.859,71.701,11.809,6.22,0.494,89.197,0.225,7.142,291.679,61.247,92540.328,26.495,108.574
贵州,黔南布依族苗族自治州,44.498,71.474,8.124,6.723,0.472,92.622,-1.125,7.102,290.633,63.457,90251.882,26.0,107.265
贵州,黔西南布依族苗族自治州,30.294,53.982,8.511,3.885,0.53,90.285,-0.509,5.983,292.072,68.435,88364.019,25.256,105.467
辽宁,丹东市,46.616,83.742,14.694,13.766,0.692,132.046,0.729,1.741,284.129,72.788,98563.183,40.554,124.376
辽宁,大连市,57.884,108.23,12.017,18.144,0.679,133.454,-0.015,1.493,287.026,65.306,100710.633,39.591,122.22
辽宁,抚顺市,45.551,78.972,13.817,17.971,0.631,116.1,3.42,1.781,287.041,53.03,96738.916,41.841,124.65
辽宁,朝阳市,35.855,73.519,7.462,14.634,0.588,82.547,-0.028,-1.702,290.838,26.765,96314.167,41.545,120.053
辽宁,本溪市,46.235,82.712,14.686,18.125,0.765,126.693,2.101,1.766,285.631,59.806,96147.713,41.232,124.544
辽宁,沈阳市,46.868,83.354,12.093,26.006,0.612,91.621,1.809,-0.428,290.252,43.34,100798.218,42.081,123.159
辽宁,盘锦市,57.844,102.057,12.894,22.893,0.802,124.342,0.842,-0.448,290.375,40.701,101460.005,41.13,122.01
辽宁,营口市,58.471,109.773,12.706,19.653,0.785,132.855,0.843,0.979,289.115,50.581,99312.367,40.395,122.478
辽宁,葫芦岛市,54.738,98.579,11.446,23.652,0.792,104.037,-0.997,-1.718,291.725,29.454,99003.731,40.66,120.215
辽宁,辽阳市,52.323,101.383,15.359,27.007,1.007,119.644,1.398,1.505,289.034,48.698,99505.911,41.153,123.261
辽宁,铁岭市,42.773,74.218,10.471,17.379,0.52,94.651,2.995,0.341,288.931,47.452,99239.532,42.653,124.158
辽宁,锦州市,49.651,83.356,12.196,20.229,0.654,104.445,0.977,-2.073,291.583,33.288,100647.683,41.502,121.659
辽宁,阜新市,31.932,49.871,7.063,10.685,0.381,80.774,1.715,-2.808,290.288,36.706,99192.101,42.289,121.968
辽宁,鞍山市,56.819,104.645,13.869,22.171,0.939,125.668,0.62,0.939,287.993,55.467,99592.479,40.731,123.007
重庆,重庆城区,31.591,54.821,12.581,21.454,0.499,88.317,-3.818,8.074,297.324,42.341,94247.431,29.824,107.125
重庆,重庆郊县,31.805,46.949,10.404,9.629,0.385,84.085,-3.181,7.171,293.528,43.252,90780.159,30.334,108.755
陕西,咸阳市,41.852,117.195,11.754,30.634,0.835,96.005,-3.15,4.567,295.687,35.565,90712.475,34.779,108.367
陕西,商洛市,38.557,75.831,10.324,9.388,0.496,96.707,-2.56,5.565,292.457,44.609,88985.804,33.64,109.889
陕西,安康市,30.881,52.023,9.401,5.804,0.359,95.945,-0.8,5.559,294.074,35.567,89441.918,32.735,108.932
陕西,宝鸡市,41.944,94.497,9.631,24.684,0.613,102.969,0.11,8.548,291.878,45.513,85735.574,34.386,107.193
陕西,延安市,43.791,91.938,14.718,25.152,0.766,93.328,-1.35,9.516,293.004,39.073,86992.818,36.432,109.316
陕西,榆林市,42.969,103.814,16.258,16.427,0.753,113.288,-0.58,10.819,293.229,39.371,87257.605,38.041,109.581
陕西,汉中市,34.718,57.06,12.677,15.12,0.476,89.499,-2.163,6.82,292.824,45.632,88415.768,33.088,107.098
陕西,渭南市,41.063,107.627,15.806,21.911,0.775,104.254,-2.451,5.015,297.265,33.325,93096.237,34.919,109.855
陕西,西安市,35.802,89.306,9.844,17.239,0.593,94.353,-0.129,9.805,295.659,33.269,89831.533,34.12,108.77
陕西,铜川市,37.814,94.843,14.622,21.818,0.829,103.21,-3.136,6.411,293.862,37.662,88590.919,35.198,109.058
青海,保亭黎族苗族自治县,18.324,26.92,1.74,4.342,0.536,69.626,-4.734,-0.054,294.756,92.814,97168.388,18.566,109.618
青海,吐鲁番市,70.441,81.464,2.975,1.788,0.187,62.325,-0.179,-8.862,286.565,39.002,89500.022,42.386,89.851
青海,果洛藏族自治州,9.202,9.837,0.424,0.944,0.13,93.464,3.82,2.056,272.405,67.222,59754.395,34.127,99.404
青海,海东市,16.345,25.351,2.996,6.787,0.365,93.907,0.215,0.821,284.337,38.622,72155.321,36.347,102.34
青海,海北藏族自治州,19.468,21.88,1.437,1.584,0.135,84.83,-1.54,0.824,275.088,53.232,64964.121,37.775,100.288
青海,海南藏族自治州,18.793,19.229,0.388,0.652,0.124,90.602,3.73,0.676,278.422,43.825,66085.81,35.89,100.272
青海,海西蒙古族藏族自治州,21.42,21.917,0.42,0.3,0.124,87.193,3.681,-0.951,276.096,38.628,64163.317,36.677,94.519
青海,西宁市,29.425,45.003,4.794,10.212,0.491,82.202,1.21,-0.13,280.666,42.08,69064.918,36.842,101.423
青海,黄南藏族自治州,9.936,10.568,0.461,0.802,0.137,95.266,3.559,1.771,278.33,51.401,65446.897,35.022,101.631
香港,香港特别行政区,25.645,37.16,4.715,13.47,0.345,116.865,-6.6,0.175,294.905,82.675,101016.25,22.45,114.22
黑龙江,七台河市,47.468,98.527,5.992,17.558,0.545,67.252,0.832,-1.224,283.446,63.318,97751.626,45.87,130.943
黑龙江,伊春市,11.777,21.212,1.773,3.012,0.236,77.745,0.95,-1.491,283.916,35.166,96425.296,47.772,129.184
黑龙江,佳木斯市,26.964,57.034,3.788,8.305,0.408,65.397,0.156,-2.521,284.215,50.106,99749.057,47.207,132.11
黑龙江,双鸭山市,28.226,52.95,5.067,8.273,0.375,66.532,0.133,-0.931,284.605,48.871,99301.188,46.722,132.643
黑龙江,哈尔滨市,50.574,70.788,7.484,11.155,0.497,96.066,2.088,-1.194,286.13,59.302,98173.457,45.634,127.964
黑龙江,大兴安岭地区,2.141,2.812,0.851,1.052,0.169,81.211,4.979,0.272,279.083,34.775,94489.186,52.286,124.212
黑龙江,大庆市,36.312,53.291,5.159,10.194,0.406,88.009,2.412,-2.388,287.582,48.161,99596.997,46.327,124.687
黑龙江,牡丹江市,34.579,54.011,7.739,8.602,0.434,94.354,4.17,-0.481,283.118,72.198,95054.847,44.592,129.883
黑龙江,绥化市,40.47,51.425,3.572,6.703,0.363,83.81,1.534,-2.477,287.068,41.7,98722.548,46.89,126.634
黑龙江,鸡西市,37.235,54.364,8.008,11.08,0.435,61.102,1.067,1.194,282.768,72.419,99014.88,45.626,132.289
黑龙江,鹤岗市,25.178,52.665,2.676,7.426,0.442,74.888,0.534,-2.216,283.917,33.767,98815.003,47.661,130.778
黑龙江,黑河市,5.96,10.999,1.347,1.974,0.204,75.468,1.923,-0.078,283.916,31.678,96819.757,49.268,127.004
黑龙江,齐齐哈尔市,28.657,37.553,2.904,4.474,0.309,71.537,1.462,-0.161,286.634,43.647,98768.441,47.715,124.57
