province,city,PM2.5,PM10,SO2,NO2,CO,O3,U,V,TEMP,RH,PSFC,lat,lon
上海,上海市,28.477,49.04,9.825,30.523,0.514,75.702,-2.951,5.7,294.372,87.504,101133.556,31.173,121.42
云南,临沧市,35.349,66.933,5.423,9.251,0.572,87.937,7.043,-0.599,295.084,43.107,83729.633,23.935,99.686
云南,丽江市,15.04,32.937,3.594,2.657,0.54,90.854,9.64,-0.249,287.02,58.538,74401.08,26.96,100.515
云南,保山市,39.82,76.734,6.375,13.008,0.663,71.984,6.928,0.05,292.222,54.2,81745.067,24.953,98.962
云南,大理白族自治州,21.818,48.612,4.012,3.679,0.427,89.826,9.8,-0.043,289.544,55.847,77944.863,25.726,100.053
云南,德宏傣族景颇族自治州,54.506,87.723,7.868,17.701,0.813,59.231,3.962,0.19,295.187,49.539,85891.635,24.535,98.052
云南,怒江傈僳族自治州,19.722,35.299,3.145,1.405,0.384,82.828,6.971,1.005,282.55,87.995,72735.873,26.916,98.885
云南,文山壮族苗族自治州,31.474,54.324,5.091,4.239,0.41,93.257,8.116,3.531,296.663,49.889,86091.167,23.696,104.735
云南,昆明市,21.168,44.67,5.153,7.029,0.404,100.136,11.76,0.704,292.146,42.058,78932.778,25.384,102.863
云南,昭通市,31.694,48.881,9.581,6.826,0.587,89.951,-0.297,-1.725,290.083,78.395,83606.509,27.667,103.985
云南,普洱市,33.471,62.607,3.858,11.217,0.432,89.927,5.885,0.228,297.057,39.068,85735.026,23.159,100.718
云南,曲靖市,17.972,27.584,5.846,6.638,0.319,91.764,10.181,0.346,293.052,40.049,79608.295,25.737,103.929
云南,楚雄彝族自治州,20.928,38.667,3.941,3.574,0.381,97.359,9.775,0.763,293.177,42.942,80701.343,25.328,101.567
云南,玉溪市,24.124,50.362,4.163,4.836,0.316,99.653,8.504,0.562,295.25,41.247,83208.175,24.136,102.217
云南,红河哈尼族彝族自治州,32.211,62.959,4.342,4.51,0.35,99.45,7.365,1.272,296.174,42.356,84860.346,23.451,103.034
云南,西双版纳傣族自治州,60.263,113.318,4.392,26.615,0.821,79.857,3.964,2.097,299.374,36.144,88674.328,21.939,100.912
云南,迪庆藏族自治州,13.121,26.692,4.065,0.982,0.309,90.858,8.746,1.446,279.124,86.018,67172.638,27.957,99.459
内蒙古,乌兰察布市,25.229,34.164,10.518,8.497,0.441,58.593,-2.64,1.795,279.717,84.849,86184.732,41.691,112.44
内蒙古,乌海市,33.614,95.825,33.539,28.209,0.952,83.732,-3.91,-1.836,289.696,44.631,87546.889,39.396,106.856
内蒙古,兴安盟,8.541,11.987,3.028,5.47,0.254,73.262,-1.732,-1.424,280.194,31.4,95973.527,46.244,121.341
内蒙古,包头市,20.001,29.35,7.591,7.736,0.411,60.71,-2.703,-1.212,282.146,77.872,86082.473,41.549,110.276
内蒙古,呼伦贝尔市,3.848,5.711,2.159,2.656,0.192,76.736,2.346,1.282,280.781,23.844,94602.375,49.636,121.171
内蒙古,呼和浩特市,23.049,40.66,10.948,16.488,0.788,72.711,-4.867,1.391,282.897,82.346,86417.461,40.578,111.513
内蒙古,巴彦淖尔市,15.115,21.638,4.288,4.19,0.229,54.596,-3.799,-3.651,284.573,59.792,87452.161,41.446,107.582
内蒙古,赤峰市,9.161,12.056,3.744,3.755,0.221,69.379,-6.218,-3.215,279.164,39.799,92717.284,43.226,118.892
内蒙古,通辽市,10.201,14.652,4.787,5.591,0.239,70.115,-5.443,-5.525,283.079,30.178,98802.03,43.814,121.591
内蒙古,鄂尔多斯市,25.864,48.623,15.306,13.872,0.627,80.316,-3.69,-0.378,287.221,66.335,86945.176,39.407,108.63
内蒙古,锡林郭勒盟,11.646,13.521,4.095,1.922,0.196,67.551,-5.925,1.385,278.266,54.811,89671.596,44.179,115.482
内蒙古,阿拉善盟,21.349,28.431,4.505,3.052,0.197,58.612,-2.932,-2.272,286.632,46.962,87609.832,40.473,102.467
北京,北京市,13.113,20.372,4.64,11.801,0.342,68.205,-2.76,-5.189,283.733,55.927,98250.124,40.158,116.395
台湾,台湾省,14.744,18.145,5.069,15.971,0.166,65.987,-0.939,0.744,294.719,69.567,92975.602,23.757,120.975
吉林,吉林市,8.769,10.215,2.751,4.23,0.296,79.714,-6.24,-3.412,282.745,33.877,98031.794,43.573,126.859
吉林,四平市,16.502,23.522,4.047,9.896,0.364,72.94,-6.973,-5.805,284.578,28.979,100230.298,43.472,124.386
吉林,延边朝鲜族自治州,8.764,11.079,2.659,4.282,0.274,81.885,-3.794,-3.146,280.338,35.427,95128.021,43.141,129.147
吉林,松原市,13.318,21.369,4.0,8.47,0.327,70.166,-5.578,-4.605,283.753,25.411,100867.009,44.785,124.496
吉林,白城市,12.896,17.34,3.973,7.793,0.263,69.803,-4.065,-4.212,283.568,25.96,101068.505,45.35,123.031
吉林,白山市,23.333,26.453,6.547,5.074,0.407,75.892,-4.809,-2.096,282.692,61.005,92911.869,42.063,127.256
吉林,辽源市,16.81,19.394,4.306,6.884,0.338,74.795,-6.498,-4.727,283.831,47.567,98225.886,42.836,125.32
吉林,通化市,29.158,33.806,7.842,7.94,0.517,71.926,-3.517,-2.678,284.641,63.197,96286.348,41.939,125.927
吉林,长春市,14.74,22.047,2.876,8.701,0.397,72.372,-6.044,-4.97,283.413,28.139,100326.093,44.268,125.611
四川,乐山市,36.684,48.953,7.367,13.542,0.561,82.068,-0.578,-2.075,292.011,75.934,88962.262,29.218,103.569
四川,内江市,35.212,54.691,7.618,15.462,0.614,80.532,0.407,-3.268,296.089,62.721,95805.235,29.62,104.95
四川,凉山彝族自治州,21.795,29.187,6.85,4.829,0.518,90.566,3.662,0.662,286.577,60.784,73851.622,27.883,102.065
四川,南充市,30.35,50.502,8.984,16.232,0.666,68.118,-1.299,-3.238,296.448,58.656,95781.514,31.19,106.199
四川,宜宾市,34.819,51.329,10.493,15.743,0.689,84.485,0.679,-1.569,295.057,72.481,94240.153,28.573,104.621
四川,巴中市,28.532,45.9,10.02,11.786,0.556,62.191,-6.004,-3.201,294.346,60.305,91695.584,32.033,107.031
四川,广元市,26.778,44.53,8.527,11.737,0.439,68.962,-3.104,-3.486,294.051,53.65,90871.292,32.261,105.788
四川,广安市,39.707,58.755,9.617,20.402,0.901,61.581,0.653,-2.48,295.747,69.697,95773.68,30.43,106.628
四川,德阳市,36.383,63.185,7.74,17.961,0.51,77.742,-1.238,-1.982,294.666,53.523,92382.3,31.13,104.436
四川,成都市,28.714,54.54,7.509,20.575,0.556,85.798,-0.375,-1.249,294.575,58.755,92539.97,30.64,103.929
四川,攀枝花市,21.552,37.001,15.143,16.976,0.97,88.26,7.527,2.394,294.262,39.045,81028.617,26.791,101.734
四川,泸州市,35.989,53.2,9.609,12.918,0.585,76.402,2.302,-2.059,293.325,81.804,92641.015,28.424,105.675
四川,甘孜藏族自治州,11.577,13.517,1.454,1.054,0.156,91.127,3.659,2.955,276.702,65.179,61052.16,30.936,100.009
四川,眉山市,30.068,49.907,6.598,17.922,0.573,83.311,-0.178,-1.914,294.585,64.27,92994.253,29.912,103.766
四川,绵阳市,32.823,47.243,5.999,9.609,0.372,85.664,-1.44,-2.754,291.545,57.362,87366.494,31.86,104.704
四川,自贡市,35.989,51.58,8.316,17.088,0.652,82.273,0.134,-2.946,296.565,61.552,95789.555,29.307,104.659
四川,资阳市,31.511,56.781,6.821,14.26,0.619,75.743,0.267,-3.256,295.796,62.787,96038.564,30.102,105.149
四川,达州市,33.057,50.655,11.63,18.242,0.685,67.578,-3.976,-1.987,295.244,66.696,93192.029,31.335,107.636
四川,遂宁市,33.061,58.286,7.26,16.98,0.677,75.615,0.522,-2.659,295.734,60.406,96253.201,30.642,105.457
四川,阿坝藏族羌族自治州,22.387,28.802,4.032,1.637,0.235,92.701,-1.405,2.745,277.623,80.025,65346.749,32.406,102.61
四川,雅安市,31.26,42.243,7.191,5.156,0.372,94.5,-1.506,-0.727,285.991,85.067,79681.154,29.932,102.689
天津,天津市,19.92,33.236,8.588,26.008,0.75,64.591,-5.5,-6.421,284.297,68.803,101832.208,39.315,117.308
宁夏,中卫市,26.358,60.998,8.699,13.989,0.405,75.973,-2.584,-0.437,288.289,45.511,83407.184,37.018,105.509
宁夏,吴忠市,24.709,41.5,9.452,6.775,0.327,80.367,-2.853,-1.064,288.896,48.322,84944.113,37.454,106.577
宁夏,固原市,26.266,54.206,6.252,16.644,0.328,72.756,-2.822,0.141,286.798,56.701,80830.634,35.905,106.183
宁夏,石嘴山市,40.068,109.655,39.302,29.194,1.033,92.598,-2.752,-2.487,289.252,45.348,86639.783,39.013,106.499
宁夏,银川市,30.938,72.825,17.907,15.478,0.644,90.85,-2.828,-1.981,289.881,44.965,86887.139,38.287,106.342
安徽,亳州市,27.985,40.796,9.036,19.329,0.701,36.453,1.326,-2.33,290.382,81.92,100756.194,33.44,116.162
安徽,六安市,29.008,39.563,8.281,14.895,0.527,57.36,1.296,0.626,294.564,77.481,98242.538,31.617,116.209
安徽,合肥市,31.852,44.642,6.744,21.384,0.651,49.314,1.503,1.115,296.509,72.368,100525.561,31.766,117.359
安徽,安庆市,30.478,43.878,7.989,13.649,0.58,55.305,0.665,3.02,296.441,75.22,98633.831,30.557,116.473
安徽,宣城市,23.857,32.728,4.527,12.79,0.452,60.685,0.728,4.337,297.363,69.689,98635.33,30.676,118.846
安徽,宿州市,41.213,52.185,9.354,24.873,0.813,33.552,0.489,-0.742,292.408,81.057,100648.347,33.844,117.23
安徽,池州市,23.453,31.835,5.789,12.621,0.489,54.758,1.082,5.017,297.683,69.107,98825.035,30.296,117.379
安徽,淮北市,35.966,48.008,10.706,25.696,0.807,30.117,1.293,-1.177,291.059,82.958,100719.059,33.722,116.747
安徽,淮南市,31.214,45.214,9.23,19.749,0.62,44.624,1.443,-0.545,293.977,77.586,100724.664,32.463,116.746
安徽,滁州市,36.658,55.11,8.298,26.61,0.678,49.282,0.591,1.118,295.993,74.216,100415.362,32.55,118.076
安徽,芜湖市,31.958,45.979,7.632,27.457,0.726,46.358,1.736,2.754,298.258,67.671,100692.192,31.167,118.162
安徽,蚌埠市,39.135,50.952,10.529,24.888,0.715,36.963,1.404,0.0,293.882,77.17,100693.226,33.121,117.263
安徽,铜陵市,31.541,43.602,8.15,28.281,0.714,45.651,2.345,2.912,298.081,68.262,100548.669,30.883,117.531
安徽,阜阳市,24.206,39.666,10.515,17.562,0.631,39.918,1.16,-2.731,290.994,80.769,100737.229,32.937,115.723
安徽,马鞍山市,36.348,57.36,9.41,30.953,0.792,45.999,0.789,2.31,297.665,69.752,100692.309,31.622,118.386
安徽,黄山市,22.419,31.228,5.476,10.006,0.502,54.913,0.872,4.533,296.302,72.446,96747.103,29.869,118.09
山东,东营市,29.103,50.679,7.368,13.362,0.552,60.598,-6.097,-7.056,282.361,94.548,101491.313,37.57,118.572
山东,临沂市,31.103,55.658,8.241,23.213,0.8,44.268,-3.418,-2.391,289.076,89.97,99310.666,35.289,118.27
山东,威海市,13.073,26.756,4.668,13.965,0.363,76.149,-5.337,-0.903,284.478,98.461,100790.822,37.148,122.028
山东,德州市,25.423,36.914,8.295,15.35,0.571,63.37,-4.567,-8.632,282.823,88.84,101390.048,37.233,116.679
山东,日照市,22.375,41.298,7.376,19.886,0.608,47.01,-2.69,-3.15,286.214,95.507,99473.163,35.566,119.108
山东,枣庄市,38.073,63.099,10.788,22.214,0.817,37.878,-2.141,-0.81,291.006,88.081,99979.018,34.925,117.383
山东,泰安市,29.676,47.43,7.073,21.585,0.824,55.234,-3.418,-4.162,287.7,89.201,99276.048,35.993,117.04
山东,济南市,30.348,44.529,7.795,19.948,0.774,54.803,-4.132,-6.279,284.402,91.23,99419.735,36.639,117.254
山东,济宁市,26.142,45.578,8.782,20.243,0.795,43.172,-0.833,-3.465,288.576,88.831,100504.988,35.375,116.697
山东,淄博市,31.789,47.1,8.405,20.707,0.878,52.671,-3.421,-4.321,284.619,94.177,98799.941,36.623,118.062
山东,滨州市,28.634,44.132,7.429,14.209,0.605,58.952,-5.21,-7.201,282.563,92.157,101463.176,37.516,117.852
山东,潍坊市,26.86,46.961,7.041,18.72,0.592,50.562,-2.579,-3.688,284.883,96.472,100184.988,36.53,119.092
山东,烟台市,19.952,39.5,6.303,18.575,0.467,56.53,-5.051,-2.714,284.355,97.815,100258.257,37.25,120.789
山东,聊城市,21.247,35.924,8.996,17.651,0.662,63.778,-1.381,-9.738,283.736,89.176,101086.473,36.458,115.863
山东,菏泽市,21.636,36.175,7.431,17.591,0.856,49.786,0.893,-7.826,286.392,87.885,100763.308,35.134,115.69
山东,青岛市,18.463,34.571,5.444,18.576,0.374,54.694,-4.409,-2.151,285.4,97.492,100705.629,36.46,120.172
山西,临汾市,43.102,62.098,16.756,19.423,1.195,61.816,-5.105,-3.166,286.219,78.565,89903.095,36.227,111.398
山西,吕梁市,34.119,49.487,13.912,20.074,1.07,68.37,-7.349,-0.534,283.874,78.261,87638.007,37.663,111.27
山西,大同市,23.501,31.085,8.272,8.056,0.477,68.853,-3.895,-0.38,279.663,86.054,87484.454,39.911,113.713
山西,太原市,19.246,35.193,8.083,20.63,0.854,70.221,-4.928,-1.967,280.346,89.691,87704.649,37.967,112.321
山西,忻州市,29.852,39.777,10.893,8.465,0.569,74.95,-4.231,2.152,281.567,84.691,86207.934,38.877,112.391
山西,晋中市,23.443,34.707,8.048,14.09,0.685,73.959,-5.153,-5.493,279.968,89.543,88542.408,37.328,112.997
山西,晋城市,25.734,45.987,11.27,16.114,1.115,76.664,-4.102,-6.003,284.99,80.784,90256.926,35.625,112.752
山西,朔州市,27.296,37.386,9.017,12.778,0.713,66.505,-4.028,1.087,281.684,84.69,86733.252,39.619,112.655
山西,运城市,52.271,80.694,16.0,31.484,1.55,48.691,-5.039,-1.043,289.872,76.413,93913.132,35.205,111.071
山西,长治市,21.888,37.092,9.987,12.62,0.826,79.814,-4.921,-4.209,282.129,86.705,88742.734,36.48,112.915
山西,阳泉市,21.629,30.2,6.382,15.144,0.606,72.778,-4.703,-2.708,278.567,98.15,90599.393,38.031,113.512
广东,东莞市,35.618,58.359,9.288,34.669,0.682,44.053,-2.358,5.388,297.359,87.503,100849.146,22.931,113.81
广东,中山市,21.776,33.786,6.027,15.514,0.419,53.619,-2.656,4.926,297.132,89.637,100845.811,22.5,113.383
广东,云浮市,19.411,26.879,1.776,7.86,0.434,50.983,-1.492,7.405,297.993,77.855,98718.899,22.776,111.818
广东,佛山市,27.904,49.915,9.89,36.661,0.625,32.677,-2.395,5.789,298.509,79.051,100816.934,23.035,112.979
广东,广州市,34.84,61.259,11.172,43.22,0.688,34.09,-2.477,5.872,297.554,82.777,99965.273,23.339,113.525
广东,惠州市,20.684,29.63,3.457,12.455,0.333,56.566,-2.7,5.055,296.82,87.332,99061.609,23.244,114.485
广东,揭阳市,37.257,58.069,8.109,17.299,0.713,63.904,-3.58,2.582,296.714,88.44,99729.449,23.323,116.123
广东,梅州市,34.205,51.678,6.058,18.537,0.723,56.379,-2.38,5.219,296.649,81.245,97677.586,24.169,116.07
广东,汕头市,26.969,40.809,7.036,14.944,0.465,79.096,-4.399,1.487,296.711,89.529,100860.003,23.339,116.614
广东,汕尾市,22.374,33.231,2.395,6.655,0.388,62.99,-3.765,3.179,296.519,91.695,99449.328,23.024,115.527
广东,江门市,16.372,23.751,2.165,8.454,0.265,59.234,-2.102,5.74,297.347,86.87,100255.978,22.289,112.676
广东,河源市,23.513,30.518,2.271,9.691,0.383,53.305,-1.098,5.404,296.777,81.832,97828.352,24.021,114.969
广东,深圳市,27.052,42.651,6.664,23.448,0.51,53.638,-3.506,4.713,296.627,93.219,100399.657,22.667,114.143
广东,清远市,28.963,44.453,8.851,27.033,0.551,40.452,-1.706,7.316,296.548,81.643,97219.652,24.295,112.871
广东,湛江市,15.359,25.328,4.116,5.899,0.484,53.659,-2.272,4.861,299.219,78.529,100553.331,21.091,110.163
广东,潮州市,35.479,54.391,7.071,18.558,0.665,64.016,-3.559,2.952,296.087,86.514,99202.965,23.755,116.754
广东,珠海市,11.69,17.532,1.727,4.443,0.183,68.205,-2.795,4.54,296.682,94.143,100941.388,22.095,113.317
广东,肇庆市,23.688,34.293,3.734,15.638,0.481,42.967,-2.145,6.624,297.834,78.859,98821.788,23.505,112.199
广东,茂名市,16.315,24.168,3.74,5.346,0.456,56.081,-2.538,6.735,297.323,84.522,98822.719,22.013,110.952
广东,阳江市,15.032,21.012,1.504,3.904,0.239,60.955,-1.7,6.045,297.059,87.36,99394.408,22.042,111.786
广东,韶关市,25.907,36.743,10.432,19.232,0.688,50.399,-0.421,6.759,296.355,79.31,96472.189,24.785,113.819
广西,北海市,17.229,30.016,4.161,7.716,0.584,56.182,-0.834,4.941,298.559,80.788,100551.834,21.674,109.37
广西,南宁市,22.626,36.167,5.482,13.685,0.675,49.733,1.131,7.585,299.052,75.893,98554.997,23.051,108.469
广西,崇左市,25.588,32.085,4.183,5.84,0.484,69.003,3.626,6.826,299.416,70.355,97279.976,22.483,107.291
广西,来宾市,26.463,38.353,5.544,9.809,0.603,44.774,0.789,8.683,298.209,77.523,97404.016,23.859,109.417
广西,柳州市,24.85,33.856,6.37,8.22,0.505,47.718,0.782,8.176,297.689,78.559,96725.915,24.956,109.372
广西,桂林市,22.776,29.529,5.219,6.927,0.474,45.522,1.299,7.84,296.44,81.366,95192.048,25.353,110.513
广西,梧州市,26.867,37.097,4.213,12.163,0.749,43.751,-0.371,6.96,298.228,77.116,98354.451,23.484,110.996
广西,河池市,24.404,34.69,5.348,5.863,0.579,69.803,1.433,7.825,298.303,69.673,94354.02,24.628,107.843
广西,玉林市,22.981,34.932,8.698,9.19,0.702,50.09,-0.895,7.743,298.477,78.435,98780.609,22.452,110.164
广西,百色市,28.463,37.879,7.815,4.896,0.659,87.886,4.288,5.622,299.674,54.948,92303.929,23.981,106.292
广西,贵港市,32.448,47.401,7.648,13.786,0.87,39.734,0.772,7.376,299.108,75.49,99120.189,23.322,110.021
广西,贺州市,26.881,34.247,3.649,8.038,0.606,48.44,-1.215,7.811,296.615,82.747,96555.194,24.364,111.394
广西,钦州市,20.008,33.74,5.387,11.759,0.757,48.478,0.394,6.919,298.307,83.156,99789.126,22.173,109.01
广西,防城港市,14.412,21.749,2.878,5.871,0.454,56.004,1.939,7.405,297.574,84.228,98200.114,21.88,108.002
新疆,乌鲁木齐市,13.704,20.543,2.072,8.963,0.26,75.365,-0.397,1.248,281.503,36.475,84481.248,43.746,87.818
新疆,五家渠市,16.417,31.3,3.89,19.273,0.417,68.863,-1.243,0.467,288.113,27.823,96715.693,44.363,87.517
新疆,伊犁哈萨克自治州,7.733,12.28,1.745,4.58,0.233,82.046,-0.81,1.526,279.344,52.796,80543.15,43.438,82.146
新疆,克孜勒苏柯尔克孜自治州,17.255,29.494,0.533,0.982,0.164,79.752,2.751,-0.069,273.265,57.387,70701.36,39.661,75.949
新疆,克拉玛依市,5.757,10.722,1.964,3.577,0.226,79.211,-2.141,-1.231,288.208,30.668,97575.014,45.457,85.207
新疆,北屯市,3.28,4.21,1.672,2.28,0.31,91.26,-2.662,1.192,285.51,26.686,95758.316,47.27,87.868
新疆,博尔塔拉蒙古自治州,9.187,18.02,3.14,4.33,0.237,81.235,0.244,1.349,281.102,46.95,86400.237,44.714,82.114
新疆,双河市,12.204,29.332,5.194,7.8,0.284,81.194,-1.938,-0.194,287.266,40.656,98013.14,44.87,82.474
新疆,可克达拉市,15.754,32.036,4.97,16.87,0.482,75.68,-5.104,1.086,289.468,35.55,94762.05,43.918,80.786
新疆,和田地区,128.861,138.881,0.405,0.779,0.142,66.378,-0.519,-0.47,276.447,51.475,74174.721,37.059,80.934
新疆,哈密市,21.187,22.602,0.72,0.972,0.16,73.149,-1.431,-0.059,285.933,18.026,88491.856,43.042,93.517
新疆,喀什地区,85.677,96.519,0.802,1.624,0.174,69.269,0.654,0.614,278.219,49.834,76330.103,38.125,77.178
新疆,图木舒克市,130.988,131.863,1.035,0.747,0.15,46.492,-0.5,0.143,287.475,45.913,89499.12,39.892,79.182
新疆,塔城地区,6.155,8.923,2.258,2.354,0.213,80.476,-0.325,1.365,283.547,38.612,89776.146,45.642,84.789
新疆,巴音郭楞蒙古自治州,58.698,63.763,0.797,0.455,0.142,67.554,0.61,-1.354,279.887,48.749,79357.588,39.463,87.481
新疆,新星市,18.515,37.63,4.095,9.93,0.45,71.13,-1.36,-0.6,289.865,14.1,92858.37,42.75,93.68
新疆,昆玉市,212.287,304.21,1.557,4.403,0.19,49.39,-2.0,-0.24,288.1,39.137,87167.393,37.457,79.093
新疆,昌吉回族自治州,9.134,10.995,1.162,3.06,0.184,77.529,-1.157,0.346,284.658,27.565,90096.079,44.342,88.608
新疆,石河子市,12.265,18.725,5.185,12.91,0.29,77.415,-2.505,0.7,288.12,26.51,94836.52,44.245,86.035
新疆,胡杨河市,9.962,15.584,2.202,3.028,0.238,86.216,-1.35,-0.424,287.666,39.056,98023.126,44.852,84.772
新疆,铁门关市,56.283,102.463,1.757,1.833,0.173,65.123,2.413,-1.79,288.36,43.723,91882.427,41.773,85.66
新疆,阿克苏地区,62.527,76.975,1.178,1.134,0.16,63.297,1.382,0.255,283.167,51.742,85556.876,40.965,81.578
新疆,阿勒泰地区,5.056,5.402,0.853,0.812,0.171,84.334,-2.669,1.476,282.364,26.867,88771.858,46.902,88.421
新疆,阿拉尔市,100.723,128.493,1.371,1.968,0.184,51.845,1.357,1.601,287.145,44.833,90372.545,40.629,80.998
江苏,南京市,35.996,58.512,8.408,31.758,0.748,48.972,0.108,2.633,297.476,70.906,100750.664,31.899,118.876
江苏,南通市,38.202,64.634,12.01,39.515,0.615,55.065,-2.061,5.466,295.144,81.461,101046.277,32.201,120.979
江苏,宿迁市,50.788,67.089,9.119,29.91,0.859,36.784,-2.113,0.387,293.759,83.357,100863.063,33.765,118.495
江苏,常州市,43.864,68.672,8.808,38.521,0.787,57.888,-1.398,4.404,296.935,72.259,100861.533,31.613,119.666
江苏,徐州市,44.322,60.267,9.511,25.472,0.875,32.768,-1.043,-0.99,291.795,85.301,100666.284,34.363,117.513
江苏,扬州市,45.91,75.333,8.431,37.124,0.79,49.04,-1.237,3.151,296.143,76.634,100914.094,32.709,119.486
江苏,无锡市,48.191,80.613,11.002,51.147,0.877,53.486,-1.929,4.814,296.288,74.211,100807.674,31.546,120.066
江苏,泰州市,50.915,84.065,9.77,43.813,0.83,47.909,-1.329,4.217,295.858,77.56,100919.877,32.605,120.048
江苏,淮安市,46.992,69.827,8.772,31.016,0.793,43.937,-1.522,1.225,294.694,81.325,100851.854,33.362,118.985
江苏,盐城市,46.112,70.219,10.271,27.28,0.613,51.122,-2.245,2.186,293.28,86.677,100977.136,33.529,120.156
江苏,苏州市,42.937,74.94,11.295,48.37,0.781,57.657,-2.425,4.888,295.791,77.411,101014.453,31.374,120.661
江苏,连云港市,39.668,59.353,9.687,27.491,0.706,42.605,-3.061,-1.063,291.117,88.585,100829.026,34.519,119.133
江苏,镇江市,46.214,73.853,9.27,40.862,0.818,50.591,-1.336,4.118,296.759,73.695,100816.118,32.016,119.49
江西,上饶市,25.766,36.51,11.466,10.089,0.596,50.949,-0.013,4.761,298.065,66.05,98744.12,28.778,117.47
江西,九江市,21.41,30.654,6.024,8.335,0.425,62.081,0.082,5.681,297.715,71.671,98547.624,29.313,115.444
江西,南昌市,21.722,34.13,8.453,14.685,0.667,54.74,0.677,5.958,299.498,64.625,100429.171,28.671,116.016
江西,吉安市,23.35,31.063,8.419,7.394,0.638,62.211,0.237,7.215,298.5,67.889,98232.914,26.954,114.831
江西,宜春市,24.75,31.996,9.377,10.129,0.663,57.931,0.462,5.286,297.956,71.763,98527.356,28.29,114.974
江西,抚州市,21.262,25.425,5.492,6.823,0.38,60.735,0.181,6.248,298.095,67.511,98332.827,27.514,116.42
江西,新余市,25.814,34.854,15.321,13.308,0.793,55.604,-0.137,6.015,298.643,70.082,99423.06,27.847,114.836
江西,景德镇市,24.441,32.981,7.037,9.157,0.518,49.387,-0.125,4.941,298.231,67.309,99530.946,29.287,117.24
江西,萍乡市,27.427,36.113,11.286,11.004,0.738,53.129,0.948,5.623,297.963,69.041,97190.786,27.505,113.908
江西,赣州市,23.793,31.882,4.69,9.554,0.849,60.426,0.108,7.011,297.069,73.541,96782.669,25.692,115.279
江西,鹰潭市,23.443,28.72,11.597,10.11,0.429,54.093,0.469,6.374,298.751,63.76,99245.551,28.222,117.094
河北,保定市,20.492,27.345,6.181,11.216,0.35,76.392,-3.769,-5.691,283.085,73.605,98134.86,39.018,115.159
河北,唐山市,21.483,31.351,12.032,22.819,0.664,66.375,-6.717,-7.317,284.005,64.751,101332.042,39.731,118.354
河北,廊坊市,17.205,28.822,5.279,19.598,0.569,70.041,-4.411,-6.408,284.323,67.465,101916.335,39.267,116.632
河北,张家口市,20.956,25.203,6.922,6.12,0.37,70.716,-3.461,0.507,278.86,71.908,88049.27,40.877,115.042
河北,承德市,14.155,17.948,6.295,5.852,0.262,71.835,-6.453,-5.093,279.193,54.24,91490.034,41.339,117.578
河北,沧州市,24.486,37.521,8.336,20.328,0.624,66.221,-5.591,-7.707,282.929,83.36,101752.475,38.258,116.744
河北,石家庄市,20.999,30.004,6.23,14.25,0.522,77.593,-1.656,-5.368,282.549,85.665,98647.002,38.135,114.407
河北,秦皇岛市,17.452,24.61,9.026,11.256,0.401,73.273,-6.524,-9.425,282.117,66.883,99069.989,40.12,119.193
河北,衡水市,23.749,35.178,8.66,19.571,0.589,71.558,-3.347,-8.536,283.278,84.576,101578.594,37.755,115.813
河北,邢台市,23.584,35.416,6.89,16.034,0.595,75.009,-0.212,-10.121,283.076,85.763,100094.953,37.195,114.815
河北,邯郸市,22.732,36.771,7.716,16.36,0.717,72.659,-0.873,-11.418,283.438,85.753,99489.097,36.538,114.596
河南,三门峡市,47.263,75.054,10.965,27.895,1.209,47.06,-4.847,-0.187,288.361,84.301,91525.785,34.362,111.101
河南,信阳市,31.876,46.546,10.257,16.689,0.605,45.816,0.026,-1.776,292.384,80.19,99759.426,32.091,114.907
河南,南阳市,30.118,46.308,7.216,16.807,0.883,56.668,-4.52,-4.961,290.488,78.133,97796.116,33.034,112.323
河南,周口市,20.267,38.297,7.883,14.13,0.779,53.751,-0.387,-6.534,288.642,81.632,100638.212,33.738,114.884
河南,商丘市,27.372,39.298,7.858,17.872,0.819,43.476,0.789,-5.485,288.275,84.095,100691.2,34.277,115.718
河南,安阳市,22.32,37.177,8.538,17.856,0.899,70.626,-0.092,-11.515,283.775,86.05,99024.573,35.888,114.318
河南,平顶山市,31.849,50.778,6.76,21.277,1.035,58.684,-3.968,-5.937,288.164,79.672,98584.322,33.8,113.025
河南,开封市,19.479,38.532,7.236,14.878,0.904,61.576,-1.246,-10.651,286.356,83.371,100525.442,34.594,114.514
河南,新乡市,22.432,38.506,8.705,16.985,0.939,69.373,-3.149,-13.321,285.578,80.009,99684.971,35.256,114.111
河南,洛阳市,38.882,62.67,9.532,26.14,1.263,51.662,-4.281,-2.108,287.274,85.615,93967.33,34.274,112.019
河南,济源市,31.416,57.191,12.007,26.484,1.516,64.375,-3.375,-0.575,288.58,75.325,95833.055,35.105,112.445
河南,漯河市,23.973,45.219,6.882,16.901,0.871,59.948,-2.425,-7.772,288.522,79.813,100547.274,33.652,113.945
河南,濮阳市,18.012,35.661,8.274,16.526,0.806,63.498,0.211,-10.759,284.594,88.121,100921.987,35.809,115.283
河南,焦作市,23.612,43.011,8.615,21.127,1.167,70.253,-6.631,-3.134,289.549,66.944,99416.602,35.121,113.163
河南,许昌市,24.049,46.891,6.072,19.144,0.985,62.769,-3.794,-9.222,287.456,80.379,99933.411,34.075,113.707
河南,郑州市,26.366,48.245,7.199,20.771,1.089,68.159,-6.385,-8.031,286.406,80.236,98695.628,34.634,113.438
河南,驻马店市,30.095,48.819,7.837,17.002,0.742,50.497,-0.987,-5.346,290.242,79.963,100136.744,32.925,114.174
河南,鹤壁市,24.319,38.407,9.246,21.332,0.971,68.238,0.322,-12.858,284.189,84.527,100184.647,35.716,114.319
浙江,丽水市,22.791,31.129,5.034,8.713,0.432,64.147,-0.002,4.869,294.553,73.272,94292.045,28.194,119.51
浙江,台州市,25.419,39.364,6.704,14.646,0.41,71.143,-0.503,5.19,294.855,85.246,98531.6,28.742,121.109
浙江,嘉兴市,35.547,56.259,7.686,32.459,0.615,75.665,-2.123,4.28,296.595,73.712,101041.2,30.635,120.754
浙江,宁波市,24.161,34.997,6.252,14.64,0.395,74.976,-1.671,5.959,295.29,84.543,99953.757,29.706,121.49
浙江,杭州市,26.689,38.41,5.684,17.974,0.492,62.404,0.42,3.957,296.797,69.612,98173.533,29.891,119.464
浙江,温州市,32.118,51.176,6.711,20.283,0.599,64.574,-0.4,3.332,294.043,86.703,97383.443,27.897,120.411
浙江,湖州市,34.074,52.551,6.883,31.141,0.626,63.577,-0.735,4.636,297.232,69.561,99726.924,30.757,119.871
浙江,绍兴市,26.041,36.474,5.264,14.507,0.475,71.564,-0.237,5.439,297.368,67.709,99040.983,29.709,120.64
浙江,舟山市,7.627,13.972,1.742,3.018,0.14,74.018,-2.6,7.708,293.732,96.26,101016.642,30.038,122.23
浙江,衢州市,24.189,35.367,8.642,12.189,0.565,56.763,1.016,3.96,297.257,65.819,97436.068,28.912,118.675
浙江,金华市,24.905,35.027,4.902,13.998,0.45,64.336,-0.402,4.958,296.79,67.687,97735.162,29.109,119.967
海南,万宁市,9.914,13.891,0.93,1.606,0.144,52.694,0.192,5.859,297.65,90.35,99675.651,18.842,110.294
海南,三亚市,10.611,14.92,1.431,6.937,0.489,43.859,-2.829,2.93,297.361,87.101,98477.894,18.413,109.407
海南,东方市,8.495,10.993,0.874,1.657,0.134,53.87,-2.947,6.798,300.952,59.254,98943.508,18.971,108.838
海南,临高县,13.666,20.769,1.9,4.096,0.311,43.204,-1.327,2.596,300.829,64.893,100098.791,19.821,109.733
海南,乐东黎族自治县,10.038,13.182,0.925,3.057,0.242,48.743,-2.59,3.574,297.531,80.418,97565.718,18.659,109.072
海南,五指山市,11.69,14.482,1.332,3.488,0.236,49.182,-0.712,4.45,296.346,79.426,94400.216,18.81,109.518
海南,儋州市,13.051,17.809,1.61,3.556,0.228,52.486,-0.31,1.619,301.287,58.641,99746.683,19.568,109.399
海南,定安县,11.137,17.803,1.673,3.752,0.302,33.462,-1.897,5.7,299.397,79.303,99873.798,19.47,110.28
海南,屯昌县,10.584,15.122,1.124,2.828,0.232,37.638,-1.576,5.69,299.39,75.974,99087.716,19.342,110.076
海南,文昌市,10.008,15.823,1.026,1.74,0.191,42.758,-1.82,6.618,298.324,87.29,100679.062,19.707,110.773
海南,昌江黎族自治县,10.038,12.481,1.24,2.571,0.157,54.56,0.046,5.186,300.998,56.298,97935.921,19.233,109.016
海南,海口市,11.715,19.918,2.148,4.827,0.347,32.057,-1.982,5.505,299.907,76.808,100425.148,19.842,110.393
海南,澄迈县,12.419,19.999,2.23,4.719,0.35,35.27,-1.911,4.513,300.471,70.487,99951.547,19.676,109.989
海南,琼中黎族苗族自治县,11.371,14.743,0.996,2.956,0.198,46.899,0.528,5.405,298.639,71.94,96942.926,19.087,109.847
海南,琼海市,10.14,15.277,1.232,2.347,0.187,42.323,-1.18,5.552,298.78,84.627,100466.705,19.22,110.43
海南,白沙黎族自治县,11.1,13.814,1.236,2.821,0.185,54.455,1.11,4.996,299.936,60.176,96623.875,19.2,109.388
海南,陵水黎族自治县,11.377,14.803,0.713,3.426,0.291,48.77,0.231,3.37,297.346,89.521,99032.886,18.581,109.913
湖北,仙桃市,25.989,39.255,7.194,14.07,0.675,55.757,-0.491,1.01,297.962,70.97,100480.317,30.284,113.417
湖北,十堰市,27.959,46.726,9.995,13.351,0.765,56.058,-3.832,-0.482,289.749,85.288,92926.246,32.462,110.476
湖北,咸宁市,23.358,31.534,5.444,8.128,0.52,68.966,0.909,3.787,297.792,72.4,98668.866,29.621,114.178
湖北,天门市,28.09,42.444,8.726,17.23,0.808,46.163,-2.107,-0.829,297.067,72.631,100453.095,30.633,113.053
湖北,孝感市,33.08,50.848,9.028,21.003,0.814,37.678,-2.991,-1.872,294.846,78.175,99955.961,31.116,113.869
湖北,宜昌市,29.412,42.798,8.37,15.808,0.854,44.916,-2.555,-2.66,292.226,86.089,93556.734,30.746,111.129
湖北,恩施土家族苗族自治州,29.822,38.844,7.911,10.016,0.676,46.201,-3.498,0.843,291.449,88.667,89019.803,30.195,109.552
湖北,武汉市,31.304,48.296,8.185,24.034,0.873,38.736,-1.719,-0.513,296.608,74.59,100435.425,30.606,114.349
湖北,潜江市,24.401,35.553,7.384,13.37,0.706,52.449,-0.991,0.75,297.932,70.67,100420.722,30.33,112.77
湖北,神农架林区,32.361,42.506,8.785,7.375,0.521,65.548,-2.715,0.291,286.195,93.293,82729.871,31.592,110.49
湖北,荆州市,23.973,35.399,8.077,12.76,0.74,54.997,-0.59,1.279,297.838,72.177,100171.478,30.01,112.512
湖北,荆门市,27.673,43.328,9.318,18.534,0.872,41.841,-2.198,-2.629,295.127,77.338,99506.633,31.059,112.616
湖北,襄阳市,26.662,44.286,6.853,16.015,0.819,52.046,-2.212,-3.415,291.177,83.543,96968.996,31.919,111.96
湖北,鄂州市,33.073,48.203,9.767,22.711,0.913,46.544,-0.879,0.63,297.977,70.816,100467.556,30.337,114.794
湖北,随州市,33.553,51.192,9.503,16.457,0.821,44.238,-3.935,-3.172,292.43,81.133,98932.129,31.809,113.43
湖北,黄冈市,32.09,45.123,8.81,14.759,0.658,52.009,-1.859,1.526,296.372,74.761,98839.398,30.702,115.358
湖北,黄石市,29.527,41.058,7.65,15.176,0.698,59.309,-0.114,2.78,298.034,71.171,99511.98,29.925,115.034
湖南,娄底市,23.413,36.477,8.003,10.644,0.934,53.14,-1.014,5.083,296.871,77.52,96439.095,27.715,111.632
湖南,岳阳市,23.963,32.982,7.793,9.775,0.514,68.058,-0.026,4.977,298.339,72.035,99315.676,29.081,113.275
湖南,常德市,21.421,32.897,8.85,11.043,0.785,48.83,-1.027,0.897,297.019,76.109,98463.116,29.271,111.524
湖南,张家界市,23.435,34.626,7.186,8.96,0.937,38.677,-2.337,0.117,294.092,86.714,94618.542,29.379,110.526
湖南,怀化市,20.898,35.64,6.244,7.564,0.826,51.482,0.329,5.707,296.952,77.008,95464.305,27.535,110.071
湖南,株洲市,23.986,33.657,11.13,11.097,0.616,58.249,0.872,7.048,298.352,67.166,97291.642,27.109,113.513
湖南,永州市,20.192,26.674,3.958,5.05,0.423,58.535,1.183,8.968,297.334,75.299,95906.509,25.748,111.723
湖南,湘潭市,22.052,33.453,8.905,12.16,0.744,55.929,-0.324,5.841,299.24,68.319,99385.222,27.744,112.619
湖南,湘西土家族苗族自治州,24.665,41.979,6.875,12.14,0.922,25.042,-2.926,2.346,295.073,85.427,94459.091,28.708,109.718
湖南,益阳市,20.276,31.496,6.348,8.614,0.735,58.506,-0.741,4.471,297.669,74.776,97969.787,28.525,111.919
湖南,衡阳市,21.69,33.298,8.566,10.81,0.665,58.791,0.179,7.812,299.44,66.862,98952.566,26.781,112.565
湖南,邵阳市,23.697,34.895,6.279,7.105,0.62,57.562,1.4,6.55,296.553,75.807,94259.493,26.893,110.881
湖南,郴州市,21.955,35.082,11.602,13.574,0.881,61.311,-0.16,9.23,296.53,74.984,95211.382,25.769,113.109
湖南,长沙市,25.343,36.074,9.933,14.119,0.703,56.595,-0.033,5.258,298.377,71.741,98854.686,28.235,113.159
甘肃,临夏回族自治州,36.009,66.662,6.779,13.887,0.459,78.389,-2.563,-0.223,284.345,59.016,77341.898,35.617,103.291
甘肃,兰州市,29.666,68.266,8.29,16.192,0.396,73.537,-3.625,-1.358,285.475,51.262,78988.543,36.359,103.633
甘肃,嘉峪关市,15.342,47.41,15.315,19.562,0.427,84.605,-0.855,-0.21,280.045,52.837,81928.995,39.798,98.145
甘肃,天水市,27.108,42.205,4.942,9.314,0.302,77.426,-3.369,-0.045,287.988,58.045,82453.517,34.645,105.739
甘肃,定西市,27.404,45.822,4.664,8.23,0.284,78.747,-3.235,1.45,284.374,63.638,77134.506,35.124,104.432
甘肃,平凉市,30.854,51.984,5.359,16.331,0.401,74.985,-1.624,-0.102,288.757,59.876,84284.79,35.304,106.644
甘肃,庆阳市,30.536,50.736,8.315,9.184,0.408,78.746,-2.82,0.032,289.433,60.964,85566.212,36.149,107.596
甘肃,张掖市,25.862,33.662,1.866,2.187,0.177,65.099,0.404,-2.034,276.359,71.814,74792.986,38.94,99.855
甘肃,武威市,25.33,51.149,6.844,3.661,0.201,71.498,-1.413,-1.679,285.154,53.014,81343.224,38.163,103.073
甘肃,甘南藏族自治州,24.901,29.641,3.72,2.053,0.265,84.223,-3.579,1.366,277.77,76.964,67572.328,34.331,102.768
甘肃,白银市,26.092,61.096,7.747,12.737,0.351,71.026,-2.374,-0.273,287.029,48.744,81351.032,36.59,104.646
甘肃,酒泉市,14.315,15.241,1.191,1.027,0.144,64.907,-1.583,-1.304,279.739,46.315,79292.32,40.236,96.062
甘肃,金昌市,26.018,64.811,4.016,3.216,0.231,74.726,3.262,-3.888,283.083,58.346,80618.961,38.44,102.048
甘肃,陇南市,26.522,37.161,5.777,5.703,0.265,81.664,-2.191,-0.986,287.599,62.225,81960.828,33.599,105.224
福建,三明市,21.305,25.76,4.758,10.718,0.532,52.849,0.392,5.4,295.577,73.954,94878.465,26.29,117.395
福建,南平市,23.892,28.825,7.31,8.572,0.453,59.09,-0.812,4.021,295.458,73.54,95634.018,27.324,118.143
福建,厦门市,30.33,54.8,11.565,28.038,0.505,57.582,-0.56,1.573,295.793,81.352,100128.098,24.642,118.11
福建,宁德市,26.141,36.067,4.974,8.358,0.483,75.246,-0.263,2.543,293.322,84.58,95080.529,26.968,119.474
福建,泉州市,27.117,45.111,7.058,17.722,0.459,59.381,-0.027,3.823,294.517,83.651,96396.494,25.201,118.249
福建,漳州市,27.437,41.182,5.088,14.406,0.367,64.772,-1.647,2.836,295.121,85.822,97974.134,24.372,117.444
福建,福州市,30.566,49.194,6.704,15.387,0.609,72.19,-0.007,2.255,294.495,82.793,97146.389,26.083,119.206
福建,莆田市,32.824,53.576,7.099,16.188,0.552,73.881,0.653,2.423,294.753,82.901,97917.049,25.445,118.864
福建,龙岩市,21.529,28.659,4.0,12.371,0.445,56.178,-0.645,5.895,295.155,80.529,94900.923,25.256,116.739
西藏,山南市,15.463,18.329,1.497,1.31,0.179,97.118,3.761,1.684,278.693,67.198,66104.56,28.295,92.274
西藏,拉萨市,16.001,20.79,0.28,2.284,0.172,100.13,7.508,1.558,273.823,36.244,56555.925,30.043,91.093
西藏,日喀则市,8.722,10.55,0.324,0.378,0.122,97.666,7.112,1.208,268.868,39.361,55396.386,29.483,86.493
西藏,昌都市,9.995,11.362,0.899,0.586,0.146,91.896,5.603,5.132,274.908,61.399,59033.048,30.753,97.044
西藏,林芝市,16.984,18.598,1.677,1.326,0.178,92.844,0.842,3.213,277.245,87.016,66378.89,29.184,95.25
西藏,玉树藏族自治州,11.329,11.866,0.251,0.476,0.129,84.825,1.986,0.295,271.484,64.085,57202.755,34.196,94.317
西藏,那曲市,9.042,9.503,0.131,0.174,0.123,93.125,5.558,-0.047,270.094,43.094,55397.654,32.709,89.262
西藏,阿里地区,4.646,5.134,0.171,0.308,0.12,96.362,5.759,0.172,265.182,38.324,54831.527,33.013,82.553
贵州,六盘水市,24.26,40.693,8.656,11.745,0.484,86.937,4.358,-1.157,294.67,43.176,82654.814,26.106,104.896
贵州,安顺市,25.775,39.629,7.025,8.102,0.386,93.004,1.699,1.357,297.0,46.414,87551.384,25.986,105.978
贵州,毕节市,31.337,52.47,7.614,8.631,0.623,84.067,1.58,-2.74,290.613,74.769,83036.145,27.063,105.211
贵州,贵阳市,33.712,55.437,5.462,16.207,0.554,85.944,2.479,1.019,294.087,66.595,87623.006,26.845,106.71
贵州,遵义市,36.865,48.533,8.17,10.443,0.53,73.682,2.015,-1.186,292.838,84.836,89727.654,28.167,107.102
贵州,铜仁市,24.938,40.825,10.332,8.542,0.558,61.946,1.117,3.459,295.464,78.182,91973.646,27.937,108.534
贵州,黔东南苗族侗族自治州,22.652,31.474,6.39,4.404,0.353,72.052,1.986,6.635,295.954,76.448,91948.166,26.495,108.574
贵州,黔南布依族苗族自治州,26.39,35.721,4.864,4.494,0.329,87.775,1.839,4.656,296.283,64.706,89726.54,26.0,107.265
贵州,黔西南布依族苗族自治州,18.861,30.29,6.86,6.476,0.369,91.61,4.245,1.692,299.307,35.544,87916.493,25.256,105.467
辽宁,丹东市,28.701,37.818,7.0,9.914,0.5,67.049,-3.625,1.278,286.182,63.958,99038.756,40.554,124.376
辽宁,大连市,29.491,41.481,6.051,12.147,0.519,69.808,-5.581,-2.448,284.163,80.129,101100.398,39.591,122.22
辽宁,抚顺市,30.511,33.269,7.36,9.573,0.467,63.714,-4.486,-3.463,284.082,72.639,97430.437,41.841,124.65
辽宁,朝阳市,17.841,24.495,8.502,10.376,0.424,73.328,-3.975,-7.142,281.274,51.679,97057.05,41.545,120.053
辽宁,本溪市,36.052,40.796,8.313,11.137,0.585,63.214,-2.598,-0.018,285.453,69.585,96705.144,41.232,124.544
辽宁,沈阳市,26.765,37.31,9.429,19.958,0.571,58.739,-4.514,-5.887,285.193,55.212,101631.851,42.081,123.159
辽宁,盘锦市,33.231,47.093,12.491,22.613,0.689,58.683,-3.507,-7.217,284.054,68.479,102160.164,41.13,122.01
辽宁,营口市,40.039,53.41,8.192,20.273,0.679,53.657,-3.835,-3.067,285.077,76.359,99794.537,40.395,122.478
辽宁,葫芦岛市,19.606,27.83,10.898,14.708,0.532,72.784,-2.705,-8.769,281.767,63.79,99659.485,40.66,120.215
辽宁,辽阳市,41.343,52.711,10.394,24.662,0.835,44.223,-2.638,-3.514,285.036,76.791,100104.886,41.153,123.261
辽宁,铁岭市,20.782,25.772,5.83,11.128,0.372,71.371,-6.193,-5.023,285.074,46.759,100154.06,42.653,124.158
辽宁,锦州市,23.913,34.207,11.506,16.342,0.546,71.136,-3.72,-7.35,283.914,54.448,101426.309,41.502,121.659
辽宁,阜新市,17.275,24.569,8.452,10.331,0.366,74.943,-4.945,-6.353,284.333,38.22,100059.968,42.289,121.968
辽宁,鞍山市,38.366,50.927,9.132,20.781,0.708,54.096,-3.407,-2.474,285.157,72.994,100136.614,40.731,123.007
重庆,重庆城区,36.328,49.276,10.531,15.906,0.657,65.525,-0.763,-1.424,294.673,78.322,94165.472,29.824,107.125
重庆,重庆郊县,31.056,40.782,11.297,8.953,0.498,59.174,-3.83,-0.228,292.923,80.983,90476.563,30.334,108.755
陕西,咸阳市,58.834,98.445,9.556,31.399,1.135,56.326,-4.084,-0.363,291.373,69.694,91087.397,34.779,108.367
陕西,商洛市,41.825,69.1,9.974,16.132,0.773,56.199,-2.824,-0.329,289.211,84.035,89042.014,33.64,109.889
陕西,安康市,32.155,50.164,10.561,10.808,0.567,61.386,-4.887,-0.45,289.827,80.169,89497.376,32.735,108.932
陕西,宝鸡市,42.942,67.382,4.791,15.941,0.586,74.903,-2.932,-0.137,289.255,67.081,86077.032,34.386,107.193
陕西,延安市,43.088,71.553,15.697,24.425,0.952,64.184,-3.145,0.676,287.894,74.956,87372.752,36.432,109.316
陕西,榆林市,33.02,57.435,15.81,25.901,0.95,72.611,-3.488,1.306,287.431,69.599,87795.075,38.041,109.581
陕西,汉中市,31.949,49.935,9.111,9.872,0.525,74.769,-4.026,-0.859,291.093,65.946,88532.887,33.088,107.098
陕西,渭南市,53.553,93.233,16.994,33.774,1.463,47.418,-5.486,-2.052,291.405,72.719,93443.547,34.919,109.855
陕西,西安市,57.065,96.022,8.777,32.966,1.033,55.174,-2.824,-1.806,290.832,71.711,90163.487,34.12,108.77
陕西,铜川市,56.246,92.24,14.659,27.933,1.357,56.642,-4.109,0.413,289.101,77.929,88905.757,35.198,109.058
青海,保亭黎族苗族自治县,12.642,16.504,1.892,8.332,0.472,43.228,-0.96,2.75,296.522,88.406,96904.618,18.566,109.618
青海,吐鲁番市,19.595,22.84,1.648,1.905,0.2,72.545,0.852,-0.14,287.417,20.844,90458.779,42.386,89.851
青海,果洛藏族自治州,9.797,10.085,0.65,0.767,0.154,84.981,0.187,2.18,274.176,71.597,59892.772,34.127,99.404
青海,海东市,33.446,42.39,7.371,5.508,0.298,80.344,-5.376,0.694,280.536,64.405,72721.034,36.347,102.34
青海,海北藏族自治州,23.769,26.894,3.508,2.32,0.168,80.301,-3.113,1.421,273.11,84.202,65376.862,37.775,100.288
青海,海南藏族自治州,22.292,23.976,3.174,1.526,0.174,78.659,-3.05,-0.16,276.838,71.421,66411.195,35.89,100.272
青海,海西蒙古族藏族自治州,28.968,29.544,0.75,0.348,0.134,73.762,2.741,-1.631,273.718,56.491,64504.94,36.677,94.519
青海,西宁市,38.398,58.507,7.427,9.726,0.409,84.73,-4.109,1.527,277.434,75.427,69562.119,36.842,101.423
青海,黄南藏族自治州,22.438,24.468,3.316,1.243,0.205,80.83,-4.228,2.308,276.657,74.628,65741.626,35.022,101.631
香港,香港特别行政区,13.97,21.285,2.75,14.875,0.22,61.685,-3.88,3.965,296.395,95.925,100596.365,22.45,114.22
黑龙江,七台河市,15.953,33.278,3.537,11.159,0.312,79.99,1.642,-3.539,280.711,25.596,99526.339,45.87,130.943
黑龙江,伊春市,4.544,6.228,1.293,2.268,0.208,79.326,2.101,-2.18,280.13,24.178,98068.574,47.772,129.184
黑龙江,佳木斯市,7.384,13.054,1.581,4.288,0.25,76.099,3.02,-3.567,281.62,25.336,101457.686,47.207,132.11
黑龙江,双鸭山市,7.554,12.316,1.582,4.058,0.224,73.58,3.432,-3.786,281.361,26.026,101013.689,46.722,132.643
黑龙江,哈尔滨市,9.33,13.599,1.928,6.271,0.285,76.109,-2.878,-2.959,281.889,25.56,99887.389,45.634,127.964
黑龙江,大兴安岭地区,2.176,2.898,0.899,1.179,0.165,76.802,1.651,0.145,278.777,28.747,95998.313,52.286,124.212
黑龙江,大庆市,16.401,24.066,4.519,12.914,0.359,78.441,-2.475,-1.751,283.266,24.73,101282.106,46.327,124.687
黑龙江,牡丹江市,12.953,22.365,2.637,8.6,0.331,72.134,-1.734,-4.224,279.509,27.925,96654.919,44.592,129.883
黑龙江,绥化市,11.338,16.206,1.749,5.905,0.294,75.991,-0.365,-0.907,282.3,24.828,100477.671,46.89,126.634
黑龙江,鸡西市,11.904,19.782,2.323,7.459,0.278,70.703,2.365,-4.937,281.648,24.502,100742.432,45.626,132.289
黑龙江,鹤岗市,6.433,11.312,1.474,3.585,0.298,78.448,2.644,-3.404,281.412,22.841,100494.287,47.661,130.778
黑龙江,黑河市,3.769,5.062,1.22,1.744,0.192,77.908,1.493,0.064,281.1,22.297,98407.202,49.268,127.004
黑龙江,齐齐哈尔市,15.681,21.939,2.581,7.62,0.334,76.822,1.289,1.596,283.132,23.403,100442.912,47.715,124.57
