province,city,PM2.5,PM10,SO2,NO2,CO,O3,U,V,TEMP,RH,PSFC,lat,lon
上海,上海市,28.673,66.616,8.898,28.06,0.425,83.261,-8.415,-1.495,287.256,84.391,101590.348,31.173,121.42
云南,临沧市,35.429,48.6,5.294,6.623,0.515,94.289,7.208,-0.181,293.203,53.551,83714.663,23.935,99.686
云南,丽江市,17.568,31.436,5.865,2.719,0.704,104.495,11.222,-0.025,285.487,57.993,74292.592,26.96,100.515
云南,保山市,37.81,53.952,5.737,6.21,0.62,94.05,7.619,0.265,290.483,61.107,81698.993,24.953,98.962
云南,大理白族自治州,24.797,36.74,5.325,3.841,0.569,100.75,10.125,0.881,288.061,58.752,77871.839,25.726,100.053
云南,德宏傣族景颇族自治州,52.258,68.981,5.954,6.286,0.567,92.293,4.843,0.021,293.226,59.282,85884.652,24.535,98.052
云南,怒江傈僳族自治州,25.131,35.688,4.558,1.002,0.415,93.833,7.058,0.907,281.141,88.963,72620.145,26.916,98.885
云南,文山壮族苗族自治州,38.588,50.751,5.471,4.542,0.608,94.572,8.995,5.211,296.163,47.167,86101.096,23.696,104.735
云南,昆明市,28.428,41.443,6.315,7.281,0.535,105.731,13.63,2.616,290.684,47.061,78878.468,25.384,102.863
云南,昭通市,61.966,85.623,10.344,6.85,0.593,100.512,4.246,0.399,292.04,58.238,83288.232,27.667,103.985
云南,普洱市,32.54,47.23,4.24,11.096,0.522,84.563,6.637,0.259,295.836,42.32,85727.894,23.159,100.718
云南,曲靖市,28.059,40.105,6.896,5.905,0.422,102.155,14.381,3.069,292.035,41.169,79526.554,25.737,103.929
云南,楚雄彝族自治州,27.045,38.011,5.6,4.229,0.514,103.103,11.019,2.206,291.632,47.511,80653.863,25.328,101.567
云南,玉溪市,29.567,41.086,4.677,4.898,0.396,97.955,9.353,1.049,293.807,47.532,83189.992,24.136,102.217
云南,红河哈尼族彝族自治州,34.418,48.495,4.427,4.667,0.409,100.142,8.275,2.004,295.407,42.51,84851.623,23.451,103.034
云南,西双版纳傣族自治州,50.743,83.456,3.648,23.578,1.1,70.125,5.186,1.057,298.705,32.485,88684.8,21.939,100.912
云南,迪庆藏族自治州,14.012,29.366,5.204,0.954,0.47,106.514,9.864,1.173,277.262,84.317,67020.353,27.957,99.459
内蒙古,乌兰察布市,30.048,58.335,11.893,15.346,0.417,66.785,0.187,5.367,282.551,30.789,85904.76,41.691,112.44
内蒙古,乌海市,48.651,144.871,23.665,19.261,0.548,90.82,0.121,0.466,284.102,58.061,87453.671,39.396,106.856
内蒙古,兴安盟,5.584,8.001,1.53,1.95,0.214,75.965,4.784,-7.248,276.472,35.457,94992.483,46.244,121.341
内蒙古,包头市,35.158,62.622,11.956,22.244,0.394,64.506,1.281,5.012,283.2,34.777,85789.771,41.549,110.276
内蒙古,呼伦贝尔市,3.45,4.667,1.656,1.439,0.193,71.496,2.572,-3.965,272.093,63.04,93729.038,49.636,121.171
内蒙古,呼和浩特市,34.305,90.885,13.572,30.964,0.555,74.078,-1.205,3.884,283.866,33.107,86241.098,40.578,111.513
内蒙古,巴彦淖尔市,71.389,98.19,11.569,12.946,0.346,62.175,1.87,4.062,283.584,34.189,87111.767,41.446,107.582
内蒙古,赤峰市,7.667,13.842,2.865,4.337,0.214,64.917,1.359,-3.036,278.81,25.517,92281.088,43.226,118.892
内蒙古,通辽市,11.343,16.885,2.124,2.954,0.204,71.195,5.075,-6.955,280.412,21.71,98215.025,43.814,121.591
内蒙古,鄂尔多斯市,41.185,88.433,13.454,14.313,0.448,71.341,-1.212,3.624,283.361,63.57,86824.73,39.407,108.63
内蒙古,锡林郭勒盟,13.595,15.294,3.532,3.045,0.183,64.713,-1.762,2.544,278.632,31.009,89159.885,44.179,115.482
内蒙古,阿拉善盟,76.705,88.978,5.495,3.376,0.197,64.55,5.504,-3.507,281.696,36.152,87529.66,40.473,102.467
北京,北京市,23.964,78.122,9.322,26.995,0.529,70.246,-3.771,0.109,286.522,23.536,98140.559,40.158,116.395
台湾,台湾省,11.895,15.245,5.026,17.147,0.147,47.514,0.864,2.755,294.462,77.689,93001.908,23.757,120.975
吉林,吉林市,22.372,53.953,4.494,8.098,0.436,67.84,7.335,-3.7,276.187,65.019,97022.696,43.573,126.859
吉林,四平市,18.307,38.757,2.479,6.471,0.329,65.58,6.271,-5.803,279.852,38.966,99558.009,43.472,124.386
吉林,延边朝鲜族自治州,14.328,43.908,4.467,4.233,0.265,75.33,10.098,-3.833,273.995,67.07,93719.521,43.141,129.147
吉林,松原市,11.478,15.916,2.94,5.036,0.267,62.466,4.979,-6.4,278.787,51.404,99852.088,44.785,124.496
吉林,白城市,9.985,12.806,2.237,3.306,0.236,67.722,3.523,-6.892,279.623,42.127,100074.942,45.35,123.031
吉林,白山市,15.382,42.076,4.888,6.034,0.301,74.028,9.252,-3.733,273.887,55.764,92150.078,42.063,127.256
吉林,辽源市,22.26,41.753,3.155,8.606,0.356,65.769,8.354,-5.143,278.474,41.137,97610.372,42.836,125.32
吉林,通化市,18.88,44.611,4.842,8.083,0.334,71.729,7.989,-5.114,277.674,37.545,95793.783,41.939,125.927
吉林,长春市,19.621,41.446,3.405,8.758,0.399,62.656,6.097,-5.587,278.147,56.434,99307.948,44.268,125.611
四川,乐山市,72.935,103.058,10.421,13.626,0.705,97.955,-0.208,-2.175,292.465,73.812,88580.997,29.218,103.569
四川,内江市,59.539,96.607,9.619,17.819,0.775,78.913,-0.358,-3.866,297.045,65.035,95371.446,29.62,104.95
四川,凉山彝族自治州,24.8,34.653,6.971,4.301,0.577,102.094,8.422,1.844,286.366,48.944,73634.712,27.883,102.065
四川,南充市,45.805,69.298,10.195,19.934,0.735,60.02,-4.926,-1.045,296.888,63.116,95485.203,31.19,106.199
四川,宜宾市,89.3,127.388,14.033,16.528,0.898,101.043,1.467,-2.576,296.262,65.667,93805.458,28.573,104.621
四川,巴中市,38.862,58.741,11.379,17.513,0.62,55.135,-6.506,-0.743,292.774,73.721,91465.899,32.033,107.031
四川,广元市,35.977,57.049,11.702,17.82,0.574,50.835,-3.633,-2.716,290.651,83.773,90646.768,32.261,105.788
四川,广安市,46.28,69.099,9.952,19.094,0.722,59.445,-4.961,0.967,297.794,60.844,95431.632,30.43,106.628
四川,德阳市,52.536,86.691,7.687,16.22,0.648,76.181,-3.101,-3.672,293.495,72.567,92067.036,31.13,104.436
四川,成都市,58.597,96.673,7.791,19.56,0.696,87.059,-2.012,-2.996,294.491,66.299,92175.525,30.64,103.929
四川,攀枝花市,22.607,36.232,15.509,16.815,1.003,98.979,9.566,3.175,292.806,37.909,80960.692,26.791,101.734
四川,泸州市,70.348,101.691,12.37,16.542,0.749,81.995,2.373,-0.902,296.137,64.992,92201.451,28.424,105.675
四川,甘孜藏族自治州,16.982,19.401,2.15,0.942,0.19,101.001,5.54,2.335,275.885,57.918,60833.808,30.936,100.009
四川,眉山市,66.75,106.969,8.884,18.662,0.752,90.424,-0.754,-2.556,295.136,66.452,92597.689,29.912,103.766
四川,绵阳市,48.979,70.321,9.698,10.814,0.513,73.917,-2.891,-2.087,289.321,83.683,87073.33,31.86,104.704
四川,自贡市,76.173,116.864,11.527,19.871,0.882,89.431,0.203,-3.664,297.076,63.923,95355.563,29.307,104.659
四川,资阳市,49.34,84.013,8.106,15.321,0.727,71.652,-2.407,-3.367,297.337,63.793,95619.958,30.102,105.149
四川,达州市,43.752,61.849,12.175,23.55,0.642,68.981,-6.251,1.582,295.346,65.826,92960.46,31.335,107.636
四川,遂宁市,49.339,78.885,8.895,16.772,0.757,65.609,-3.543,-2.558,297.422,62.866,95878.753,30.642,105.457
四川,阿坝藏族羌族自治州,27.42,34.674,4.673,2.125,0.257,94.655,0.528,3.23,278.093,71.491,65044.623,32.406,102.61
四川,雅安市,56.25,76.237,7.813,5.931,0.463,98.317,-0.862,-0.407,285.929,83.899,79348.621,29.932,102.689
天津,天津市,29.081,91.731,13.134,38.398,0.653,61.513,-7.666,1.339,286.887,27.859,101825.938,39.315,117.308
宁夏,中卫市,49.832,117.217,9.895,10.779,0.44,58.905,2.792,-0.967,279.733,84.854,83366.347,37.018,105.509
宁夏,吴忠市,46.021,85.68,12.227,9.868,0.386,59.072,0.866,2.092,281.248,85.217,84878.04,37.454,106.577
宁夏,固原市,44.114,74.003,7.865,14.688,0.543,66.148,-1.819,-1.302,278.129,92.981,80715.386,35.905,106.183
宁夏,石嘴山市,50.412,149.983,27.035,19.831,0.697,86.244,2.493,-1.934,283.313,62.513,86545.967,39.013,106.499
宁夏,银川市,53.512,137.465,18.555,20.089,0.664,73.427,0.121,-0.053,283.677,72.373,86833.903,38.287,106.342
安徽,亳州市,24.754,58.082,8.234,19.095,0.495,70.997,-11.089,-1.192,288.183,50.407,101153.834,33.44,116.162
安徽,六安市,57.838,124.485,12.168,31.238,0.815,81.259,-7.31,0.624,292.995,73.368,98403.761,31.617,116.209
安徽,合肥市,52.577,137.447,14.335,43.116,0.841,71.409,-10.234,-0.239,292.994,65.154,100825.655,31.766,117.359
安徽,安庆市,61.079,107.824,9.755,20.12,0.814,84.416,-5.191,-1.321,294.27,78.245,98760.542,30.557,116.473
安徽,宣城市,46.83,86.718,10.176,22.31,0.58,79.543,-7.352,1.71,293.216,73.182,98870.498,30.676,118.846
安徽,宿州市,25.906,54.5,8.106,22.049,0.476,69.439,-10.665,-0.511,288.962,37.843,101250.507,33.844,117.23
安徽,池州市,43.538,70.491,8.198,13.687,0.609,77.754,-4.5,1.565,295.32,72.917,98933.509,30.296,117.379
安徽,淮北市,23.604,54.31,8.597,22.438,0.48,70.618,-11.322,-0.674,288.541,40.123,101239.524,33.722,116.747
安徽,淮南市,43.317,113.816,14.347,36.7,0.733,61.094,-10.522,-0.9,291.504,54.36,101051.87,32.463,116.746
安徽,滁州市,33.441,89.693,11.962,34.974,0.534,59.842,-10.743,-0.444,290.269,46.899,100935.414,32.55,118.076
安徽,芜湖市,56.133,121.72,12.832,31.039,0.746,86.392,-9.471,-1.238,293.643,71.401,100985.119,31.167,118.162
安徽,蚌埠市,28.717,61.707,7.921,22.06,0.443,64.72,-11.115,-1.064,288.902,44.012,101213.46,33.121,117.263
安徽,铜陵市,62.919,125.132,12.872,27.327,0.819,93.149,-6.527,-1.111,295.126,70.343,100739.788,30.883,117.531
安徽,阜阳市,32.422,83.047,12.366,21.99,0.603,67.263,-10.52,-1.547,289.523,58.895,101003.231,32.937,115.723
安徽,马鞍山市,49.12,134.728,15.107,46.63,0.866,66.653,-10.482,-0.609,291.709,72.283,101095.226,31.622,118.386
安徽,黄山市,43.042,67.354,9.153,14.062,0.628,66.578,-5.475,1.102,293.637,76.977,96829.568,29.869,118.09
山东,东营市,40.999,104.791,22.868,42.778,0.779,57.914,-5.056,1.635,288.788,32.301,101857.414,37.57,118.572
山东,临沂市,34.369,76.52,12.048,36.009,0.679,58.874,-5.439,1.839,286.892,45.954,100040.264,35.289,118.27
山东,威海市,17.871,47.385,9.03,20.435,0.482,77.046,-1.674,-1.272,285.99,33.743,101398.627,37.148,122.028
山东,德州市,54.043,154.704,26.579,52.68,0.924,66.913,-2.431,4.814,292.224,28.945,101553.91,37.233,116.679
山东,日照市,32.313,72.977,9.905,36.127,0.555,58.92,-3.572,2.189,286.661,42.181,100215.671,35.566,119.108
山东,枣庄市,29.76,67.256,14.026,28.688,0.549,66.812,-8.949,1.352,287.42,57.422,100659.183,34.925,117.383
山东,泰安市,45.078,108.497,21.926,42.938,0.968,61.486,-5.281,3.818,288.864,40.045,99859.941,35.993,117.04
山东,济南市,53.676,149.991,27.956,55.86,1.094,63.766,-3.434,5.129,290.902,27.953,99816.08,36.639,117.254
山东,济宁市,30.889,72.239,16.622,28.495,0.696,70.79,-7.03,3.47,288.657,54.662,101078.897,35.375,116.697
山东,淄博市,51.398,133.704,25.834,50.375,1.123,67.471,-3.344,4.657,290.441,25.682,99256.527,36.623,118.062
山东,滨州市,56.883,137.106,30.101,56.807,0.999,65.022,-4.506,2.199,290.893,27.484,101719.953,37.516,117.852
山东,潍坊市,36.831,102.435,14.626,41.707,0.759,61.792,-2.548,4.233,289.255,30.744,100773.268,36.53,119.092
山东,烟台市,19.131,62.613,9.307,25.809,0.524,68.937,-2.989,0.719,287.32,30.82,100858.085,37.25,120.789
山东,聊城市,42.809,111.008,18.561,37.094,0.786,68.851,-3.354,5.705,291.001,42.288,101328.729,36.458,115.863
山东,菏泽市,25.25,58.879,11.484,21.877,0.788,74.284,-7.321,2.781,288.669,61.345,101156.216,35.134,115.69
山东,青岛市,25.711,70.734,9.26,34.984,0.472,66.608,-3.14,2.374,287.009,40.897,101405.499,36.46,120.172
山西,临汾市,34.638,66.873,8.292,12.033,0.698,84.638,-4.545,3.032,284.381,78.739,89912.138,36.227,111.398
山西,吕梁市,51.779,108.937,16.328,25.39,0.792,76.771,-3.134,3.926,285.043,58.266,87557.197,37.663,111.27
山西,大同市,34.652,86.453,15.395,20.325,0.811,76.522,-2.429,3.284,283.532,31.01,87317.957,39.911,113.713
山西,太原市,59.469,154.376,16.943,38.834,0.739,80.538,-3.922,3.088,285.157,45.104,87543.727,37.967,112.321
山西,忻州市,49.503,114.208,13.589,22.923,0.51,84.599,-4.301,3.956,283.915,38.45,86088.517,38.877,112.391
山西,晋中市,47.913,117.469,14.732,30.114,0.672,85.638,-4.089,3.867,285.338,52.462,88479.026,37.328,112.997
山西,晋城市,38.704,84.545,6.618,13.987,0.672,99.306,-5.766,2.676,283.648,82.166,90381.774,35.625,112.752
山西,朔州市,43.209,123.999,18.427,26.646,0.704,80.493,-2.443,4.587,283.696,34.244,86583.423,39.619,112.655
山西,运城市,41.005,86.363,7.408,14.961,0.765,93.592,-8.386,1.036,286.029,73.847,93984.418,35.205,111.071
山西,长治市,45.187,95.709,9.717,16.517,0.629,93.984,-4.606,3.297,284.671,65.478,88747.798,36.48,112.915
山西,阳泉市,57.672,154.676,24.972,48.347,0.736,79.022,-3.179,0.906,286.053,40.281,90429.291,38.031,113.512
广东,东莞市,27.361,47.087,9.188,36.141,0.654,25.789,-0.827,6.799,297.074,88.23,100867.209,22.931,113.81
广东,中山市,15.336,24.124,3.937,12.679,0.391,43.127,-0.304,6.812,297.389,87.93,100858.184,22.5,113.383
广东,云浮市,17.117,23.957,1.612,7.251,0.412,46.227,0.479,8.685,298.4,75.755,98719.144,22.776,111.818
广东,佛山市,19.987,35.498,7.769,29.182,0.602,27.248,-0.449,7.229,298.609,79.617,100816.651,23.035,112.979
广东,广州市,27.965,49.684,11.022,43.213,0.731,19.47,-0.946,7.047,297.621,81.968,99970.398,23.339,113.525
广东,惠州市,20.691,29.435,5.098,18.917,0.386,41.342,0.175,5.966,296.915,83.065,99078.299,23.244,114.485
广东,揭阳市,30.249,49.0,5.581,13.652,0.706,48.159,1.458,4.955,297.934,77.797,99716.167,23.323,116.123
广东,梅州市,29.086,47.056,4.932,18.696,0.814,44.014,1.737,5.661,297.803,69.788,97649.063,24.169,116.07
广东,汕头市,24.917,39.846,8.704,15.64,0.553,51.946,0.698,4.72,297.81,83.573,100841.519,23.339,116.614
广东,汕尾市,18.376,24.921,2.414,6.916,0.33,55.269,0.99,4.531,296.97,84.606,99464.315,23.024,115.527
广东,江门市,12.358,17.895,1.56,5.759,0.236,50.371,0.065,7.685,297.516,87.331,100265.929,22.289,112.676
广东,河源市,20.885,27.839,4.372,12.563,0.401,47.8,2.083,6.582,297.086,75.667,97818.997,24.021,114.969
广东,深圳市,23.724,37.428,7.666,30.0,0.511,33.177,-0.823,6.019,296.512,91.581,100426.274,22.667,114.143
广东,清远市,27.721,39.069,6.688,25.301,0.572,33.445,0.462,8.042,296.863,79.55,97207.738,24.295,112.871
广东,湛江市,16.614,25.752,3.985,7.065,0.531,49.707,-0.898,5.357,299.816,72.223,100569.434,21.091,110.163
广东,潮州市,34.228,58.159,11.826,23.401,0.866,43.771,0.668,5.073,297.456,79.219,99170.519,23.755,116.754
广东,珠海市,10.448,15.338,1.372,4.082,0.172,60.03,-0.552,6.535,296.723,94.827,100961.768,22.095,113.317
广东,肇庆市,21.061,29.485,2.514,11.978,0.477,41.843,0.299,7.425,298.366,75.786,98817.496,23.505,112.199
广东,茂名市,14.867,23.022,3.44,5.67,0.459,50.576,-1.483,7.784,297.437,85.121,98839.669,22.013,110.952
广东,阳江市,11.818,16.928,1.3,3.523,0.238,51.628,0.074,7.695,297.287,87.378,99406.052,22.042,111.786
广东,韶关市,37.416,49.244,16.653,32.3,0.848,31.025,1.702,7.561,296.579,76.812,96451.964,24.785,113.819
广西,北海市,20.078,33.391,4.456,9.452,0.684,50.229,0.889,4.661,298.493,79.53,100586.584,21.674,109.37
广西,南宁市,27.957,45.976,5.509,16.203,0.707,55.685,2.262,8.216,299.258,69.051,98587.585,23.051,108.469
广西,崇左市,33.651,43.706,4.453,8.927,0.679,69.35,3.877,7.052,298.99,67.468,97330.376,22.483,107.291
广西,来宾市,34.891,55.704,5.709,13.607,0.701,48.277,2.083,9.627,298.573,69.993,97426.303,23.859,109.417
广西,柳州市,37.59,53.013,7.008,13.702,0.676,49.027,1.889,10.105,298.302,70.459,96716.381,24.956,109.372
广西,桂林市,37.436,48.6,6.498,12.998,0.698,45.309,3.152,9.058,297.126,72.051,95179.999,25.353,110.513
广西,梧州市,31.137,46.42,4.788,13.758,0.772,46.086,1.926,8.065,299.156,69.531,98355.132,23.484,110.996
广西,河池市,38.546,56.927,5.855,8.01,0.726,65.545,3.336,9.516,298.844,61.334,94356.096,24.628,107.843
广西,玉林市,26.258,42.021,6.947,10.204,0.662,50.767,0.464,8.094,298.869,73.818,98802.577,22.452,110.164
广西,百色市,43.628,58.754,9.197,7.34,0.901,83.819,5.757,6.898,299.538,50.746,92339.678,23.981,106.292
广西,贵港市,39.718,63.7,6.964,15.504,0.852,46.563,2.514,8.12,299.666,68.098,99139.045,23.322,110.021
广西,贺州市,34.758,47.225,5.029,10.849,0.698,45.722,1.838,8.71,297.747,73.084,96547.114,24.364,111.394
广西,钦州市,22.831,38.805,5.381,14.812,0.71,47.807,1.801,7.249,298.169,80.023,99826.807,22.173,109.01
广西,防城港市,16.766,25.447,2.868,7.061,0.431,57.834,2.552,7.75,297.465,79.215,98238.255,21.88,108.002
新疆,乌鲁木齐市,3.404,5.019,2.29,4.308,0.232,85.307,4.641,-5.546,271.702,51.653,85119.624,43.746,87.818
新疆,五家渠市,5.893,8.193,5.567,8.12,0.357,79.33,2.777,-0.323,279.987,42.913,97962.25,44.363,87.517
新疆,伊犁哈萨克自治州,4.399,5.943,2.131,3.024,0.269,81.603,-0.461,0.66,270.698,49.779,81146.866,43.438,82.146
新疆,克孜勒苏柯尔克孜自治州,30.757,54.099,0.362,0.62,0.171,93.828,-1.301,-0.923,269.193,36.85,70752.731,39.661,75.949
新疆,克拉玛依市,3.777,7.863,3.265,2.228,0.311,79.562,2.51,-0.912,280.769,37.722,98723.568,45.457,85.207
新疆,北屯市,2.282,2.674,2.942,1.73,0.282,86.566,4.926,-4.202,277.692,47.478,96713.972,47.27,87.868
新疆,博尔塔拉蒙古自治州,4.343,6.902,2.867,2.531,0.244,77.451,0.865,0.364,273.744,45.8,87207.412,44.714,82.114
新疆,双河市,4.956,9.722,3.444,3.83,0.28,73.028,-0.17,-0.67,280.234,41.244,99254.366,44.87,82.474
新疆,可克达拉市,11.564,16.376,5.268,9.742,0.59,71.064,-5.554,1.898,280.37,42.106,95951.614,43.918,80.786
新疆,和田地区,51.615,56.618,0.694,0.507,0.143,74.159,-0.109,-0.466,274.111,53.22,74149.413,37.059,80.934
新疆,哈密市,16.779,20.455,1.905,0.736,0.159,77.782,6.844,-7.748,276.008,48.736,88902.473,43.042,93.517
新疆,喀什地区,119.312,134.329,0.6,0.969,0.171,78.714,-3.112,-1.186,274.299,39.989,76412.266,38.125,77.178
新疆,图木舒克市,248.238,248.718,0.697,0.492,0.14,73.805,-8.012,-3.498,284.535,16.543,89841.735,39.892,79.182
新疆,塔城地区,2.99,4.142,2.502,1.571,0.213,78.935,2.252,-1.034,274.849,52.063,90659.674,45.642,84.789
新疆,巴音郭楞蒙古自治州,43.923,44.814,1.025,0.438,0.144,72.242,-3.177,-2.668,274.435,54.506,79627.209,39.463,87.481
新疆,新星市,8.39,38.695,2.485,2.735,0.26,85.01,-0.67,-6.105,282.65,23.475,93270.51,42.75,93.68
新疆,昆玉市,85.44,103.127,1.087,1.297,0.137,71.797,8.067,-3.133,284.263,25.0,87369.873,37.457,79.093
新疆,昌吉回族自治州,2.975,4.463,2.874,2.25,0.199,75.651,5.322,-2.243,274.869,55.78,90999.43,44.342,88.608
新疆,石河子市,4.29,5.82,5.63,6.4,0.205,78.135,2.99,-0.67,279.8,36.41,95992.71,44.245,86.035
新疆,胡杨河市,4.044,6.474,2.492,2.052,0.246,78.878,2.88,0.87,280.676,38.796,99255.528,44.852,84.772
新疆,铁门关市,42.41,60.96,2.023,2.257,0.15,94.357,2.067,-5.163,283.95,11.54,92443.367,41.773,85.66
新疆,阿克苏地区,112.832,120.688,1.009,0.887,0.152,84.36,-4.628,-1.612,279.332,24.484,85903.856,40.965,81.578
新疆,阿勒泰地区,1.886,2.131,2.633,0.7,0.192,80.241,3.197,-3.38,272.509,60.384,89434.12,46.902,88.421
新疆,阿拉尔市,164.588,178.224,1.199,1.407,0.159,79.102,-7.91,0.526,283.717,19.006,90790.577,40.629,80.998
江苏,南京市,39.239,113.31,14.769,47.334,0.728,59.059,-10.435,-0.181,290.815,61.664,101247.698,31.899,118.876
江苏,南通市,24.36,46.622,5.466,11.612,0.354,82.292,-9.061,-0.741,287.335,61.843,101666.839,32.201,120.979
江苏,宿迁市,28.026,55.554,6.846,20.302,0.467,67.33,-9.426,-0.91,288.565,38.267,101597.152,33.765,118.495
江苏,常州市,38.26,111.203,13.811,48.566,0.843,60.763,-9.778,-0.308,289.74,71.469,101356.992,31.613,119.666
江苏,徐州市,27.979,57.734,9.462,24.845,0.503,67.47,-9.334,-0.482,288.427,45.563,101344.343,34.363,117.513
江苏,扬州市,29.039,67.087,8.728,22.59,0.45,68.481,-10.162,-0.111,289.395,41.757,101583.246,32.709,119.486
江苏,无锡市,34.959,105.571,13.088,46.74,0.793,62.98,-9.489,-0.293,288.932,74.034,101306.047,31.546,120.066
江苏,泰州市,26.975,59.177,7.66,19.098,0.439,74.553,-9.832,-0.272,288.603,47.407,101592.097,32.605,120.048
江苏,淮安市,27.389,54.966,6.394,17.075,0.421,69.357,-9.686,-0.347,288.821,38.2,101576.923,33.362,118.985
江苏,盐城市,23.686,38.079,3.763,7.801,0.315,79.638,-8.217,-0.19,286.872,51.218,101770.406,33.529,120.156
江苏,苏州市,30.857,87.708,10.752,38.535,0.585,74.056,-9.223,-0.788,288.357,77.941,101502.314,31.374,120.661
江苏,连云港市,26.897,48.069,5.275,18.605,0.436,66.155,-6.378,-0.635,286.89,46.851,101637.016,34.519,119.133
江苏,镇江市,36.108,109.238,15.766,49.761,0.734,57.85,-10.567,0.006,289.759,56.188,101371.652,32.016,119.49
江西,上饶市,40.459,52.583,8.581,10.894,0.766,65.564,-3.466,1.972,297.018,71.085,98739.194,28.778,117.47
江西,九江市,36.888,49.977,6.95,10.705,0.581,69.132,-3.961,1.792,296.059,76.968,98580.435,29.313,115.444
江西,南昌市,40.975,54.437,10.528,17.844,0.813,57.659,-2.592,1.882,298.17,69.666,100418.757,28.671,116.016
江西,吉安市,43.112,56.993,16.577,17.364,0.802,48.6,0.386,5.499,297.889,69.569,98205.296,26.954,114.831
江西,宜春市,41.768,54.893,10.47,16.251,0.782,48.91,-1.541,2.699,297.153,72.705,98508.755,28.29,114.974
江西,抚州市,36.325,39.662,7.606,8.842,0.504,59.6,-0.284,5.012,297.745,69.233,98287.907,27.514,116.42
江西,新余市,46.77,64.52,14.111,25.119,0.916,34.215,-1.551,2.973,297.439,72.678,99407.025,27.847,114.836
江西,景德镇市,36.965,49.443,7.162,9.531,0.618,67.111,-4.473,1.164,296.83,72.695,99545.678,29.287,117.24
江西,萍乡市,37.922,51.261,11.266,18.021,0.904,38.798,0.139,5.211,297.276,71.756,97165.051,27.505,113.908
江西,赣州市,35.454,48.087,15.234,17.712,0.937,52.972,2.217,6.723,297.351,70.272,96741.518,25.692,115.279
江西,鹰潭市,38.448,43.172,9.268,12.14,0.667,61.525,-1.766,3.953,298.255,67.151,99210.795,28.222,117.094
河北,保定市,43.525,102.996,17.379,39.649,0.631,70.715,-4.843,-2.601,287.885,26.859,97944.129,39.018,115.159
河北,唐山市,25.359,72.874,17.362,30.819,0.633,63.808,-6.771,0.118,286.225,25.551,101416.29,39.731,118.354
河北,廊坊市,34.834,102.338,14.2,43.843,0.662,61.892,-6.866,1.269,287.954,25.83,101801.729,39.267,116.632
河北,张家口市,23.163,57.098,10.458,14.918,0.573,79.508,-3.337,4.352,281.374,31.105,87882.133,40.877,115.042
河北,承德市,12.307,30.929,6.179,12.503,0.348,65.317,-1.306,0.623,281.424,30.188,91355.946,41.339,117.578
河北,沧州市,49.479,118.316,21.861,43.719,0.718,74.707,-5.708,1.771,289.59,30.64,101715.875,38.258,116.744
河北,石家庄市,58.604,150.155,25.162,45.664,0.732,75.322,-2.432,-0.458,289.99,32.744,98352.657,38.135,114.407
河北,秦皇岛市,16.186,42.155,9.176,21.891,0.379,63.303,-4.506,-1.659,284.642,24.736,99183.856,40.12,119.193
河北,衡水市,49.169,128.512,19.077,35.657,0.641,80.55,-2.434,4.443,292.604,30.99,101461.865,37.755,115.813
河北,邢台市,49.82,131.386,18.051,33.11,0.744,85.584,-1.426,4.269,291.532,40.524,99954.959,37.195,114.815
河北,邯郸市,47.467,120.366,14.674,26.993,0.773,88.217,-2.551,4.386,290.66,52.164,99491.734,36.538,114.596
河南,三门峡市,48.498,98.272,10.104,16.545,0.77,80.978,-9.935,0.476,284.376,83.675,91517.56,34.362,111.101
河南,信阳市,51.74,105.218,14.579,22.789,0.709,76.001,-8.216,-1.52,292.792,72.037,99829.266,32.091,114.907
河南,南阳市,36.739,60.894,8.575,12.667,0.707,97.669,-7.879,-5.532,287.493,84.22,97851.161,33.034,112.323
河南,周口市,24.807,59.838,9.015,15.793,0.626,83.068,-10.416,-1.316,287.565,60.438,100894.94,33.738,114.884
河南,商丘市,24.231,57.018,10.045,20.62,0.648,76.988,-10.501,0.092,288.789,45.619,101093.669,34.277,115.718
河南,安阳市,38.097,90.578,10.39,20.508,0.735,91.418,-2.392,3.514,289.015,67.254,99094.955,35.888,114.318
河南,平顶山市,39.564,75.414,8.242,18.259,0.776,88.043,-6.387,-3.216,285.879,81.136,98707.521,33.8,113.025
河南,开封市,29.448,65.605,9.256,20.354,0.712,73.821,-9.329,0.342,288.366,56.381,100747.911,34.594,114.514
河南,新乡市,35.169,79.871,9.901,22.232,0.796,79.604,-4.824,0.699,288.109,69.978,99891.902,35.256,114.111
河南,洛阳市,44.635,94.689,10.251,18.498,0.842,78.952,-6.15,-1.454,284.433,84.77,94046.857,34.274,112.019
河南,济源市,44.471,105.109,8.805,21.473,0.822,90.256,-7.564,-1.481,286.285,75.174,95998.405,35.105,112.445
河南,漯河市,30.586,63.675,8.538,15.615,0.685,90.8,-8.982,-2.75,286.881,74.614,100706.854,33.652,113.945
河南,濮阳市,32.319,78.467,12.712,25.374,0.829,77.726,-4.725,3.776,289.686,61.208,101167.559,35.809,115.283
河南,焦作市,45.393,107.755,9.159,23.993,0.867,80.049,-6.344,-2.769,288.038,71.999,99657.696,35.121,113.163
河南,许昌市,37.607,76.355,9.107,20.841,0.75,81.637,-8.591,-2.142,287.198,64.915,100097.132,34.075,113.707
河南,郑州市,44.107,94.562,9.749,25.552,0.832,68.61,-7.758,-0.511,287.119,65.282,98838.614,34.634,113.438
河南,驻马店市,37.388,79.321,11.07,15.926,0.656,79.364,-8.865,-3.158,288.545,77.489,100253.164,32.925,114.174
河南,鹤壁市,36.131,87.008,10.282,21.87,0.807,87.898,-1.819,2.609,289.116,70.498,100270.918,35.716,114.319
浙江,丽水市,47.134,61.11,8.606,19.857,0.648,73.867,-2.456,3.489,292.867,82.961,94297.361,28.194,119.51
浙江,台州市,54.521,82.445,10.142,32.701,0.593,70.66,-3.138,0.363,291.686,89.002,98640.366,28.742,121.109
浙江,嘉兴市,34.721,68.23,5.837,18.57,0.417,91.812,-8.115,-1.071,288.702,91.183,101433.923,30.635,120.754
浙江,宁波市,41.155,65.612,8.688,33.308,0.505,64.835,-5.223,-0.258,290.08,92.321,100200.086,29.706,121.49
浙江,杭州市,54.515,96.08,12.095,30.04,0.695,66.474,-5.265,-1.565,292.165,78.109,98365.449,29.891,119.464
浙江,温州市,61.608,93.088,11.085,44.31,0.784,67.878,-2.436,1.208,292.288,91.579,97420.575,27.897,120.411
浙江,湖州市,42.851,86.634,8.494,25.064,0.549,85.139,-7.484,-0.161,290.467,82.417,100091.823,30.757,119.871
浙江,绍兴市,47.564,74.249,10.028,31.664,0.614,57.011,-5.336,0.374,293.683,70.778,99233.533,29.709,120.64
浙江,舟山市,25.652,38.37,3.392,5.58,0.268,85.652,-7.57,-1.352,288.735,98.058,101274.582,30.038,122.23
浙江,衢州市,44.187,58.286,8.221,15.37,0.721,72.477,-3.246,1.005,295.679,70.382,97467.322,28.912,118.675
浙江,金华市,54.074,74.322,9.341,27.982,0.685,66.888,-4.086,2.424,294.614,70.731,97820.109,29.109,119.967
海南,万宁市,8.327,12.017,0.82,1.71,0.148,49.272,0.913,6.318,297.373,91.809,99727.214,18.842,110.294
海南,三亚市,8.657,12.567,1.284,4.219,0.439,39.101,-3.314,2.903,297.07,88.639,98532.979,18.413,109.407
海南,东方市,6.889,9.364,0.709,1.736,0.131,45.013,-4.157,8.384,300.929,58.702,98976.733,18.971,108.838
海南,临高县,15.271,23.997,1.706,4.367,0.299,41.96,-0.686,2.847,301.169,59.131,100121.926,19.821,109.733
海南,乐东黎族自治县,8.462,11.432,0.831,2.776,0.229,40.517,-3.285,4.172,297.239,81.526,97615.857,18.659,109.072
海南,五指山市,9.768,12.062,1.254,3.678,0.22,40.006,-1.234,5.454,296.064,79.9,94451.864,18.81,109.518
海南,儋州市,13.393,18.485,1.554,3.737,0.227,48.792,-0.033,2.255,301.703,54.284,99771.568,19.568,109.399
海南,定安县,10.192,16.783,1.528,3.885,0.273,35.193,-1.357,7.237,299.193,78.572,99911.135,19.47,110.28
海南,屯昌县,8.766,12.752,0.87,2.758,0.21,37.866,-1.142,7.062,299.626,71.466,99123.236,19.342,110.076
海南,文昌市,8.631,15.037,0.917,2.013,0.182,47.216,-1.063,8.024,298.19,89.061,100709.951,19.707,110.773
海南,昌江黎族自治县,8.732,10.956,1.049,2.584,0.151,46.278,-0.596,7.01,301.266,53.834,97965.474,19.233,109.016
海南,海口市,11.593,19.805,1.978,5.025,0.315,35.312,-1.213,7.066,299.984,75.065,100452.629,19.842,110.393
海南,澄迈县,12.97,22.147,1.936,4.841,0.316,36.003,-1.249,5.413,301.114,63.614,99974.584,19.676,109.989
海南,琼中黎族苗族自治县,9.249,12.01,0.854,2.928,0.181,41.197,1.038,7.053,298.853,68.334,96980.949,19.087,109.847
海南,琼海市,8.662,13.192,1.168,2.52,0.182,43.84,-0.377,6.3,298.607,85.063,100511.875,19.22,110.43
海南,白沙黎族自治县,9.305,11.64,1.06,2.732,0.171,45.861,1.079,6.818,300.211,56.844,96656.701,19.2,109.388
海南,陵水黎族自治县,9.323,12.176,0.627,2.807,0.271,43.401,0.634,3.379,297.019,91.023,99093.184,18.581,109.913
湖北,仙桃市,37.974,52.484,4.544,13.206,0.665,63.519,-4.471,1.872,297.614,72.882,100468.581,30.284,113.417
湖北,十堰市,37.542,59.041,11.731,12.046,0.774,92.773,-6.79,-0.944,287.412,89.743,92856.535,32.462,110.476
湖北,咸宁市,35.875,46.494,5.336,8.788,0.628,69.769,-3.828,2.626,296.763,74.114,98684.203,29.621,114.178
湖北,天门市,41.418,64.376,6.299,19.669,0.82,56.905,-4.49,-0.009,296.917,74.411,100442.908,30.633,113.053
湖北,孝感市,50.28,76.311,6.623,19.516,0.909,57.59,-5.352,-0.011,295.819,75.924,99954.744,31.116,113.869
湖北,宜昌市,41.225,59.605,9.068,18.373,0.933,47.214,-3.76,-1.517,291.418,87.978,93532.764,30.746,111.129
湖北,恩施土家族苗族自治州,40.155,52.134,8.661,9.674,0.706,55.163,-5.124,2.93,290.682,88.12,88949.771,30.195,109.552
湖北,武汉市,51.603,72.968,7.27,26.374,1.026,57.415,-5.142,2.582,296.585,74.655,100464.37,30.606,114.349
湖北,潜江市,38.704,57.37,6.233,16.692,0.78,58.78,-4.292,0.051,297.352,73.393,100408.431,30.33,112.77
湖北,神农架林区,38.888,49.048,9.255,6.772,0.515,74.534,-4.219,4.695,285.743,95.687,82609.909,31.592,110.49
湖北,荆州市,36.274,52.992,7.023,15.436,0.815,57.484,-3.726,-0.502,297.295,72.612,100156.497,30.01,112.512
湖北,荆门市,42.772,72.01,8.308,22.511,0.94,56.382,-3.061,-2.672,294.502,78.866,99511.007,31.059,112.616
湖北,襄阳市,38.428,63.17,8.702,16.254,0.793,70.897,-3.51,-3.275,289.666,87.751,96961.386,31.919,111.96
湖北,鄂州市,52.119,74.786,10.817,26.794,1.094,64.75,-5.729,3.363,296.73,74.37,100529.843,30.337,114.794
湖北,随州市,47.809,79.737,9.934,15.683,0.748,68.619,-6.922,-3.034,292.76,78.559,98932.274,31.809,113.43
湖北,黄冈市,49.84,74.844,8.898,15.353,0.806,74.28,-6.509,1.477,295.325,75.273,98907.828,30.702,115.358
湖北,黄石市,43.937,62.234,8.785,17.01,0.85,70.657,-5.58,2.357,295.984,78.76,99578.336,29.925,115.034
湖南,娄底市,38.901,56.608,11.861,15.453,1.142,48.333,-0.554,4.696,297.17,71.592,96405.3,27.715,111.632
湖南,岳阳市,35.064,46.646,7.741,14.293,0.665,55.02,-2.908,4.259,297.93,69.462,99286.045,29.081,113.275
湖南,常德市,33.706,52.434,11.815,16.782,0.976,42.341,-2.65,-0.369,296.575,73.617,98441.693,29.271,111.524
湖南,张家界市,28.919,47.114,10.158,12.154,1.008,40.135,-4.572,-0.859,293.416,85.251,94604.093,29.379,110.526
湖南,怀化市,31.96,48.797,7.918,10.218,1.04,42.394,-0.183,5.988,297.071,70.8,95429.976,27.535,110.071
湖南,株洲市,34.363,46.561,11.798,17.61,0.826,46.19,1.233,6.946,297.829,69.89,97272.383,27.109,113.513
湖南,永州市,32.961,43.534,6.278,8.928,0.595,55.588,3.253,8.894,297.793,69.356,95893.485,25.748,111.723
湖南,湘潭市,34.362,50.307,10.408,19.131,0.973,45.461,-0.476,6.06,299.085,66.527,99355.365,27.744,112.619
湖南,湘西土家族苗族自治州,31.342,46.622,7.446,11.796,0.748,30.212,-4.884,1.503,294.455,81.644,94431.689,28.708,109.718
湖南,益阳市,33.193,49.362,8.697,14.664,0.934,47.735,-2.273,3.989,297.427,71.34,97937.546,28.525,111.919
湖南,衡阳市,35.309,51.21,7.904,17.461,0.87,49.177,1.195,7.304,299.471,65.247,98932.785,26.781,112.565
湖南,邵阳市,37.906,50.288,9.385,9.584,0.818,53.905,2.437,7.143,297.055,68.656,94229.997,26.893,110.881
湖南,郴州市,32.136,45.165,11.26,18.01,0.954,52.361,1.674,8.507,296.492,75.374,95201.965,25.769,113.109
湖南,长沙市,35.974,50.811,11.378,22.367,0.899,43.656,-2.362,5.078,297.89,70.634,98824.154,28.235,113.159
甘肃,临夏回族自治州,50.537,136.112,11.518,24.703,0.769,52.449,-2.098,-1.631,278.442,91.746,77208.677,35.617,103.291
甘肃,兰州市,42.376,118.585,11.197,19.116,0.544,54.286,-2.795,-5.331,279.395,78.932,78860.947,36.359,103.633
甘肃,嘉峪关市,40.185,174.173,13.607,16.712,0.333,80.682,7.115,-4.982,277.277,50.108,81946.808,39.798,98.145
甘肃,天水市,42.178,81.989,8.842,13.983,0.486,64.115,-3.907,-1.952,280.513,86.208,82305.501,34.645,105.739
甘肃,定西市,43.001,99.801,10.527,12.598,0.455,58.982,-3.216,-1.868,277.822,93.164,76952.387,35.124,104.432
甘肃,平凉市,44.933,71.807,7.264,16.045,0.549,64.208,-1.326,-2.542,280.85,86.534,84219.736,35.304,106.644
甘肃,庆阳市,34.112,50.429,10.043,11.543,0.534,66.746,-2.57,0.628,281.112,91.427,85540.442,36.149,107.596
甘肃,张掖市,27.307,79.814,3.286,3.373,0.185,65.701,3.933,-3.478,273.566,63.496,74745.296,38.94,99.855
甘肃,武威市,43.854,72.903,5.563,5.952,0.21,57.038,3.566,-5.493,279.323,56.352,81356.919,38.163,103.073
甘肃,甘南藏族自治州,32.334,54.931,6.95,3.892,0.359,74.167,-2.336,-0.84,275.897,88.667,67266.637,34.331,102.768
甘肃,白银市,44.078,122.633,12.251,13.903,0.468,56.429,1.227,-5.112,279.19,84.139,81291.918,36.59,104.646
甘肃,酒泉市,17.476,24.495,1.602,1.01,0.153,71.58,4.129,-4.865,274.244,53.355,79406.719,40.236,96.062
甘肃,金昌市,29.656,88.324,4.039,6.12,0.219,69.255,6.731,-4.583,278.573,56.135,80639.581,38.44,102.048
甘肃,陇南市,36.08,58.086,11.923,12.155,0.448,59.107,-3.502,-2.405,282.596,92.166,81716.772,33.599,105.224
福建,三明市,30.813,37.281,6.362,15.772,0.745,57.738,0.753,4.121,295.594,76.088,94831.476,26.29,117.395
福建,南平市,36.647,40.673,7.439,11.068,0.611,70.244,-1.585,3.089,295.189,78.189,95583.195,27.324,118.143
福建,厦门市,23.023,41.343,10.252,24.267,0.428,48.748,0.148,4.41,296.523,86.363,100071.362,24.642,118.11
福建,宁德市,40.837,46.762,5.832,10.652,0.469,74.774,-1.89,2.022,292.595,93.108,95057.199,26.968,119.474
福建,泉州市,27.009,43.458,9.176,20.739,0.512,49.698,0.532,4.638,295.108,84.969,96346.075,25.201,118.249
福建,漳州市,23.414,36.493,5.206,15.922,0.446,51.256,1.139,4.456,296.439,81.291,97920.519,24.372,117.444
福建,福州市,39.395,52.556,7.359,22.066,0.569,59.373,-1.206,2.691,294.241,90.642,97112.909,26.083,119.206
福建,莆田市,31.75,48.763,8.903,20.189,0.501,55.833,0.218,3.943,295.013,89.416,97876.806,25.445,118.864
福建,龙岩市,27.383,40.253,5.944,19.126,0.696,50.011,1.269,5.238,295.763,76.299,94857.411,25.256,116.739
西藏,山南市,25.354,28.447,3.052,1.289,0.241,106.897,4.455,2.135,276.522,76.107,65960.461,28.295,92.274
西藏,拉萨市,5.364,9.754,0.858,1.637,0.189,105.639,6.091,1.641,271.617,63.446,56343.221,30.043,91.093
西藏,日喀则市,7.945,11.145,0.779,0.406,0.172,107.77,8.806,0.547,268.834,59.873,55215.071,29.483,86.493
西藏,昌都市,20.523,22.23,2.223,0.622,0.201,104.305,6.159,5.389,273.485,60.034,58828.924,30.753,97.044
西藏,林芝市,29.138,32.231,3.272,1.295,0.224,104.931,1.131,3.74,275.495,88.586,66226.355,29.184,95.25
西藏,玉树藏族自治州,11.223,11.734,0.478,0.271,0.138,79.095,-0.036,-0.685,269.468,68.472,57016.792,34.196,94.317
西藏,那曲市,6.497,7.14,0.451,0.202,0.15,92.86,5.374,-0.479,269.483,55.814,55186.629,32.709,89.262
西藏,阿里地区,6.083,6.701,0.665,0.322,0.149,95.944,9.406,0.568,265.723,52.312,54620.451,33.013,82.553
贵州,六盘水市,32.917,51.047,10.874,10.925,0.505,95.979,11.589,2.914,295.113,35.261,82528.769,26.106,104.896
贵州,安顺市,31.456,43.807,8.229,9.765,0.39,92.81,7.653,6.3,298.572,35.02,87441.648,25.986,105.978
贵州,毕节市,41.237,62.792,8.216,9.135,0.472,90.388,8.821,3.409,294.536,39.301,82765.985,27.063,105.211
贵州,贵阳市,36.031,56.096,6.093,19.465,0.548,86.198,6.153,8.599,297.672,39.824,87390.212,26.845,106.71
贵州,遵义市,40.136,53.822,8.206,9.348,0.457,80.412,-1.347,3.97,295.524,62.329,89452.638,28.167,107.102
贵州,铜仁市,30.84,44.595,8.076,6.832,0.52,54.41,-2.194,5.748,296.134,67.144,91862.363,27.937,108.534
贵州,黔东南苗族侗族自治州,32.083,41.787,6.036,4.451,0.469,70.261,2.253,10.156,296.733,65.515,91862.548,26.495,108.574
贵州,黔南布依族苗族自治州,31.497,41.947,5.085,5.302,0.368,86.371,4.403,8.917,297.845,49.071,89624.449,26.0,107.265
贵州,黔西南布依族苗族自治州,24.899,34.392,7.795,5.676,0.429,97.548,9.192,4.902,299.353,32.86,87889.339,25.256,105.467
辽宁,丹东市,18.508,41.506,7.021,13.843,0.442,69.088,5.575,-6.828,281.608,22.371,98915.603,40.554,124.376
辽宁,大连市,19.125,42.451,6.883,16.436,0.442,75.965,0.85,-5.822,284.824,20.563,101302.256,39.591,122.22
辽宁,抚顺市,20.358,52.007,5.159,13.276,0.311,70.549,6.944,-5.13,279.091,29.713,97129.35,41.841,124.65
辽宁,朝阳市,14.831,37.754,5.87,15.254,0.416,58.013,0.184,-4.828,282.425,20.312,96907.721,41.545,120.053
辽宁,本溪市,18.03,53.903,6.882,16.003,0.4,70.374,6.604,-6.417,279.066,26.288,96488.381,41.232,124.544
辽宁,沈阳市,20.718,62.238,4.475,15.108,0.347,66.667,4.778,-6.34,283.071,19.039,101420.667,42.081,123.159
辽宁,盘锦市,21.668,53.53,9.042,26.559,0.553,63.626,1.991,-6.264,285.139,14.455,102153.824,41.13,122.01
辽宁,营口市,25.552,62.531,11.246,27.258,0.757,68.509,2.142,-4.929,282.739,22.356,99907.655,40.395,122.478
辽宁,葫芦岛市,18.864,49.02,9.032,20.78,0.483,60.728,-1.006,-3.452,284.674,19.559,99660.949,40.66,120.215
辽宁,辽阳市,23.273,78.733,9.197,23.875,0.7,65.355,4.019,-5.821,282.309,19.017,100081.576,41.153,123.261
辽宁,铁岭市,22.644,55.037,3.97,11.745,0.328,67.324,6.028,-5.595,280.81,30.209,99741.651,42.653,124.158
辽宁,锦州市,18.907,42.685,6.099,18.593,0.396,63.436,2.465,-6.769,284.536,14.87,101332.13,41.502,121.659
辽宁,阜新市,14.472,23.737,2.272,7.247,0.24,66.194,4.659,-7.128,282.488,16.606,99808.983,42.289,121.968
辽宁,鞍山市,22.815,58.413,9.23,22.042,0.732,65.641,3.568,-6.56,282.973,18.657,100148.975,40.731,123.007
重庆,重庆城区,41.892,60.955,11.382,19.962,0.621,61.773,-4.665,2.261,296.753,65.341,93835.793,29.824,107.125
重庆,重庆郊县,38.614,47.821,10.879,8.254,0.456,65.774,-6.419,3.245,292.867,77.507,90331.867,30.334,108.755
陕西,咸阳市,51.885,91.691,9.07,24.046,0.986,71.806,-8.063,-2.449,284.746,81.517,91068.463,34.779,108.367
陕西,商洛市,49.071,81.524,10.698,12.133,0.685,77.261,-5.9,0.49,284.826,93.356,88958.915,33.64,109.889
陕西,安康市,42.586,70.355,12.471,10.942,0.578,84.858,-8.249,0.044,287.64,86.828,89328.521,32.735,108.932
陕西,宝鸡市,49.434,88.605,6.797,21.41,0.75,61.59,-3.244,-2.032,282.595,85.734,85983.803,34.386,107.193
陕西,延安市,37.029,61.243,12.833,19.237,0.917,68.843,-3.686,3.29,282.568,88.044,87341.95,36.432,109.316
陕西,榆林市,44.198,98.176,16.238,20.627,0.771,75.516,-1.348,4.288,284.05,73.961,87730.508,38.041,109.581
陕西,汉中市,43.243,69.22,12.84,15.977,0.579,56.966,-6.256,-0.38,287.761,88.429,88325.474,33.088,107.098
陕西,渭南市,49.14,95.361,8.941,20.773,0.941,75.276,-8.733,-0.809,286.051,78.601,93478.953,34.919,109.855
陕西,西安市,58.628,111.177,7.118,24.305,0.982,59.409,-3.766,-1.644,285.399,86.576,90095.993,34.12,108.77
陕西,铜川市,45.574,78.627,10.051,20.438,1.046,75.751,-8.989,0.026,282.612,86.699,88865.122,35.198,109.058
青海,保亭黎族苗族自治县,10.416,13.516,1.752,5.712,0.428,37.126,-1.012,2.85,296.162,90.092,96964.048,18.566,109.618
青海,吐鲁番市,54.628,59.279,1.301,0.841,0.162,85.746,1.978,-6.168,279.045,30.793,91067.848,42.386,89.851
青海,果洛藏族自治州,14.332,14.863,1.552,0.732,0.153,82.113,0.566,-1.952,272.034,76.795,59684.516,34.127,99.404
青海,海东市,32.725,45.472,6.089,7.784,0.35,58.037,-2.567,-1.873,276.105,80.749,72537.571,36.347,102.34
青海,海北藏族自治州,18.395,23.503,1.827,1.717,0.151,64.719,-1.642,-3.573,269.569,76.096,65210.589,37.775,100.288
青海,海南藏族自治州,26.21,29.095,2.906,1.776,0.169,69.006,-0.862,-2.881,273.471,82.19,66255.761,35.89,100.272
青海,海西蒙古族藏族自治州,24.885,25.441,0.522,0.329,0.137,68.08,2.812,-3.211,271.25,57.152,64418.247,36.677,94.519
青海,西宁市,30.691,48.996,4.184,10.942,0.467,61.916,-1.293,-3.163,274.091,69.969,69379.743,36.842,101.423
青海,黄南藏族自治州,28.254,34.358,5.474,2.456,0.255,72.943,-1.649,-2.136,273.565,91.598,65506.674,35.022,101.631
香港,香港特别行政区,14.57,19.955,2.845,20.76,0.235,45.13,-0.955,5.34,296.205,95.615,100626.965,22.45,114.22
黑龙江,七台河市,9.736,12.699,3.484,5.905,0.278,77.073,3.471,-6.6,272.678,76.507,97786.323,45.87,130.943
黑龙江,伊春市,5.486,6.477,1.65,1.409,0.197,73.065,1.162,-5.911,273.203,63.921,96557.428,47.772,129.184
黑龙江,佳木斯市,5.269,6.958,1.876,2.777,0.228,76.683,-1.118,-7.988,272.895,69.544,99825.29,47.207,132.11
黑龙江,双鸭山市,4.879,6.053,1.81,2.438,0.207,75.091,0.71,-8.599,272.328,75.395,99242.351,46.722,132.643
黑龙江,哈尔滨市,14.576,16.03,3.548,6.092,0.31,65.449,3.365,-4.403,275.282,76.081,98400.625,45.634,127.964
黑龙江,大兴安岭地区,2.51,3.323,1.071,1.108,0.191,65.879,1.85,-3.915,269.981,75.153,95217.643,52.286,124.212
黑龙江,大庆市,13.022,15.401,3.752,6.822,0.302,62.481,3.85,-6.826,278.3,53.339,100043.48,46.327,124.687
黑龙江,牡丹江市,9.807,15.594,3.189,3.847,0.245,69.547,6.039,-5.339,273.155,76.015,94990.999,44.592,129.883
黑龙江,绥化市,12.089,12.462,2.235,3.976,0.279,67.212,1.792,-6.056,276.386,61.157,99061.086,46.89,126.634
黑龙江,鸡西市,6.619,7.998,2.68,3.739,0.225,71.101,4.696,-7.666,273.335,73.523,98876.169,45.626,132.289
黑龙江,鹤岗市,5.825,8.065,1.712,2.486,0.244,76.208,0.635,-6.52,273.685,65.135,98936.694,47.661,130.778
黑龙江,黑河市,11.954,17.163,1.169,2.064,0.242,69.726,0.599,-5.588,273.852,56.175,97188.315,49.268,127.004
黑龙江,齐齐哈尔市,10.101,10.881,2.094,2.974,0.243,63.163,2.492,-6.743,277.368,53.599,99243.152,47.715,124.57
