province,city,PM2.5,PM10,SO2,NO2,CO,O3,U,V,TEMP,RH,PSFC,lat,lon
上海,上海市,28.15,36.241,7.489,37.374,0.61,45.947,3.289,-0.234,288.138,85.172,101197.966,31.173,121.42
云南,临沧市,35.36,49.646,6.387,8.452,0.475,85.61,4.198,0.601,293.705,51.03,83846.372,23.935,99.686
云南,丽江市,19.997,31.19,7.041,3.782,0.52,103.604,4.382,3.005,284.452,59.552,74610.636,26.96,100.515
云南,保山市,35.087,57.377,7.494,10.647,0.49,81.255,4.543,0.504,290.513,62.004,81844.309,24.953,98.962
云南,大理白族自治州,24.572,38.843,6.255,4.204,0.37,97.122,5.732,1.87,287.847,59.949,78092.003,25.726,100.053
云南,德宏傣族景颇族自治州,46.223,67.632,8.496,14.236,0.461,71.421,2.946,-0.47,293.565,58.427,85990.449,24.535,98.052
云南,怒江傈僳族自治州,22.666,31.51,4.62,0.966,0.298,98.167,4.96,2.424,281.336,80.814,72778.284,26.916,98.885
云南,文山壮族苗族自治州,40.51,52.939,13.004,5.278,0.576,85.24,-3.589,-2.262,290.739,62.144,86622.152,23.696,104.735
云南,昆明市,30.011,45.086,8.314,9.901,0.467,97.555,1.92,2.507,288.34,57.904,79273.73,25.384,102.863
云南,昭通市,19.614,37.113,7.079,4.935,0.343,76.562,-1.641,-4.232,279.665,82.134,84480.337,27.667,103.985
云南,普洱市,33.774,47.934,4.565,8.273,0.475,90.801,3.217,1.163,296.139,42.427,85868.415,23.159,100.718
云南,曲靖市,25.457,41.892,10.607,8.749,0.425,76.899,-1.989,-1.131,284.271,65.235,80136.97,25.737,103.929
云南,楚雄彝族自治州,27.042,38.537,6.592,4.204,0.372,97.943,3.85,1.725,290.515,53.92,80953.175,25.328,101.567
云南,玉溪市,29.422,41.707,5.729,5.593,0.419,98.451,2.243,1.625,293.4,49.764,83441.238,24.136,102.217
云南,红河哈尼族彝族自治州,41.069,55.376,7.072,4.979,0.453,102.587,-0.755,2.148,294.177,50.238,85132.355,23.451,103.034
云南,西双版纳傣族自治州,60.465,96.439,4.15,17.485,1.112,86.268,2.167,1.526,298.841,35.447,88800.448,21.939,100.912
云南,迪庆藏族自治州,16.532,23.024,4.0,0.812,0.31,107.377,7.398,4.137,276.918,79.015,67202.955,27.957,99.459
内蒙古,乌兰察布市,19.057,38.108,1.488,0.912,0.19,76.076,4.567,-9.142,273.359,47.016,86285.624,41.691,112.44
内蒙古,乌海市,37.704,142.766,32.876,29.752,0.792,77.395,0.584,-5.18,278.706,19.202,88420.131,39.396,106.856
内蒙古,兴安盟,12.583,17.432,3.761,3.624,0.246,67.067,0.77,-9.676,274.131,75.332,94115.97,46.244,121.341
内蒙古,包头市,11.567,33.612,1.482,1.303,0.185,76.08,2.009,-7.079,274.603,40.037,86455.959,41.549,110.276
内蒙古,呼伦贝尔市,2.666,4.219,1.375,1.736,0.19,78.802,-1.68,-6.863,272.387,55.56,93487.117,49.636,121.171
内蒙古,呼和浩特市,17.763,73.905,3.657,5.383,0.277,76.959,2.677,-8.364,275.078,40.005,86697.909,40.578,111.513
内蒙古,巴彦淖尔市,12.231,20.917,1.316,1.282,0.174,76.856,0.29,-4.636,276.992,27.635,88028.193,41.446,107.582
内蒙古,赤峰市,10.082,46.366,2.645,1.854,0.204,72.083,8.785,-9.53,275.232,54.225,91450.09,43.226,118.892
内蒙古,通辽市,14.543,29.066,5.251,3.98,0.244,63.948,6.441,-4.393,279.335,57.426,97085.576,43.814,121.591
内蒙古,鄂尔多斯市,26.497,76.256,4.156,4.981,0.245,76.408,1.429,-6.409,277.594,27.243,87640.19,39.407,108.63
内蒙古,锡林郭勒盟,14.569,20.862,1.159,0.554,0.17,79.035,5.38,-9.242,272.966,53.639,89105.851,44.179,115.482
内蒙古,阿拉善盟,15.496,18.529,1.489,1.435,0.156,79.69,-1.616,1.779,280.354,19.598,88210.685,40.473,102.467
北京,北京市,23.782,94.408,2.563,7.654,0.277,76.159,4.168,-8.507,282.747,35.109,97741.241,40.158,116.395
台湾,台湾省,7.345,11.088,3.764,14.428,0.13,40.638,1.554,3.915,295.434,73.364,92942.856,23.757,120.975
吉林,吉林市,19.698,52.59,6.182,7.497,0.493,72.28,2.434,6.209,278.024,79.004,96294.794,43.573,126.859
吉林,四平市,21.011,56.113,6.027,8.362,0.414,63.904,5.326,4.503,280.339,67.258,98460.608,43.472,124.386
吉林,延边朝鲜族自治州,11.721,14.624,4.148,5.556,0.294,72.165,0.154,4.543,275.264,86.313,93505.151,43.141,129.147
吉林,松原市,21.684,43.964,7.181,7.31,0.334,58.797,3.36,2.353,280.349,67.962,98729.219,44.785,124.496
吉林,白城市,20.369,30.738,6.549,5.861,0.285,57.994,2.505,-5.076,279.749,63.37,98926.965,45.35,123.031
吉林,白山市,13.715,19.087,6.231,7.193,0.367,72.854,2.765,4.839,275.159,87.088,91565.61,42.063,127.256
吉林,辽源市,18.481,50.937,5.961,7.938,0.465,68.066,5.164,6.72,278.998,69.374,96668.004,42.836,125.32
吉林,通化市,15.247,28.132,6.716,7.849,0.468,73.98,3.264,6.081,277.426,76.626,95005.042,41.939,125.927
吉林,长春市,24.264,75.98,6.166,10.661,0.504,65.511,3.606,5.299,279.887,74.4,98331.943,44.268,125.611
四川,乐山市,24.934,44.723,5.707,12.644,0.385,71.183,0.312,-3.607,283.587,54.39,90110.314,29.218,103.569
四川,内江市,21.712,52.502,3.971,10.436,0.328,79.7,0.347,-3.461,287.319,56.94,97282.907,29.62,104.95
四川,凉山彝族自治州,20.835,29.558,6.442,3.705,0.482,91.537,-0.353,0.882,279.365,69.157,74230.704,27.883,102.065
四川,南充市,21.405,38.813,5.438,8.588,0.285,82.945,-2.753,-4.975,287.3,45.674,97254.101,31.19,106.199
四川,宜宾市,19.928,45.348,8.106,12.668,0.459,75.714,0.293,-2.312,286.264,63.671,95643.038,28.573,104.621
四川,巴中市,21.916,31.553,4.459,5.989,0.218,75.541,-4.635,-5.812,284.166,42.372,92897.817,32.033,107.031
四川,广元市,17.275,28.256,3.55,5.219,0.2,82.53,-2.406,-6.861,284.384,33.424,92070.742,32.261,105.788
四川,广安市,15.441,34.532,7.403,11.867,0.355,76.604,-1.647,-3.94,285.865,63.206,97239.725,30.43,106.628
四川,德阳市,20.878,46.896,4.425,14.03,0.276,76.232,-2.979,-3.715,285.86,38.103,93704.9,31.13,104.436
四川,成都市,22.677,49.764,4.282,17.78,0.345,72.153,-0.251,-3.631,285.714,43.531,93871.227,30.64,103.929
四川,攀枝花市,24.799,37.866,13.614,13.77,0.763,98.541,-0.131,0.948,289.35,46.544,81462.33,26.791,101.734
四川,泸州市,18.168,36.26,6.939,10.319,0.336,69.991,2.618,-3.797,283.628,80.043,93964.505,28.424,105.675
四川,甘孜藏族自治州,12.448,14.061,1.872,0.602,0.181,100.028,6.208,4.295,271.758,67.58,60957.978,30.936,100.009
四川,眉山市,23.191,49.661,4.437,16.178,0.391,69.275,0.634,-3.56,286.172,48.528,94334.553,29.912,103.766
四川,绵阳市,15.78,24.366,2.576,5.295,0.191,85.184,-2.882,-5.297,281.881,43.047,88417.411,31.86,104.704
四川,自贡市,22.384,51.208,5.533,13.619,0.419,78.195,0.159,-3.358,287.763,54.594,97267.089,29.307,104.659
四川,资阳市,20.84,50.56,3.344,7.216,0.278,81.139,-0.616,-3.371,287.425,52.839,97520.272,30.102,105.149
四川,达州市,21.443,32.952,7.658,9.577,0.259,76.141,-3.262,-4.133,284.864,54.471,94454.602,31.335,107.636
四川,遂宁市,22.355,47.002,4.478,8.547,0.3,82.045,-2.005,-4.155,287.824,46.909,97745.397,30.642,105.457
四川,阿坝藏族羌族自治州,11.285,12.937,1.718,1.402,0.178,89.985,-1.118,1.318,268.01,82.009,65370.441,32.406,102.61
四川,雅安市,24.967,34.328,4.269,5.097,0.249,84.56,-1.347,-0.967,275.755,77.492,80409.838,29.932,102.689
天津,天津市,25.665,108.245,3.982,15.831,0.381,75.38,4.067,-5.473,284.48,41.122,101427.877,39.315,117.308
宁夏,中卫市,24.98,44.898,5.301,9.624,0.249,74.593,-0.231,-2.391,276.895,27.462,84221.625,37.018,105.509
宁夏,吴忠市,29.863,57.692,7.897,14.311,0.292,70.215,0.192,-4.105,277.813,24.564,85781.39,37.454,106.577
宁夏,固原市,25.894,65.973,5.807,12.662,0.304,87.365,-0.566,-4.919,275.506,31.485,81512.036,35.905,106.183
宁夏,石嘴山市,34.868,133.521,24.644,24.142,0.618,80.664,-0.366,-4.903,278.603,18.776,87486.096,39.013,106.499
宁夏,银川市,34.395,109.763,14.8,22.812,0.488,74.88,-0.696,-3.345,279.312,19.868,87792.166,38.287,106.342
安徽,亳州市,42.884,124.601,8.912,22.117,0.636,67.237,2.984,-7.518,284.824,58.148,101424.198,33.44,116.162
安徽,六安市,36.03,55.093,7.939,15.224,0.486,75.789,3.547,-6.112,283.877,69.393,98912.74,31.617,116.209
安徽,合肥市,40.705,58.158,7.326,22.283,0.595,66.835,5.232,-6.688,286.079,64.568,101162.063,31.766,117.359
安徽,安庆市,25.161,34.18,8.007,11.325,0.463,71.143,1.262,-4.816,286.478,70.404,99209.817,30.557,116.473
安徽,宣城市,35.195,45.329,9.771,21.614,0.627,50.053,5.017,-2.011,286.826,77.709,98993.561,30.676,118.846
安徽,宿州市,43.866,125.509,10.835,26.27,0.627,67.692,2.981,-7.528,284.787,58.403,101244.949,33.844,117.23
安徽,池州市,29.135,38.622,10.489,17.044,0.532,62.567,1.192,-5.736,285.586,76.564,99371.943,30.296,117.379
安徽,淮北市,45.274,126.618,11.072,28.482,0.664,66.886,2.977,-7.421,284.777,57.549,101352.398,33.722,116.747
安徽,淮南市,43.531,75.19,7.996,22.639,0.569,71.657,3.973,-7.027,285.24,62.296,101410.423,32.463,116.746
安徽,滁州市,40.758,66.042,7.882,20.368,0.521,68.223,3.651,-6.851,285.804,65.327,100952.522,32.55,118.076
安徽,芜湖市,43.063,54.742,10.027,27.518,0.678,54.385,5.062,-5.492,287.159,67.569,101238.677,31.167,118.162
安徽,蚌埠市,44.927,91.646,9.513,25.638,0.575,67.709,3.295,-7.397,285.186,59.779,101315.873,33.121,117.263
安徽,铜陵市,35.858,46.925,9.739,20.311,0.566,64.007,4.233,-7.451,286.557,66.955,101165.657,30.883,117.531
安徽,阜阳市,43.194,128.155,9.408,19.773,0.614,66.586,2.527,-7.398,284.94,60.481,101455.091,32.937,115.723
安徽,马鞍山市,41.358,55.328,8.918,25.912,0.664,57.432,4.387,-6.186,287.138,67.196,101193.396,31.622,118.386
安徽,黄山市,22.916,32.785,10.607,14.123,0.536,52.102,2.223,-4.177,285.967,82.982,97050.683,29.869,118.09
山东,东营市,24.189,64.677,11.94,14.682,0.466,76.768,3.544,-5.509,283.265,51.879,101483.824,37.57,118.572
山东,临沂市,33.405,115.658,10.214,19.997,0.547,76.02,2.63,-7.205,283.601,56.075,99651.652,35.289,118.27
山东,威海市,22.594,54.997,8.54,14.99,0.477,87.448,1.954,-4.931,281.724,65.539,100553.87,37.148,122.028
山东,德州市,24.765,67.545,9.63,21.195,0.522,67.791,2.713,-6.118,284.769,46.129,101518.131,37.233,116.679
山东,日照市,29.903,103.659,8.671,19.583,0.494,77.979,2.302,-7.398,283.321,59.182,99683.749,35.566,119.108
山东,枣庄市,38.394,146.456,14.102,23.432,0.586,69.687,3.026,-6.992,284.146,55.06,100489.15,34.925,117.383
山东,泰安市,31.212,103.146,12.575,28.841,0.69,65.057,2.671,-7.035,283.427,51.897,99688.239,35.993,117.04
山东,济南市,30.527,88.698,13.293,28.669,0.705,66.134,2.63,-6.528,283.13,51.516,99660.246,36.639,117.254
山东,济宁市,32.126,126.77,13.406,28.232,0.68,60.61,2.65,-6.928,284.191,54.054,101023.099,35.375,116.697
山东,淄博市,33.146,91.678,15.352,29.758,0.81,69.782,3.385,-6.347,282.371,54.057,98961.112,36.623,118.062
山东,滨州市,25.025,66.228,10.59,17.397,0.508,73.99,3.258,-5.526,284.041,48.421,101486.004,37.516,117.852
山东,潍坊市,29.978,88.822,11.237,21.995,0.595,77.067,3.632,-6.536,282.894,56.508,100313.984,36.53,119.092
山东,烟台市,22.92,60.849,8.313,16.753,0.497,81.387,2.836,-4.106,281.407,64.889,100152.314,37.25,120.789
山东,聊城市,27.697,87.533,9.961,26.334,0.603,59.029,2.198,-6.518,284.851,47.507,101375.939,36.458,115.863
山东,菏泽市,32.891,139.21,10.074,24.971,0.773,59.627,2.519,-6.834,284.456,53.937,101278.522,35.134,115.69
山东,青岛市,25.244,75.888,7.421,19.173,0.442,80.397,2.896,-6.154,282.845,61.067,100767.044,36.46,120.172
山西,临汾市,42.786,203.044,10.612,15.085,0.595,66.823,2.455,-8.319,280.626,29.318,90419.977,36.227,111.398
山西,吕梁市,42.052,211.144,7.401,10.624,0.346,76.883,2.476,-8.514,278.226,32.279,88053.369,37.663,111.27
山西,大同市,29.353,82.504,4.667,3.676,0.26,76.086,5.282,-11.2,275.574,38.345,87375.593,39.911,113.713
山西,太原市,46.825,198.901,4.851,11.952,0.31,81.085,3.209,-8.984,278.075,31.57,87833.251,37.967,112.321
山西,忻州市,31.729,78.34,5.468,7.718,0.242,79.606,4.173,-9.744,275.838,36.702,86331.976,38.877,112.391
山西,晋中市,45.086,167.802,5.974,15.299,0.393,70.116,3.262,-9.169,279.017,29.768,88701.231,37.328,112.997
山西,晋城市,55.355,267.209,11.572,17.237,0.628,63.339,2.537,-8.772,281.348,31.07,90651.06,35.625,112.752
山西,朔州市,31.317,85.257,5.918,5.744,0.286,79.012,4.37,-9.34,275.683,38.075,86841.504,39.619,112.655
山西,运城市,36.972,163.811,12.437,19.633,0.572,65.475,2.892,-6.222,283.62,29.569,94669.715,35.205,111.071
山西,长治市,47.569,199.747,8.88,16.566,0.533,64.119,2.685,-8.845,279.699,30.971,88980.836,36.48,112.915
山西,阳泉市,39.648,90.886,5.421,13.308,0.267,72.177,5.683,-9.366,280.108,28.127,90563.634,38.031,113.512
广东,东莞市,19.648,31.98,6.402,29.041,0.603,24.582,0.033,2.44,297.634,84.99,100970.582,22.931,113.81
广东,中山市,13.388,20.588,4.279,16.531,0.429,31.911,1.314,2.091,298.16,81.952,100957.807,22.5,113.383
广东,云浮市,18.856,27.248,5.332,9.817,0.48,36.191,0.773,0.305,297.379,78.575,98955.841,22.776,111.818
广东,佛山市,17.793,29.012,7.418,27.806,0.599,21.078,-0.342,-0.516,297.294,80.206,101014.155,23.035,112.979
广东,广州市,20.519,35.48,9.111,33.962,0.672,20.527,-0.201,-0.567,296.238,83.506,100134.288,23.339,113.525
广东,惠州市,16.994,26.332,6.011,19.087,0.438,35.467,0.908,1.509,296.483,83.7,99179.064,23.244,114.485
广东,揭阳市,24.87,39.791,6.821,14.427,0.71,35.047,2.665,1.997,298.06,78.183,99746.038,23.323,116.123
广东,梅州市,23.488,35.373,7.258,16.923,0.796,27.199,2.98,0.762,295.896,77.128,97758.763,24.169,116.07
广东,汕头市,21.663,34.894,9.32,17.22,0.595,35.508,2.143,2.789,298.456,81.805,100847.867,23.339,116.614
广东,汕尾市,14.62,21.608,4.101,8.303,0.346,43.92,2.19,2.56,297.397,83.365,99502.227,23.024,115.527
广东,江门市,12.052,18.482,3.046,9.885,0.305,40.052,0.731,2.509,297.8,83.943,100392.529,22.289,112.676
广东,河源市,18.801,28.589,8.86,15.819,0.478,35.041,1.979,-0.099,294.497,82.996,97977.116,24.021,114.969
广东,深圳市,17.687,27.863,6.466,26.693,0.477,26.834,0.25,3.453,297.236,88.678,100502.358,22.667,114.143
广东,清远市,22.707,36.457,12.717,20.097,0.548,33.232,-0.157,-4.483,291.278,86.679,97552.612,24.295,112.871
广东,湛江市,17.104,26.866,5.769,7.183,0.482,41.114,0.039,-0.86,300.56,67.827,100723.748,21.091,110.163
广东,潮州市,28.985,47.742,12.294,23.236,0.883,27.394,2.397,1.824,297.449,80.457,99178.532,23.755,116.754
广东,珠海市,9.3,14.982,2.893,9.267,0.22,45.165,1.365,3.585,297.562,89.563,101045.048,22.095,113.317
广东,肇庆市,20.261,30.442,7.417,14.302,0.513,31.526,-1.071,-1.843,295.339,81.974,99098.224,23.505,112.199
广东,茂名市,17.531,27.476,5.919,6.333,0.44,43.11,-0.786,0.181,297.6,82.593,99008.62,22.013,110.952
广东,阳江市,12.846,19.802,3.763,5.411,0.292,43.048,0.497,2.218,297.93,83.723,99538.734,22.042,111.786
广东,韶关市,22.9,33.194,12.523,19.057,0.664,39.031,1.8,-3.513,290.435,87.115,96799.145,24.785,113.819
广西,北海市,24.187,40.769,8.375,9.239,0.621,49.91,0.878,-3.872,298.579,76.576,100826.69,21.674,109.37
广西,南宁市,29.773,44.592,10.72,10.895,0.615,56.814,-2.239,-7.319,294.753,70.667,99162.456,23.051,108.469
广西,崇左市,32.86,37.958,10.548,6.069,0.521,68.604,-2.229,-6.335,296.291,64.856,97835.344,22.483,107.291
广西,来宾市,30.01,46.591,11.281,9.723,0.619,53.231,-2.027,-9.163,291.926,76.94,98044.765,23.859,109.417
广西,柳州市,22.797,38.546,12.245,7.621,0.516,57.635,-2.178,-10.299,289.032,76.95,97588.637,24.956,109.372
广西,桂林市,19.399,37.698,12.497,10.242,0.497,59.82,-4.421,-7.601,287.081,83.718,95960.629,25.353,110.513
广西,梧州市,27.996,41.578,10.316,11.685,0.657,42.604,-0.171,-4.078,294.749,78.745,98750.569,23.484,110.996
广西,河池市,26.678,39.07,13.898,5.111,0.545,61.018,-2.658,-9.379,289.638,67.058,95257.201,24.628,107.843
广西,玉林市,27.586,43.997,10.653,9.406,0.638,47.328,-0.321,-2.855,296.441,80.815,99108.379,22.452,110.164
广西,百色市,34.532,40.82,15.646,6.122,0.785,71.957,-3.431,-7.094,291.892,58.07,93122.927,23.981,106.292
广西,贵港市,34.985,54.465,11.881,13.022,0.744,46.238,-0.303,-4.299,295.201,76.461,99604.931,23.322,110.021
广西,贺州市,27.111,42.557,13.168,11.016,0.535,46.653,-2.858,-7.596,290.335,83.046,97030.76,24.364,111.394
广西,钦州市,26.882,45.489,9.893,10.432,0.662,53.405,0.001,-4.537,296.66,78.58,100170.452,22.173,109.01
广西,防城港市,25.299,36.723,9.442,7.853,0.556,60.329,0.268,-4.475,296.827,73.578,98596.514,21.88,108.002
新疆,乌鲁木齐市,35.438,65.512,2.81,6.92,0.34,83.599,-2.448,5.406,280.405,27.835,84302.075,43.746,87.818
新疆,五家渠市,48.723,85.033,6.92,19.99,0.637,75.513,-2.717,1.81,288.523,20.82,96399.503,44.363,87.517
新疆,伊犁哈萨克自治州,25.159,44.708,1.234,4.314,0.257,77.81,-0.607,2.736,279.678,37.547,80357.178,43.438,82.146
新疆,克孜勒苏柯尔克孜自治州,38.605,76.811,0.547,1.938,0.185,73.326,2.45,0.993,273.118,50.798,70667.635,39.661,75.949
新疆,克拉玛依市,27.047,38.233,2.692,4.679,0.308,87.688,-2.281,-3.224,286.779,25.467,97204.362,45.457,85.207
新疆,北屯市,50.736,58.766,1.758,1.402,0.27,79.042,-3.646,5.76,286.196,24.076,95415.026,47.27,87.868
新疆,博尔塔拉蒙古自治州,19.532,38.623,3.127,4.639,0.254,85.155,1.408,2.496,281.255,35.28,86101.382,44.714,82.114
新疆,双河市,21.26,48.004,5.794,8.702,0.338,88.14,-0.876,-1.168,286.006,31.192,97671.442,44.87,82.474
新疆,可克达拉市,42.772,117.564,3.916,16.954,0.606,69.05,-6.712,2.032,289.4,27.17,94496.264,43.918,80.786
新疆,和田地区,21.279,37.238,0.368,1.144,0.132,86.102,-0.643,0.52,277.242,24.232,74186.948,37.059,80.934
新疆,哈密市,12.914,16.742,1.111,2.682,0.162,85.403,0.454,3.635,283.099,16.765,88603.526,43.042,93.517
新疆,喀什地区,40.544,74.555,0.843,2.407,0.189,72.626,1.059,0.526,278.291,30.007,76329.473,38.125,77.178
新疆,图木舒克市,55.723,88.385,1.172,1.022,0.148,62.28,-2.712,0.053,286.577,28.785,89513.667,39.892,79.182
新疆,塔城地区,25.084,29.731,2.378,2.812,0.229,85.568,0.14,1.297,283.136,30.353,89436.602,45.642,84.789
新疆,巴音郭楞蒙古自治州,18.458,24.475,0.622,0.465,0.136,91.274,2.138,0.264,277.963,25.427,79451.872,39.463,87.481
新疆,新星市,7.05,32.17,2.335,14.48,0.345,78.295,-2.625,0.295,286.455,12.835,93121.82,42.75,93.68
新疆,昆玉市,84.723,229.507,2.06,10.663,0.26,58.83,-3.82,1.697,288.643,21.043,87112.98,37.457,79.093
新疆,昌吉回族自治州,44.751,55.471,2.309,4.932,0.259,85.196,-1.145,3.069,284.502,23.49,89825.459,44.342,88.608
新疆,石河子市,33.04,54.79,8.64,22.055,0.66,100.26,1.69,-0.225,288.405,22.89,94466.695,44.245,86.035
新疆,胡杨河市,22.976,33.546,2.734,4.666,0.38,86.102,-2.784,-2.49,286.438,29.09,97659.216,44.852,84.772
新疆,铁门关市,59.123,107.883,1.357,2.113,0.2,73.99,3.817,-3.817,287.237,15.94,91974.4,41.773,85.66
新疆,阿克苏地区,57.394,105.369,0.918,1.69,0.161,74.302,1.057,0.71,282.954,29.922,85577.218,40.965,81.578
新疆,阿勒泰地区,45.37,47.67,1.052,0.781,0.161,81.409,-3.857,5.39,281.258,30.298,88458.09,46.902,88.421
新疆,阿拉尔市,81.985,185.094,1.132,3.378,0.192,70.755,0.475,0.491,286.808,22.739,90395.051,40.629,80.998
江苏,南京市,37.516,53.587,7.323,26.971,0.637,53.833,3.644,-5.723,287.002,70.981,101190.103,31.899,118.876
江苏,南通市,26.897,35.775,7.791,18.941,0.438,61.515,1.653,-1.413,286.546,88.566,101174.494,32.201,120.979
江苏,宿迁市,41.646,105.135,9.27,21.737,0.566,69.244,3.081,-7.26,285.277,62.416,101340.002,33.765,118.495
江苏,常州市,36.632,50.021,6.814,32.07,0.758,45.261,3.201,-3.279,287.452,79.178,101168.647,31.613,119.666
江苏,徐州市,41.664,144.386,12.044,24.958,0.617,68.463,2.956,-7.366,284.648,57.776,101210.625,34.363,117.513
江苏,扬州市,35.266,54.638,6.299,19.041,0.5,68.643,3.012,-5.471,285.823,76.5,101281.081,32.709,119.486
江苏,无锡市,34.014,47.708,7.484,34.612,0.782,43.342,3.122,-1.718,287.618,82.489,101048.148,31.546,120.066
江苏,泰州市,31.071,43.516,6.965,18.505,0.503,69.694,1.894,-3.967,285.96,82.311,101191.433,32.605,120.048
江苏,淮安市,39.422,80.147,8.257,20.793,0.528,70.857,3.015,-6.521,285.441,68.453,101279.922,33.362,118.985
江苏,盐城市,28.402,51.89,7.302,13.754,0.388,78.99,1.073,-4.702,284.55,80.354,101241.066,33.529,120.156
江苏,苏州市,31.135,43.246,7.632,34.698,0.709,46.732,3.184,-0.726,287.918,84.988,101184.563,31.374,120.661
江苏,连云港市,36.607,103.395,8.937,20.113,0.492,74.484,1.825,-6.976,284.714,63.757,101166.816,34.519,119.133
江苏,镇江市,37.886,53.294,6.238,30.472,0.662,48.561,3.436,-4.862,286.632,78.352,101161.304,32.016,119.49
江西,上饶市,15.109,23.603,8.051,11.329,0.627,49.095,3.297,-2.759,287.686,87.174,99169.768,28.778,117.47
江西,九江市,20.849,33.707,6.996,13.917,0.564,62.91,3.839,-5.337,284.542,82.392,99298.022,29.313,115.444
江西,南昌市,13.384,23.833,5.773,13.323,0.674,62.603,3.323,-6.339,287.017,81.544,101143.087,28.671,116.016
江西,吉安市,21.45,32.594,11.344,10.64,0.697,46.067,3.005,-4.631,286.98,88.605,98913.349,26.954,114.831
江西,宜春市,18.459,29.604,8.011,12.424,0.616,55.366,2.7,-5.405,285.706,82.96,99262.228,28.29,114.974
江西,抚州市,18.093,26.797,9.029,12.244,0.637,48.334,2.511,-3.804,287.883,91.079,98815.851,27.514,116.42
江西,新余市,18.036,28.957,9.348,13.064,0.637,49.33,3.626,-4.025,286.357,85.468,100221.574,27.847,114.836
江西,景德镇市,16.306,24.4,8.729,11.59,0.536,52.809,2.467,-4.657,287.29,82.102,100027.585,29.287,117.24
江西,萍乡市,20.191,33.605,9.401,12.67,0.632,54.699,2.684,-4.577,284.056,89.165,98024.72,27.505,113.908
江西,赣州市,24.719,34.876,13.465,12.72,0.979,37.905,2.044,-3.163,289.946,88.054,97126.961,25.692,115.279
江西,鹰潭市,14.073,22.325,6.959,14.159,0.621,49.288,3.171,-3.865,287.544,90.269,99743.98,28.222,117.094
河北,保定市,22.475,47.776,3.645,7.37,0.283,73.697,3.829,-8.488,283.581,32.929,97863.978,39.018,115.159
河北,唐山市,27.224,90.561,8.105,17.554,0.416,72.385,3.242,-4.424,283.429,46.428,100793.321,39.731,118.354
河北,廊坊市,22.407,105.047,4.003,12.691,0.365,78.177,3.937,-6.618,285.195,37.079,101541.475,39.267,116.632
河北,张家口市,20.317,73.901,1.89,2.285,0.24,77.426,6.68,-11.973,274.517,43.359,87677.669,40.877,115.042
河北,承德市,18.674,65.316,3.045,3.493,0.23,76.969,5.867,-8.893,276.372,47.356,90696.922,41.339,117.578
河北,沧州市,21.56,60.898,6.424,15.751,0.397,73.36,3.541,-5.74,284.822,42.27,101596.619,38.258,116.744
河北,石家庄市,31.086,67.528,5.915,16.612,0.364,70.143,3.303,-7.326,284.887,31.199,98514.146,38.135,114.407
河北,秦皇岛市,20.292,49.522,6.077,9.942,0.357,72.194,3.13,-4.503,281.397,52.684,98394.708,40.12,119.193
河北,衡水市,23.633,55.382,5.728,17.533,0.411,66.573,3.166,-6.358,285.325,41.28,101559.422,37.755,115.813
河北,邢台市,31.638,86.931,6.99,20.111,0.464,64.718,2.29,-7.19,285.489,36.57,100118.955,37.195,114.815
河北,邯郸市,40.679,150.795,9.085,25.27,0.732,56.931,1.502,-6.823,285.143,39.385,99659.774,36.538,114.596
河南,三门峡市,35.336,112.24,9.74,19.923,0.426,62.643,4.068,-7.477,281.933,33.402,92235.037,34.362,111.101
河南,信阳市,44.207,118.196,10.94,18.085,0.58,63.925,1.312,-6.762,284.868,66.083,100552.574,32.091,114.907
河南,南阳市,35.329,101.65,8.738,19.065,0.542,59.5,1.662,-5.566,286.475,40.44,98587.301,33.034,112.323
河南,周口市,44.732,215.335,9.57,22.915,0.775,60.432,1.441,-6.817,285.014,58.084,101303.115,33.738,114.884
河南,商丘市,40.567,158.975,9.412,23.129,0.751,63.138,2.542,-7.227,284.593,56.505,101304.481,34.277,115.718
河南,安阳市,49.536,209.779,11.377,29.819,0.975,48.955,1.043,-6.17,284.975,40.831,99279.168,35.888,114.318
河南,平顶山市,49.293,189.747,13.208,27.665,0.737,54.065,3.687,-6.882,286.61,38.509,99183.587,33.8,113.025
河南,开封市,43.351,206.736,10.737,27.316,0.886,50.11,0.807,-5.799,284.891,53.649,101059.522,34.594,114.514
河南,新乡市,49.208,200.329,11.559,29.47,0.916,46.2,-0.079,-4.78,285.369,44.606,100124.86,35.256,114.111
河南,洛阳市,40.397,141.556,11.488,21.489,0.585,60.585,4.861,-6.61,283.902,34.259,94555.475,34.274,112.019
河南,济源市,48.913,225.85,10.585,17.795,0.577,66.964,2.275,-6.91,285.811,28.095,96343.307,35.105,112.445
河南,漯河市,53.633,257.449,11.708,31.606,0.819,47.986,0.622,-5.237,285.778,54.032,101199.179,33.652,113.945
河南,濮阳市,34.301,133.363,9.941,26.928,0.774,55.376,2.011,-6.495,284.657,49.561,101295.46,35.809,115.283
河南,焦作市,62.706,284.308,11.972,33.129,0.784,47.073,0.773,-3.789,287.16,35.974,99953.249,35.121,113.163
河南,许昌市,54.759,256.875,12.966,35.056,0.842,43.727,0.82,-5.168,286.26,45.803,100512.446,34.075,113.707
河南,郑州市,58.539,277.721,13.18,39.55,0.872,38.488,2.135,-3.952,285.841,42.189,99191.259,34.634,113.438
河南,驻马店市,49.294,209.101,10.702,23.846,0.693,57.088,1.116,-6.464,285.476,58.761,100885.179,32.925,114.174
河南,鹤壁市,52.643,220.348,12.569,34.62,1.113,45.367,0.324,-5.598,285.399,42.269,100468.926,35.716,114.319
浙江,丽水市,18.109,26.559,10.043,17.451,0.613,44.336,2.552,-0.115,289.466,91.504,94263.678,28.194,119.51
浙江,台州市,18.448,26.557,7.124,23.125,0.559,40.789,2.242,0.154,290.792,84.751,98466.578,28.742,121.109
浙江,嘉兴市,27.522,39.438,6.99,32.753,0.71,41.25,4.039,-1.426,289.184,78.393,101210.293,30.635,120.754
浙江,宁波市,20.472,28.879,7.118,24.455,0.583,45.007,4.036,0.211,289.782,80.455,99968.828,29.706,121.49
浙江,杭州市,21.87,33.188,8.441,20.681,0.603,45.291,3.344,-1.354,288.761,79.484,98354.651,29.891,119.464
浙江,温州市,21.664,31.066,9.133,25.644,0.738,44.823,1.798,-0.416,292.332,85.584,97261.921,27.897,120.411
浙江,湖州市,29.564,42.083,7.809,26.371,0.703,44.283,5.192,-1.04,288.43,79.216,99965.319,30.757,119.871
浙江,绍兴市,22.186,32.448,6.069,25.984,0.649,39.939,2.352,0.329,289.319,78.894,99163.026,29.709,120.64
浙江,舟山市,14.798,26.402,8.162,16.25,0.412,52.43,5.358,0.248,288.785,87.828,100979.382,30.038,122.23
浙江,衢州市,14.34,22.974,9.298,15.35,0.669,42.069,2.591,0.002,289.114,86.931,97639.309,28.912,118.675
浙江,金华市,16.75,25.603,7.706,23.128,0.631,39.514,1.479,0.432,289.493,83.799,97835.465,29.109,119.967
海南,万宁市,6.681,10.284,0.898,1.956,0.123,41.803,1.146,5.751,298.35,88.189,99762.186,18.842,110.294
海南,三亚市,7.32,10.906,1.374,4.51,0.387,34.759,-2.76,2.376,298.119,84.22,98567.72,18.413,109.407
海南,东方市,5.935,8.865,1.155,2.074,0.122,43.333,-3.212,3.816,301.415,60.112,99078.74,18.971,108.838
海南,临高县,12.556,18.106,2.309,4.127,0.24,34.786,0.237,-0.139,300.907,62.616,100256.403,19.821,109.733
海南,乐东黎族自治县,6.958,9.871,0.937,3.056,0.192,37.442,-2.528,2.715,298.712,75.117,97665.441,18.659,109.072
海南,五指山市,8.668,10.904,1.4,3.88,0.178,39.02,-0.762,2.41,297.626,73.4,94512.094,18.81,109.518
海南,儋州市,10.945,15.184,1.991,3.587,0.195,40.654,0.331,-0.514,301.272,60.55,99908.911,19.568,109.399
海南,定安县,9.082,14.29,1.993,4.873,0.243,27.523,-0.388,4.06,300.787,70.045,99975.088,19.47,110.28
海南,屯昌县,8.096,11.876,1.42,3.688,0.2,31.864,-0.34,2.846,301.17,63.288,99193.336,19.342,110.076
海南,文昌市,6.996,12.566,0.976,2.275,0.147,36.052,-0.49,6.826,299.049,86.34,100769.17,19.707,110.773
海南,昌江黎族自治县,7.962,11.047,1.608,2.748,0.142,44.312,-1.189,2.049,300.626,61.672,98094.66,19.233,109.016
海南,海口市,10.379,16.54,2.762,6.207,0.275,24.984,0.078,3.354,301.136,69.033,100532.435,19.842,110.393
海南,澄迈县,10.479,16.231,2.386,5.023,0.259,30.044,0.174,1.221,301.411,61.95,100079.469,19.676,109.989
海南,琼中黎族苗族自治县,7.492,10.086,1.097,3.143,0.164,37.031,1.541,3.385,300.143,63.37,97053.762,19.087,109.847
海南,琼海市,7.062,11.02,1.247,2.955,0.153,34.367,-0.398,5.308,299.75,80.802,100555.007,19.22,110.43
海南,白沙黎族自治县,7.985,10.681,1.384,3.035,0.16,41.798,0.942,2.711,300.19,61.635,96767.179,19.2,109.388
海南,陵水黎族自治县,7.4,10.069,0.754,3.004,0.211,38.544,0.86,2.656,298.129,86.16,99122.163,18.581,109.913
湖北,仙桃市,23.493,49.565,7.408,14.595,0.581,66.632,-0.287,-7.643,287.174,61.776,101627.849,30.284,113.417
湖北,十堰市,26.469,47.801,7.024,7.642,0.34,66.245,2.407,-4.136,284.281,39.308,93822.93,32.462,110.476
湖北,咸宁市,24.291,44.196,6.588,15.123,0.626,69.316,1.431,-6.139,284.453,78.516,99672.917,29.621,114.178
湖北,天门市,25.646,54.732,10.036,16.509,0.563,60.593,-0.115,-7.651,287.839,55.713,101597.538,30.633,113.053
湖北,孝感市,31.747,72.107,8.236,15.318,0.593,65.731,0.178,-8.325,286.437,61.627,100945.378,31.116,113.869
湖北,宜昌市,25.007,42.41,8.77,11.928,0.442,61.5,-0.965,-4.211,285.631,48.665,94497.961,30.746,111.129
湖北,恩施土家族苗族自治州,26.676,40.13,11.063,6.749,0.396,62.343,-0.823,-0.729,282.4,76.924,89935.892,30.195,109.552
湖北,武汉市,26.729,55.573,5.484,19.528,0.673,65.743,0.924,-8.002,286.271,65.971,101453.009,30.606,114.349
湖北,潜江市,23.743,49.774,11.214,20.269,0.626,57.104,-0.083,-7.972,287.908,55.874,101619.501,30.33,112.77
湖北,神农架林区,26.077,33.186,5.907,3.252,0.215,71.508,2.259,-7.483,276.854,59.924,83268.302,31.592,110.49
湖北,荆州市,22.31,43.719,9.916,18.127,0.635,57.929,-1.272,-7.278,287.891,57.205,101390.788,30.01,112.512
湖北,荆门市,28.205,66.867,11.243,19.178,0.544,57.132,0.249,-8.301,287.505,51.668,100583.991,31.059,112.616
湖北,襄阳市,27.904,77.602,8.418,15.966,0.468,60.105,2.813,-6.166,286.221,46.219,97870.899,31.919,111.96
湖北,鄂州市,24.857,43.419,5.78,18.371,0.651,69.737,2.62,-7.929,286.007,68.004,101454.016,30.337,114.794
湖北,随州市,37.012,99.75,10.084,17.264,0.569,60.843,0.754,-7.392,286.116,56.83,99842.223,31.809,113.43
湖北,黄冈市,26.425,42.588,6.947,12.9,0.532,69.863,1.606,-7.007,285.576,68.136,99593.071,30.702,115.358
湖北,黄石市,23.62,38.742,5.866,17.701,0.63,70.554,4.526,-6.612,285.147,73.669,100426.914,29.925,115.034
湖南,娄底市,17.111,35.969,8.773,8.835,0.7,75.896,-1.456,-6.666,284.295,80.479,97597.67,27.715,111.632
湖南,岳阳市,22.274,40.231,8.617,12.603,0.571,66.506,-0.389,-6.932,285.552,76.056,100439.361,29.081,113.275
湖南,常德市,17.126,35.73,10.356,12.654,0.626,57.648,-1.259,-4.363,286.559,65.275,99738.136,29.271,111.524
湖南,张家界市,17.695,38.741,11.524,10.337,0.578,55.119,-0.708,-0.913,284.103,77.516,95772.652,29.379,110.526
湖南,怀化市,16.473,35.572,9.236,8.155,0.682,67.294,-1.899,-4.69,284.523,82.489,96734.696,27.535,110.071
湖南,株洲市,19.533,35.071,9.554,13.036,0.62,58.588,2.18,-5.26,284.274,88.977,98200.034,27.109,113.513
湖南,永州市,20.859,37.874,11.731,11.904,0.497,63.656,-2.613,-6.601,285.018,88.897,96800.54,25.748,111.723
湖南,湘潭市,15.225,35.689,7.365,15.306,0.659,75.963,0.135,-7.059,285.342,81.233,100597.446,27.744,112.619
湖南,湘西土家族苗族自治州,19.286,40.27,8.401,10.299,0.591,55.834,-0.933,-0.65,283.927,83.296,95737.284,28.708,109.718
湖南,益阳市,18.31,36.893,8.096,9.687,0.634,68.628,-0.687,-6.291,285.253,76.159,99213.93,28.525,111.919
湖南,衡阳市,15.966,34.729,8.747,14.11,0.629,70.843,0.485,-6.379,285.031,84.995,100095.194,26.781,112.565
湖南,邵阳市,19.005,38.981,11.333,9.938,0.607,71.731,-2.188,-4.803,283.68,87.642,95340.486,26.893,110.881
湖南,郴州市,20.847,35.926,8.881,13.628,0.695,53.718,1.457,-5.902,284.452,93.348,95901.689,25.769,113.109
湖南,长沙市,18.864,37.369,7.789,13.93,0.613,66.617,0.759,-7.144,284.955,81.145,99944.482,28.235,113.159
甘肃,临夏回族自治州,18.698,40.191,1.722,5.259,0.274,95.991,-0.744,1.354,272.679,53.265,77990.868,35.617,103.291
甘肃,兰州市,25.899,57.817,3.968,13.919,0.359,88.835,0.16,0.217,274.375,40.529,79657.526,36.359,103.633
甘肃,嘉峪关市,21.758,109.938,28.89,60.745,0.712,83.793,-3.423,1.913,276.722,23.84,82117.962,39.798,98.145
甘肃,天水市,19.953,35.582,3.022,5.898,0.204,87.008,-0.03,-4.398,277.535,32.43,83242.88,34.645,105.739
甘肃,定西市,17.348,31.123,1.702,3.777,0.192,94.112,0.596,-2.333,272.436,47.77,77738.955,35.124,104.432
甘肃,平凉市,24.099,46.527,4.129,8.715,0.221,79.592,-0.659,-5.6,278.674,27.797,85110.042,35.304,106.644
甘肃,庆阳市,25.698,49.595,4.436,5.707,0.205,73.939,0.133,-6.431,278.75,27.28,86399.342,36.149,107.596
甘肃,张掖市,10.772,21.244,2.38,6.724,0.235,93.943,0.304,0.761,272.432,33.775,74952.621,38.94,99.855
甘肃,武威市,18.19,29.307,2.844,4.466,0.225,83.764,-1.347,1.868,275.819,31.458,81945.325,38.163,103.073
甘肃,甘南藏族自治州,8.773,10.733,1.344,1.671,0.176,95.056,-2.28,-1.431,265.608,76.133,67782.826,34.331,102.768
甘肃,白银市,20.333,34.557,3.566,7.028,0.209,82.77,0.117,-1.697,275.94,30.087,82088.916,36.59,104.646
甘肃,酒泉市,5.698,9.954,1.963,3.368,0.16,96.475,-0.497,0.812,276.465,18.132,79487.719,40.236,96.062
甘肃,金昌市,17.068,50.006,6.471,7.717,0.281,87.978,-2.348,2.818,275.351,25.992,81111.803,38.44,102.048
甘肃,陇南市,15.282,24.796,2.463,3.732,0.173,90.119,-0.709,-5.674,277.071,38.45,82739.481,33.599,105.224
福建,三明市,28.536,39.843,12.207,15.056,0.776,32.88,4.03,0.181,291.598,84.388,94971.528,26.29,117.395
福建,南平市,21.691,32.184,10.739,13.246,0.621,39.579,3.181,-0.264,290.935,86.863,95691.662,27.324,118.143
福建,厦门市,21.3,33.627,10.66,27.542,0.493,31.848,2.035,3.923,297.298,84.958,100030.207,24.642,118.11
福建,宁德市,29.654,42.785,10.405,17.58,0.682,43.526,2.874,1.245,293.527,82.579,94937.348,26.968,119.474
福建,泉州市,21.846,35.258,10.022,19.441,0.526,37.003,3.678,3.225,295.29,82.759,96314.672,25.201,118.249
福建,漳州市,20.53,29.888,6.907,16.705,0.541,35.367,2.899,2.807,296.608,82.101,97912.434,24.372,117.444
福建,福州市,25.97,42.584,8.487,19.416,0.604,44.441,3.503,3.209,295.782,79.635,97012.933,26.083,119.206
福建,莆田市,22.53,39.086,9.455,19.977,0.507,39.346,3.512,3.734,295.771,84.753,97787.678,25.445,118.864
福建,龙岩市,23.597,32.658,9.743,14.837,0.703,29.227,3.326,0.803,292.994,83.704,94974.842,25.256,116.739
西藏,山南市,15.954,18.425,2.003,1.104,0.2,103.169,4.638,0.681,275.523,70.851,66004.846,28.295,92.274
西藏,拉萨市,4.43,8.423,0.324,1.112,0.16,103.605,4.193,-2.08,268.792,56.19,56451.76,30.043,91.093
西藏,日喀则市,3.688,4.357,0.31,0.345,0.133,99.614,6.262,-2.273,267.41,48.916,55291.346,29.483,86.493
西藏,昌都市,13.563,14.625,1.702,0.394,0.184,102.893,6.684,5.483,270.915,67.251,58865.914,30.753,97.044
西藏,林芝市,20.582,22.53,2.812,1.115,0.213,103.467,2.088,4.137,274.509,86.233,66268.856,29.184,95.25
西藏,玉树藏族自治州,5.178,5.805,0.359,0.248,0.13,88.411,1.264,-4.064,262.218,68.669,57235.792,34.196,94.317
西藏,那曲市,3.105,3.196,0.138,0.185,0.124,106.015,3.455,-4.004,265.113,45.907,55385.122,32.709,89.262
西藏,阿里地区,2.191,2.37,0.104,0.446,0.121,108.004,2.982,-3.47,264.123,33.014,54895.657,33.013,82.553
贵州,六盘水市,19.726,38.463,9.799,9.266,0.444,71.105,-1.312,-7.628,282.578,70.516,83387.618,26.106,104.896
贵州,安顺市,20.39,34.15,7.111,6.55,0.326,72.658,-1.642,-9.937,284.886,69.748,88495.109,25.986,105.978
贵州,毕节市,16.783,33.327,6.634,4.859,0.351,72.601,1.195,-7.362,279.28,87.212,83845.921,27.063,105.211
贵州,贵阳市,17.732,32.55,5.571,11.641,0.362,67.912,1.793,-8.074,282.153,85.765,88638.025,26.845,106.71
贵州,遵义市,17.5,29.779,8.079,11.155,0.368,52.837,3.527,-3.718,282.194,89.584,90873.983,28.167,107.102
贵州,铜仁市,19.482,40.413,13.162,8.347,0.516,51.38,-0.808,-1.411,283.494,86.377,93224.846,27.937,108.534
贵州,黔东南苗族侗族自治州,19.898,38.612,15.115,6.356,0.428,58.751,-1.448,-6.624,283.99,85.538,93048.276,26.495,108.574
贵州,黔南布依族苗族自治州,18.619,33.477,10.07,7.371,0.353,64.048,-0.714,-8.836,284.603,78.932,90711.897,26.0,107.265
贵州,黔西南布依族苗族自治州,22.252,37.339,11.527,6.63,0.414,70.377,-3.077,-6.903,287.498,60.014,88840.907,25.256,105.467
辽宁,丹东市,23.151,47.616,8.196,11.668,0.59,69.663,1.821,2.724,278.71,77.964,98052.738,40.554,124.376
辽宁,大连市,20.019,50.134,6.381,12.328,0.442,81.201,3.413,-0.987,280.441,69.484,100398.819,39.591,122.22
辽宁,抚顺市,18.844,54.209,7.351,10.593,0.595,72.209,4.064,4.984,278.299,72.717,96176.413,41.841,124.65
辽宁,朝阳市,16.387,119.58,6.326,5.817,0.413,72.663,7.251,-6.229,279.669,51.936,95932.963,41.545,120.053
辽宁,本溪市,19.279,53.993,7.417,10.492,0.591,71.728,3.132,4.004,277.732,75.69,95592.515,41.232,124.544
辽宁,沈阳市,23.094,77.856,7.272,11.701,0.531,69.07,5.505,2.008,281.608,61.217,100307.345,42.081,123.159
辽宁,盘锦市,20.341,120.59,7.349,10.53,0.497,78.563,5.119,-0.738,281.689,61.051,101115.643,41.13,122.01
辽宁,营口市,20.882,84.917,6.928,11.199,0.495,76.919,4.379,1.567,280.075,67.946,98928.098,40.395,122.478
辽宁,葫芦岛市,17.015,73.045,5.762,6.793,0.395,75.461,4.977,-4.36,281.256,51.663,98729.395,40.66,120.215
辽宁,辽阳市,22.696,90.183,8.241,14.059,0.771,74.187,4.754,2.531,280.775,65.318,99044.119,41.153,123.261
辽宁,铁岭市,21.248,58.887,7.226,11.652,0.474,67.902,5.082,4.597,280.378,67.308,98664.232,42.653,124.158
辽宁,锦州市,18.877,118.458,6.693,7.685,0.427,77.991,5.686,-2.233,281.444,56.518,100275.323,41.502,121.659
辽宁,阜新市,16.945,74.136,5.785,5.123,0.307,69.984,7.149,-1.925,280.727,56.933,98679.18,42.289,121.968
辽宁,鞍山市,22.82,85.319,7.428,11.806,0.647,73.999,4.289,0.842,280.496,67.057,99152.411,40.731,123.007
重庆,重庆城区,19.693,32.445,10.258,13.322,0.373,61.491,0.486,-2.552,284.628,75.67,95517.148,29.824,107.125
重庆,重庆郊县,28.836,39.841,11.96,7.633,0.323,60.968,-1.901,-2.717,282.999,69.946,91538.533,30.334,108.755
陕西,咸阳市,28.707,68.618,4.373,14.14,0.345,65.934,1.23,-4.201,282.964,27.427,92096.778,34.779,108.367
陕西,商洛市,29.668,49.29,4.924,9.115,0.257,70.253,1.744,-7.936,281.015,32.277,89807.036,33.64,109.889
陕西,安康市,23.413,34.886,5.223,5.349,0.239,68.843,-0.309,-3.927,281.449,44.587,90409.727,32.735,108.932
陕西,宝鸡市,21.69,42.77,3.293,9.241,0.236,76.356,-1.195,-5.099,279.465,29.595,86940.809,34.386,107.193
陕西,延安市,31.948,87.29,4.997,8.628,0.314,75.054,0.854,-7.967,279.1,27.6,88094.651,36.432,109.316
陕西,榆林市,35.846,174.623,6.839,12.218,0.391,78.691,1.449,-7.824,278.64,28.198,88472.513,38.041,109.581
陕西,汉中市,19.978,30.833,4.095,5.696,0.222,76.407,-1.516,-4.09,281.476,38.045,89509.473,33.088,107.098
陕西,渭南市,33.079,78.396,6.7,15.703,0.33,64.085,1.895,-4.663,283.954,27.383,94382.113,34.919,109.855
陕西,西安市,25.067,74.037,4.999,18.875,0.447,63.114,3.05,-2.276,280.956,35.497,91138.022,34.12,108.77
陕西,铜川市,32.757,55.892,5.608,9.808,0.249,67.488,0.542,-7.671,281.157,26.052,89717.791,35.198,109.058
青海,保亭黎族苗族自治县,8.608,11.38,1.848,5.706,0.346,33.974,-0.716,2.096,297.554,83.316,96998.648,18.566,109.618
青海,吐鲁番市,18.995,35.813,1.581,2.526,0.196,84.127,1.784,1.883,284.939,16.914,90562.888,42.386,89.851
青海,果洛藏族自治州,8.037,8.545,1.402,0.919,0.153,80.634,-1.596,-2.727,263.325,82.254,59860.249,34.127,99.404
青海,海东市,18.908,23.415,4.154,6.078,0.278,91.22,-1.487,1.512,269.726,63.5,73127.769,36.347,102.34
青海,海北藏族自治州,8.133,9.326,1.915,2.147,0.159,98.74,2.378,0.63,265.373,57.428,65472.08,37.775,100.288
青海,海南藏族自治州,9.65,10.359,2.286,1.459,0.151,82.5,-0.839,-0.123,266.442,78.067,66657.172,35.89,100.272
青海,海西蒙古族藏族自治州,6.708,6.92,0.527,0.364,0.129,95.875,2.886,-1.83,267.343,42.415,64668.649,36.677,94.519
青海,西宁市,28.431,39.709,6.207,13.599,0.513,82.663,-0.052,1.541,268.095,68.961,69825.162,36.842,101.423
青海,黄南藏族自治州,8.299,8.82,1.55,1.181,0.152,90.022,-2.32,-0.732,265.212,75.595,65935.328,35.022,101.631
香港,香港特别行政区,12.015,17.415,4.285,20.62,0.235,33.895,0.425,3.39,297.045,93.005,100689.75,22.45,114.22
黑龙江,七台河市,17.152,21.587,5.591,12.448,0.482,66.897,-2.099,2.593,277.257,80.9,97665.43,45.87,130.943
黑龙江,伊春市,10.627,12.152,3.026,3.794,0.252,70.545,-4.348,-2.339,274.128,82.759,96324.595,47.772,129.184
黑龙江,佳木斯市,12.604,15.607,3.836,6.427,0.302,67.291,-3.359,-0.183,275.935,89.581,99890.105,47.207,132.11
黑龙江,双鸭山市,10.457,13.13,3.812,4.948,0.252,66.152,-3.333,2.037,276.149,87.878,99459.923,46.722,132.643
黑龙江,哈尔滨市,17.093,22.315,5.905,8.603,0.369,61.391,-1.115,2.573,276.723,89.351,97851.48,45.634,127.964
黑龙江,大兴安岭地区,1.696,2.463,0.915,1.142,0.189,72.348,0.095,-5.047,272.255,55.423,95209.829,52.286,124.212
黑龙江,大庆市,20.349,30.156,7.647,9.082,0.366,63.081,-0.708,-2.92,278.393,76.252,99082.317,46.327,124.687
黑龙江,牡丹江市,13.574,17.954,3.96,8.548,0.341,62.89,0.332,5.364,275.911,83.043,94815.954,44.592,129.883
黑龙江,绥化市,17.21,22.071,5.46,7.365,0.351,61.865,-3.887,-1.785,275.736,90.488,98407.466,46.89,126.634
黑龙江,鸡西市,11.988,14.661,3.245,6.211,0.328,63.81,-1.664,5.469,276.864,78.676,99119.91,45.626,132.289
黑龙江,鹤岗市,12.71,16.4,3.07,5.625,0.342,73.642,-4.088,-2.539,274.719,94.936,98870.889,47.661,130.778
黑龙江,黑河市,6.576,9.428,1.161,1.826,0.227,74.793,-4.36,-5.501,275.291,46.513,96961.988,49.268,127.004
黑龙江,齐齐哈尔市,12.678,16.295,2.8,3.917,0.264,68.303,-4.512,-7.964,275.585,72.977,98605.946,47.715,124.57
