province,city,PM2.5,PM10,SO2,NO2,CO,O3,U,V,TEMP,RH,PSFC,lat,lon
上海,上海市,18.322,25.702,7.456,34.533,0.523,47.361,-3.501,-4.75,276.85,87.308,102707.533,31.173,121.42
云南,临沧市,22.075,28.808,5.254,11.06,0.641,67.925,5.436,2.578,285.092,48.641,83697.094,23.935,99.686
云南,丽江市,13.568,22.47,3.715,4.397,0.518,82.51,9.029,3.081,276.884,42.091,74069.053,26.96,100.515
云南,保山市,25.519,41.139,7.038,12.095,0.594,64.309,5.469,1.641,282.015,52.838,81612.49,24.953,98.962
云南,大理白族自治州,17.374,30.365,4.813,6.47,0.564,77.88,8.2,3.253,279.567,48.119,77714.509,25.726,100.053
云南,德宏傣族景颇族自治州,31.824,45.735,7.857,14.69,0.61,57.504,2.53,0.712,284.476,55.326,85894.305,24.535,98.052
云南,怒江傈僳族自治州,11.945,17.599,2.37,1.674,0.323,82.043,6.612,2.51,273.112,66.893,72264.522,26.916,98.885
云南,文山壮族苗族自治州,24.576,40.084,9.008,6.421,0.529,43.384,1.356,6.47,283.451,91.635,86374.612,23.696,104.735
云南,昆明市,17.843,30.75,8.255,14.033,0.551,68.086,11.058,7.046,282.63,52.043,78843.796,25.384,102.863
云南,昭通市,27.643,41.733,11.684,12.875,0.903,45.414,2.562,0.492,274.711,67.702,83736.908,27.667,103.985
云南,普洱市,17.368,25.727,4.198,9.858,0.44,62.331,4.393,2.813,287.615,56.128,85783.326,23.159,100.718
云南,曲靖市,16.136,22.839,7.363,8.299,0.389,67.291,10.664,7.246,283.102,53.132,79583.076,25.737,103.929
云南,楚雄彝族自治州,18.41,29.268,4.909,11.129,0.665,68.074,8.521,5.499,283.337,42.941,80623.403,25.328,101.567
云南,玉溪市,16.281,26.24,5.242,7.597,0.43,68.496,6.659,5.197,286.243,60.562,83218.027,24.136,102.217
云南,红河哈尼族彝族自治州,22.189,32.257,7.326,4.941,0.38,60.529,2.596,5.389,285.966,82.049,84959.633,23.451,103.034
云南,西双版纳傣族自治州,22.299,37.264,4.65,11.858,0.519,48.137,3.318,2.581,290.903,66.746,88795.945,21.939,100.912
云南,迪庆藏族自治州,7.76,10.431,1.955,0.757,0.234,89.255,10.183,3.287,268.383,66.152,66518.922,27.957,99.459
内蒙古,乌兰察布市,29.341,45.199,15.926,15.64,0.727,44.502,1.735,-2.648,254.985,75.509,86228.463,41.691,112.44
内蒙古,乌海市,57.81,107.95,21.194,25.439,1.002,41.595,-0.946,-2.611,261.874,74.694,87983.132,39.396,106.856
内蒙古,兴安盟,3.082,3.993,2.351,1.765,0.252,53.999,8.559,-4.21,248.343,46.561,95486.941,46.244,121.341
内蒙古,包头市,24.508,40.372,10.042,13.458,0.546,46.642,-0.789,-4.096,254.551,73.559,86257.342,41.549,110.276
内蒙古,呼伦贝尔市,1.839,2.15,2.971,1.873,0.244,53.335,7.378,-2.331,243.282,62.498,93840.309,49.636,121.171
内蒙古,呼和浩特市,59.093,104.668,28.17,31.675,1.072,38.136,0.36,-2.036,258.863,76.883,86481.192,40.578,111.513
内蒙古,巴彦淖尔市,19.614,34.809,7.72,9.202,0.416,48.977,-3.618,-6.626,255.018,63.878,87890.044,41.446,107.582
内蒙古,赤峰市,15.33,21.134,9.827,6.836,0.448,49.893,3.662,-2.947,253.118,51.657,92635.631,43.226,118.892
内蒙古,通辽市,10.103,13.276,6.483,4.973,0.375,46.463,5.22,-4.016,253.842,41.808,99186.117,43.814,121.591
内蒙古,鄂尔多斯市,58.228,89.717,17.5,19.509,0.915,46.204,-0.439,-1.321,261.589,78.564,87233.239,39.407,108.63
内蒙古,锡林郭勒盟,5.225,6.867,3.865,2.595,0.258,56.359,3.172,-3.025,249.052,65.577,89606.85,44.179,115.482
内蒙古,阿拉善盟,20.303,29.86,8.085,4.939,0.362,47.06,-4.068,-3.314,258.136,68.641,88123.216,40.473,102.467
北京,北京市,70.84,88.159,14.082,58.466,1.256,19.06,-0.137,0.631,262.744,53.127,99093.953,40.158,116.395
台湾,台湾省,9.776,15.69,3.675,12.532,0.239,57.237,-3.082,-2.806,287.571,79.046,93252.705,23.757,120.975
吉林,吉林市,39.905,49.429,17.248,20.961,0.862,49.88,4.504,3.082,250.92,63.35,98148.357,43.573,126.859
吉林,四平市,33.143,43.514,17.679,21.393,0.738,42.929,5.202,-0.068,253.06,45.206,100782.092,43.472,124.386
吉林,延边朝鲜族自治州,18.673,22.416,11.579,11.011,0.408,58.067,9.099,-0.294,252.146,54.939,94594.485,43.141,129.147
吉林,松原市,19.638,25.846,6.684,9.495,0.475,47.992,5.827,-1.184,252.176,50.195,101070.447,44.785,124.496
吉林,白城市,11.096,13.595,3.739,4.705,0.344,50.934,6.065,-3.115,252.849,40.339,101233.764,45.35,123.031
吉林,白山市,32.429,42.122,25.591,22.368,0.751,45.557,2.821,1.195,250.745,59.179,92810.479,42.063,127.256
吉林,辽源市,55.23,67.289,19.165,34.608,1.062,37.34,4.952,1.321,252.977,50.322,98673.819,42.836,125.32
吉林,通化市,49.79,64.582,24.586,32.086,1.046,36.747,1.917,-0.369,252.819,55.785,96692.096,41.939,125.927
吉林,长春市,35.592,47.252,14.24,17.765,0.74,47.201,5.41,1.23,251.53,54.418,100556.339,44.268,125.611
四川,乐山市,49.756,62.431,7.498,21.301,0.909,31.279,0.006,-3.068,270.413,82.086,89592.14,29.218,103.569
四川,内江市,23.123,31.491,7.118,17.43,0.868,25.961,-1.049,-4.629,274.628,68.56,97048.114,29.62,104.95
四川,凉山彝族自治州,15.151,21.64,4.862,5.854,0.48,80.754,10.315,5.272,276.16,37.018,73452.525,27.883,102.065
四川,南充市,42.729,55.956,12.522,18.729,0.811,47.461,-4.359,-3.51,272.77,74.538,97163.922,31.19,106.199
四川,宜宾市,26.661,36.566,11.432,21.435,0.973,23.449,1.627,-3.377,273.799,78.953,95316.606,28.573,104.621
四川,巴中市,47.276,60.647,13.693,15.587,0.795,52.541,-5.756,-4.213,268.542,73.478,92675.671,32.033,107.031
四川,广元市,36.731,51.57,13.798,13.852,0.716,56.46,-2.845,-3.772,268.82,73.368,91759.711,32.261,105.788
四川,广安市,29.602,48.261,10.352,19.85,0.745,35.426,-2.212,-1.515,274.555,72.896,97112.143,30.43,106.628
四川,德阳市,36.179,49.334,6.415,17.22,0.767,42.8,-3.763,-3.484,271.553,72.781,93395.658,31.13,104.436
四川,成都市,36.696,52.268,6.709,22.427,0.814,36.065,-2.714,-3.129,271.786,75.13,93545.097,30.64,103.929
四川,攀枝花市,26.231,47.331,14.888,23.501,1.088,71.679,6.465,5.675,283.599,31.838,80988.221,26.791,101.734
四川,泸州市,17.822,25.914,9.502,20.365,0.721,25.495,1.127,-1.313,274.337,79.669,93543.126,28.424,105.675
四川,甘孜藏族自治州,5.646,6.452,0.87,0.581,0.171,85.014,10.336,4.273,264.504,48.938,60044.217,30.936,100.009
四川,眉山市,42.223,56.978,6.328,22.027,0.876,30.704,-0.303,-3.141,272.028,78.894,94017.777,29.912,103.766
四川,绵阳市,39.651,50.817,11.142,11.497,0.644,53.063,-2.864,-2.586,268.739,72.923,87925.258,31.86,104.704
四川,自贡市,26.65,32.008,8.151,19.417,0.886,23.816,0.134,-4.628,274.668,70.223,97029.002,29.307,104.659
四川,资阳市,23.606,37.324,7.379,14.995,0.84,32.944,-2.606,-4.315,274.377,70.278,97332.694,30.102,105.149
四川,达州市,50.038,63.856,19.092,18.349,0.769,48.642,-4.072,-1.813,271.26,75.204,94317.198,31.335,107.636
四川,遂宁市,33.283,45.128,9.362,16.405,0.797,42.83,-3.829,-4.308,273.87,71.75,97614.922,30.642,105.457
四川,阿坝藏族羌族自治州,17.089,19.842,3.683,2.56,0.295,72.911,4.055,1.481,265.9,58.497,64335.447,32.406,102.61
四川,雅安市,49.393,59.962,7.582,12.047,0.643,58.558,-0.884,-0.622,267.653,73.225,79532.158,29.932,102.689
天津,天津市,68.333,80.063,25.464,65.188,1.077,22.937,-0.458,1.069,265.572,53.128,103170.159,39.315,117.308
宁夏,中卫市,69.036,105.402,18.9,17.214,0.964,48.66,1.053,-2.291,263.639,80.101,83473.506,37.018,105.509
宁夏,吴忠市,79.12,116.886,21.611,19.681,0.984,43.532,0.794,-0.322,264.076,82.776,85107.711,37.454,106.577
宁夏,固原市,90.006,106.626,18.636,18.031,1.038,68.864,0.013,-0.393,262.637,85.81,80660.18,35.905,106.183
宁夏,石嘴山市,69.489,123.902,31.436,27.863,1.18,44.516,0.253,-4.383,262.611,74.087,86959.701,39.013,106.499
宁夏,银川市,77.718,131.128,28.141,25.409,1.218,43.553,-1.384,-1.743,264.636,74.971,87232.987,38.287,106.342
安徽,亳州市,51.476,64.218,12.785,27.191,0.653,50.332,-4.649,-3.303,268.669,77.776,102794.808,33.44,116.162
安徽,六安市,34.036,43.012,8.823,17.726,0.461,63.132,-4.487,-2.18,268.87,92.733,99909.944,31.617,116.209
安徽,合肥市,31.949,39.665,7.017,19.308,0.526,59.551,-5.213,-3.99,270.68,91.834,102461.132,31.766,117.359
安徽,安庆市,33.083,35.825,11.12,18.763,0.524,55.742,-5.169,-5.779,270.585,93.778,100234.941,30.557,116.473
安徽,宣城市,32.587,40.777,8.335,31.404,0.679,41.716,-4.757,-2.12,272.089,95.428,100176.925,30.676,118.846
安徽,宿州市,54.73,70.277,13.693,30.316,0.755,45.14,-4.169,-3.936,269.052,70.389,102759.229,33.844,117.23
安徽,池州市,32.444,38.784,11.483,21.637,0.577,47.487,-4.755,-3.243,271.54,94.058,100362.639,30.296,117.379
安徽,淮北市,55.699,70.805,15.981,34.047,0.731,44.167,-4.592,-3.438,268.787,71.672,102811.746,33.722,116.747
安徽,淮南市,39.981,47.993,9.444,20.83,0.493,58.957,-5.443,-3.923,270.048,86.997,102727.67,32.463,116.746
安徽,滁州市,29.321,36.71,6.536,15.679,0.429,57.588,-4.979,-4.506,270.936,87.514,102408.403,32.55,118.076
安徽,芜湖市,41.332,49.999,11.893,30.268,0.72,49.661,-5.468,-4.316,271.556,95.986,102565.572,31.167,118.162
安徽,蚌埠市,45.395,55.561,10.42,24.425,0.61,51.633,-4.712,-4.907,269.578,81.597,102767.611,33.121,117.263
安徽,铜陵市,41.648,50.077,13.986,28.842,0.678,50.477,-5.338,-4.161,271.645,95.625,102382.534,30.883,117.531
安徽,阜阳市,48.399,60.441,11.278,22.903,0.62,56.11,-5.02,-3.77,268.404,85.009,102729.472,32.937,115.723
安徽,马鞍山市,35.558,43.775,9.272,27.622,0.582,51.418,-5.093,-4.954,271.199,93.835,102613.906,31.622,118.386
安徽,黄山市,19.535,26.225,9.544,16.488,0.501,43.931,-5.914,-0.827,271.704,92.462,97958.544,29.869,118.09
山东,东营市,36.536,49.822,14.163,24.814,0.608,44.76,-0.866,0.204,265.51,61.772,103298.524,37.57,118.572
山东,临沂市,39.771,60.526,13.816,25.132,0.731,45.025,-2.55,-3.1,266.566,61.496,101269.518,35.289,118.27
山东,威海市,14.076,24.442,9.508,13.073,0.488,63.122,0.234,-5.11,268.256,58.331,102458.88,37.148,122.028
山东,德州市,67.023,100.367,23.6,50.651,1.204,28.322,-1.899,2.019,266.868,55.929,103112.611,37.233,116.679
山东,日照市,25.616,43.812,11.15,21.529,0.613,48.015,-1.638,-4.027,266.412,58.451,101394.785,35.566,119.108
山东,枣庄市,55.68,81.664,17.328,28.802,0.758,43.116,-3.769,-2.36,267.704,59.365,102044.106,34.925,117.383
山东,泰安市,73.205,96.891,20.976,44.008,1.037,29.196,-2.227,0.28,267.045,59.729,101176.441,35.993,117.04
山东,济南市,72.149,105.203,24.054,53.291,1.242,25.528,-1.483,0.891,266.43,57.122,101163.063,36.639,117.254
山东,济宁市,66.658,91.534,21.299,36.705,0.941,32.845,-2.891,-0.429,268.253,55.639,102551.647,35.375,116.697
山东,淄博市,63.917,84.124,20.876,40.502,1.275,31.062,-1.881,0.62,265.414,59.396,100504.761,36.623,118.062
山东,滨州市,56.148,73.285,20.389,40.426,0.972,32.589,-1.646,1.501,266.028,58.414,103228.449,37.516,117.852
山东,潍坊市,38.461,56.257,13.907,26.388,0.801,45.299,-0.23,-1.342,265.596,66.654,102074.78,36.53,119.092
山东,烟台市,20.841,37.054,13.114,20.522,0.674,52.472,-0.688,-2.662,267.128,72.199,101983.566,37.25,120.789
山东,聊城市,81.156,121.173,23.519,52.468,1.191,28.395,-1.406,2.088,268.094,46.877,102850.174,36.458,115.863
山东,菏泽市,71.764,102.961,18.376,35.548,1.165,38.519,-2.462,0.132,268.519,52.8,102704.745,35.134,115.69
山东,青岛市,23.58,42.425,12.335,25.691,0.63,46.738,0.127,-3.093,267.169,63.608,102628.307,36.46,120.172
山西,临汾市,82.542,103.108,33.789,33.228,1.281,43.376,-1.04,2.312,262.621,85.214,90514.288,36.227,111.398
山西,吕梁市,83.326,116.531,46.381,38.168,1.404,33.845,0.519,2.652,262.42,82.648,87912.22,37.663,111.27
山西,大同市,73.098,106.999,34.185,33.921,1.321,34.639,0.629,-0.501,260.016,74.08,87459.062,39.911,113.713
山西,太原市,113.68,157.309,66.542,56.378,1.669,19.506,0.596,2.09,262.325,77.38,87805.083,37.967,112.321
山西,忻州市,100.591,137.827,37.697,46.505,1.38,27.951,1.132,1.379,260.975,77.482,86209.43,38.877,112.391
山西,晋中市,93.451,122.058,48.992,48.673,1.419,28.822,1.165,2.21,261.962,79.739,88823.123,37.328,112.997
山西,晋城市,84.796,100.273,15.774,29.302,0.978,52.367,-0.876,2.268,261.877,85.316,90975.865,35.625,112.752
山西,朔州市,104.637,162.895,55.88,46.225,1.531,27.371,1.694,1.159,261.2,76.01,86718.575,39.619,112.655
山西,运城市,88.87,106.549,25.231,28.602,1.108,52.685,-3.938,1.642,264.487,80.398,95036.918,35.205,111.071
山西,长治市,85.614,109.611,26.962,35.565,1.224,43.699,0.608,1.982,261.841,83.248,89159.957,36.48,112.915
山西,阳泉市,106.526,145.57,48.099,63.104,1.802,17.421,0.027,0.401,261.789,74.275,90863.934,38.031,113.512
广东,东莞市,34.762,52.697,9.587,38.5,0.873,26.447,-4.422,-4.274,285.279,71.637,101618.848,22.931,113.81
广东,中山市,40.456,62.356,12.239,49.827,0.852,21.38,-4.61,-5.273,286.124,75.179,101590.841,22.5,113.383
广东,云浮市,39.849,51.742,9.375,31.385,0.759,15.701,-4.526,-1.615,283.504,71.741,99540.287,22.776,111.818
广东,佛山市,35.773,57.869,11.002,46.869,0.901,10.446,-2.43,-4.604,284.551,68.231,101688.417,23.035,112.979
广东,广州市,29.943,45.535,9.158,34.11,0.798,24.771,-3.151,-3.475,284.626,71.791,100754.797,23.339,113.525
广东,惠州市,25.588,37.3,6.989,19.434,0.66,39.119,-4.417,-4.28,284.52,76.576,99737.635,23.244,114.485
广东,揭阳市,24.398,41.202,9.59,23.098,0.664,54.82,-6.482,-4.382,285.669,76.864,100390.544,23.323,116.123
广东,梅州市,23.286,35.662,7.706,19.523,0.664,44.221,-3.405,-1.948,284.136,77.718,98332.07,24.169,116.07
广东,汕头市,16.403,31.918,8.376,18.833,0.483,65.397,-7.892,-6.587,286.501,78.428,101544.948,23.339,116.614
广东,汕尾市,23.087,36.771,7.023,16.985,0.536,54.305,-7.424,-5.172,285.978,76.62,100059.985,23.024,115.527
广东,江门市,42.211,59.918,12.08,47.384,0.813,13.88,-3.913,-5.76,285.695,72.808,100993.65,22.289,112.676
广东,河源市,23.42,35.389,7.673,18.153,0.706,34.445,-2.737,-3.703,282.351,79.156,98528.671,24.021,114.969
广东,深圳市,33.75,53.423,8.993,34.498,0.772,35.623,-5.474,-4.588,286.226,74.908,101082.763,22.667,114.143
广东,清远市,25.87,36.096,7.861,16.929,0.658,29.857,-1.947,-3.137,281.405,76.539,98025.021,24.295,112.871
广东,湛江市,39.424,47.618,9.322,21.814,0.776,39.34,-7.144,-1.9,290.206,76.426,101259.022,21.091,110.163
广东,潮州市,18.438,32.201,7.583,17.572,0.535,56.674,-7.305,-5.424,285.198,74.614,99821.757,23.755,116.754
广东,珠海市,31.737,48.798,12.782,36.998,0.612,35.158,-5.33,-6.273,287.438,79.263,101617.76,22.095,113.317
广东,肇庆市,31.979,42.401,7.581,21.106,0.677,23.636,-4.461,-2.353,283.329,72.546,99668.397,23.505,112.199
广东,茂名市,39.937,49.466,9.278,22.589,0.785,31.157,-6.274,-1.617,287.719,72.569,99479.421,22.013,110.952
广东,阳江市,49.53,60.816,11.152,34.762,0.798,17.272,-3.681,-5.584,285.137,71.004,100103.533,22.042,111.786
广东,韶关市,22.687,30.824,8.075,15.207,0.643,34.465,-2.12,-2.092,280.471,78.906,97255.92,24.785,113.819
广西,北海市,45.025,51.184,11.504,22.065,1.161,24.014,-4.153,-2.448,288.559,65.986,101342.861,21.674,109.37
广西,南宁市,17.49,27.401,8.747,19.085,1.009,16.824,-2.327,-4.405,280.288,81.833,99590.712,23.051,108.469
广西,崇左市,16.973,29.378,10.681,16.034,0.957,19.183,-2.88,-3.414,280.339,88.177,98212.878,22.483,107.291
广西,来宾市,21.875,31.116,9.523,12.341,0.862,22.997,-1.678,-3.545,279.31,84.527,98418.065,23.859,109.417
广西,柳州市,18.541,29.662,11.752,12.296,0.87,27.998,-0.983,-5.092,275.648,88.69,97875.4,24.956,109.372
广西,桂林市,21.741,32.541,10.823,12.24,0.753,33.323,-2.913,-3.354,275.101,90.223,96206.21,25.353,110.513
广西,梧州市,30.02,40.025,9.539,15.107,0.705,24.411,-4.733,-1.26,283.71,71.28,99241.43,23.484,110.996
广西,河池市,14.029,24.683,9.885,8.343,0.82,30.544,-2.58,-1.687,275.966,93.125,95374.033,24.628,107.843
广西,玉林市,33.128,44.22,10.692,19.731,0.979,21.336,-3.968,-2.56,286.505,68.827,99566.532,22.452,110.164
广西,百色市,17.49,31.854,11.349,8.373,0.816,29.929,-2.53,1.48,279.167,95.027,93110.031,23.981,106.292
广西,贵港市,26.6,35.445,9.662,13.528,0.796,21.661,-3.939,-3.897,283.212,69.016,100105.083,23.322,110.021
广西,贺州市,23.447,37.298,9.548,11.463,0.712,28.365,-2.684,-2.766,280.828,78.967,97410.374,24.364,111.394
广西,钦州市,26.766,37.643,9.853,20.564,1.189,14.81,-2.499,-4.92,284.432,67.561,100671.183,22.173,109.01
广西,防城港市,23.8,34.309,10.519,20.763,1.091,14.452,-2.4,-4.534,282.647,78.41,99019.288,21.88,108.002
新疆,乌鲁木齐市,29.77,39.112,5.82,23.386,0.615,50.598,2.047,-1.77,251.074,60.17,84740.426,43.746,87.818
新疆,五家渠市,31.433,34.083,8.49,15.183,0.633,45.707,1.073,-0.62,251.463,75.263,98709.503,44.363,87.517
新疆,伊犁哈萨克自治州,23.359,27.332,12.163,7.881,0.625,63.783,0.644,0.254,251.672,59.33,80194.426,43.438,82.146
新疆,克孜勒苏柯尔克孜自治州,6.727,25.255,1.11,1.388,0.261,66.886,7.876,-2.1,257.039,61.459,69423.899,39.661,75.949
新疆,克拉玛依市,16.106,18.174,5.523,5.431,0.382,47.015,-1.753,-1.948,250.635,66.105,99778.901,45.457,85.207
新疆,北屯市,73.66,60.598,54.186,107.624,1.184,12.88,-0.012,-2.778,244.976,65.64,97667.908,47.27,87.868
新疆,博尔塔拉蒙古自治州,18.833,26.053,8.891,6.545,0.559,58.438,0.213,0.341,247.918,68.611,87039.337,44.714,82.114
新疆,双河市,26.542,39.898,13.29,9.922,0.754,46.992,0.624,-0.92,250.476,75.82,100355.286,44.87,82.474
新疆,可克达拉市,36.1,45.63,33.898,16.212,0.982,47.822,3.732,-0.136,253.106,66.254,96221.65,43.918,80.786
新疆,和田地区,6.467,27.947,1.093,0.669,0.188,59.759,2.781,-1.344,262.173,52.856,73314.794,37.059,80.934
新疆,哈密市,8.138,10.43,2.888,1.696,0.328,52.832,-4.368,-1.741,257.065,57.798,88935.071,43.042,93.517
新疆,喀什地区,8.927,25.126,2.025,1.59,0.22,53.697,3.044,0.225,262.219,63.782,75567.136,38.125,77.178
新疆,图木舒克市,8.803,11.493,3.965,2.168,0.195,45.56,-6.765,-3.812,266.048,84.777,89375.357,39.892,79.182
新疆,塔城地区,10.452,11.145,4.044,3.316,0.309,57.486,-2.21,-0.113,250.199,59.87,90826.145,45.642,84.789
新疆,巴音郭楞蒙古自治州,3.563,6.585,1.84,0.923,0.187,60.161,-1.754,-1.05,260.006,52.978,78800.342,39.463,87.481
新疆,新星市,39.405,64.865,6.56,16.855,1.8,47.885,2.085,-1.05,262.7,60.485,93586.91,42.75,93.68
新疆,昆玉市,28.273,170.013,2.743,2.063,0.45,54.713,-2.357,-0.91,271.32,46.397,86703.44,37.457,79.093
新疆,昌吉回族自治州,15.928,19.228,4.968,7.929,0.377,54.765,-0.289,-0.28,250.889,66.305,91128.866,44.342,88.608
新疆,石河子市,58.715,57.93,14.635,30.725,0.8,38.505,0.745,-0.675,250.66,76.875,96573.66,44.245,86.035
新疆,胡杨河市,16.362,17.164,4.258,3.824,0.352,45.032,-3.242,-2.284,251.218,70.15,100312.732,44.852,84.772
新疆,铁门关市,22.17,106.79,9.383,12.723,1.377,73.073,-6.907,-1.3,266.057,33.32,92170.653,41.773,85.66
新疆,阿克苏地区,9.98,23.975,2.994,2.117,0.262,56.521,-4.711,-0.851,261.792,71.385,85219.82,40.965,81.578
新疆,阿勒泰地区,7.94,7.451,5.823,9.322,0.27,57.4,-4.059,-0.47,249.525,51.579,89689.599,46.902,88.421
新疆,阿拉尔市,15.714,41.81,3.533,2.955,0.362,53.345,-6.857,-2.04,266.137,71.947,90363.137,40.629,80.998
江苏,南京市,31.477,40.735,8.243,27.42,0.526,49.507,-4.315,-5.184,271.537,93.036,102689.268,31.899,118.876
江苏,南通市,16.117,20.774,4.047,9.695,0.424,68.842,-3.083,-4.302,275.431,88.576,102797.876,32.201,120.979
江苏,宿迁市,38.008,49.962,10.799,24.041,0.672,46.967,-3.556,-5.38,270.608,76.762,102984.231,33.765,118.495
江苏,常州市,35.479,45.942,8.699,34.669,0.739,40.892,-3.994,-5.186,273.478,95.084,102698.017,31.613,119.666
江苏,徐州市,56.725,79.143,16.005,31.5,0.8,42.772,-3.486,-3.737,268.53,64.084,102799.238,34.363,117.513
江苏,扬州市,25.254,35.818,6.456,15.245,0.485,55.209,-3.288,-5.924,272.067,88.936,102908.644,32.709,119.486
江苏,无锡市,29.483,40.203,9.826,39.819,0.802,36.274,-3.996,-4.938,274.266,93.178,102583.805,31.546,120.066
江苏,泰州市,24.494,33.601,6.148,14.895,0.52,58.082,-2.002,-5.697,272.785,92.906,102839.52,32.605,120.048
江苏,淮安市,30.148,40.445,7.936,17.806,0.566,52.222,-3.806,-5.157,271.725,81.557,102923.709,33.362,118.985
江苏,盐城市,17.517,24.608,5.338,7.75,0.412,66.079,-2.52,-5.24,273.159,84.994,102950.711,33.529,120.156
江苏,苏州市,22.188,29.865,7.412,37.926,0.596,40.192,-3.96,-5.04,275.576,90.122,102718.68,31.374,120.661
江苏,连云港市,26.093,38.586,10.786,18.472,0.546,52.877,-2.223,-5.089,270.519,73.517,102902.132,34.519,119.133
江苏,镇江市,33.158,42.826,7.868,25.435,0.556,48.111,-3.224,-5.774,271.993,94.859,102724.108,32.016,119.49
江西,上饶市,20.303,26.491,9.029,18.141,0.551,34.036,-4.502,-2.818,274.592,88.805,100023.52,28.778,117.47
江西,九江市,28.494,28.774,7.77,14.671,0.634,46.674,-3.822,-4.114,272.47,95.082,100063.71,29.313,115.444
江西,南昌市,22.138,25.903,7.794,19.095,0.632,38.349,-2.995,-4.078,275.351,92.904,101992.353,28.671,116.016
江西,吉安市,25.708,31.758,10.27,15.626,0.628,29.476,-1.07,-3.624,275.283,89.893,99494.617,26.954,114.831
江西,宜春市,26.274,30.928,7.95,17.428,0.648,36.475,-2.752,-3.601,273.455,95.275,99945.407,28.29,114.974
江西,抚州市,22.018,27.614,8.898,14.333,0.493,35.168,-1.332,-2.991,275.934,89.31,99486.505,27.514,116.42
江西,新余市,26.713,33.511,10.439,21.122,0.701,29.289,-2.351,-3.861,274.153,96.752,100916.057,27.847,114.836
江西,景德镇市,17.564,23.189,9.018,14.683,0.502,38.166,-4.384,-2.807,274.053,88.692,100943.361,29.287,117.24
江西,萍乡市,26.704,34.414,9.641,18.637,0.804,30.766,-2.885,-2.323,273.446,94.28,98479.221,27.505,113.908
江西,赣州市,21.696,29.611,8.415,11.934,0.654,35.001,-0.077,-2.483,279.461,80.188,97640.222,25.692,115.279
江西,鹰潭市,22.751,30.206,10.009,18.893,0.549,31.249,-3.029,-2.466,275.081,89.823,100535.325,28.222,117.094
河北,保定市,88.328,113.581,24.074,53.307,1.433,28.353,0.024,0.436,263.476,56.943,99041.062,39.018,115.159
河北,唐山市,63.994,89.273,23.943,65.61,1.415,22.88,-1.213,-0.007,264.043,57.678,102637.356,39.731,118.354
河北,廊坊市,76.652,100.345,25.583,61.517,1.222,25.627,-0.394,1.15,265.193,49.119,103207.764,39.267,116.632
河北,张家口市,44.312,61.731,16.234,26.801,0.858,40.088,1.24,-1.005,257.58,73.57,87989.986,40.877,115.042
河北,承德市,43.66,64.108,15.922,32.947,0.835,32.078,2.132,-0.459,257.772,59.145,91616.374,41.339,117.578
河北,沧州市,69.114,86.277,25.098,46.912,1.046,34.459,-1.151,2.787,266.466,52.695,103233.231,38.258,116.744
河北,石家庄市,94.079,127.253,27.024,54.857,1.519,22.511,-0.977,0.425,264.763,55.156,99603.812,38.135,114.407
河北,秦皇岛市,49.746,85.635,26.208,55.759,1.489,26.572,0.249,-0.354,261.549,52.09,100133.556,40.12,119.193
河北,衡水市,74.9,97.288,23.469,43.848,1.215,33.448,-2.026,2.692,266.83,52.356,103056.574,37.755,115.813
河北,邢台市,95.948,129.896,25.036,45.785,1.432,30.96,-1.055,2.603,266.794,56.211,101382.375,37.195,114.815
河北,邯郸市,93.541,123.298,21.694,41.453,1.341,37.898,-0.578,2.309,267.279,52.583,100863.873,36.538,114.596
河南,三门峡市,72.764,80.624,14.313,20.331,0.779,56.162,-2.677,1.873,263.296,83.023,92416.982,34.362,111.101
河南,信阳市,46.029,59.53,10.093,18.132,0.609,67.933,-5.033,-3.57,268.052,91.648,101589.306,32.091,114.907
河南,南阳市,59.904,64.013,9.243,18.684,0.783,79.22,-3.804,-3.046,265.823,85.689,99459.981,33.034,112.323
河南,周口市,53.489,70.679,12.224,22.302,0.769,58.023,-3.901,-2.478,268.185,74.317,102578.336,33.738,114.884
河南,商丘市,59.629,82.39,15.245,29.051,0.812,47.706,-3.513,-1.695,268.593,64.713,102692.406,34.277,115.718
河南,安阳市,77.406,100.472,13.956,34.266,1.137,46.022,-0.553,1.911,267.242,55.052,100433.177,35.888,114.318
河南,平顶山市,76.033,86.614,12.859,26.147,0.884,56.336,-1.933,-2.033,266.206,83.023,100217.357,33.8,113.025
河南,开封市,67.211,80.601,12.866,27.401,0.973,53.706,-2.427,-0.639,268.123,62.947,102349.266,34.594,114.514
河南,新乡市,70.754,91.602,12.862,33.2,1.047,46.455,-0.845,0.364,267.697,56.887,101344.032,35.256,114.111
河南,洛阳市,84.256,92.893,13.58,25.118,0.912,51.721,-2.303,0.041,263.781,83.289,95097.003,34.274,112.019
河南,济源市,85.897,103.495,13.878,35.163,0.988,43.281,-1.987,-0.093,264.885,77.307,97154.352,35.105,112.445
河南,漯河市,67.778,79.843,12.095,24.68,0.822,65.224,-3.438,-2.748,267.643,78.73,102418.724,33.652,113.945
河南,濮阳市,80.761,111.228,19.189,43.161,1.429,36.483,-1.239,1.579,268.439,45.956,102693.909,35.809,115.283
河南,焦作市,86.798,107.551,12.561,37.052,1.016,40.928,-1.801,-0.801,267.765,61.796,101122.949,35.121,113.163
河南,许昌市,72.491,82.578,13.405,28.72,0.887,55.539,-2.851,-1.7,267.445,74.972,101701.269,34.075,113.707
河南,郑州市,78.366,91.1,13.079,34.224,0.954,45.717,-2.166,-0.48,266.919,66.813,100276.072,34.634,113.438
河南,驻马店市,53.675,70.436,10.089,19.849,0.721,70.083,-4.205,-3.781,266.983,86.579,102016.995,32.925,114.174
河南,鹤壁市,72.029,95.089,13.558,33.558,1.13,49.709,-0.35,1.319,267.891,51.291,101724.047,35.716,114.319
浙江,丽水市,18.784,24.637,6.078,17.766,0.425,39.807,-3.795,-0.113,273.969,94.589,95081.91,28.194,119.51
浙江,台州市,16.557,22.418,5.584,21.194,0.456,44.751,-1.985,-4.926,276.892,93.059,99617.557,28.742,121.109
浙江,嘉兴市,27.795,35.985,8.8,47.087,0.659,26.297,-2.81,-5.211,275.564,91.54,102664.381,30.635,120.754
浙江,宁波市,19.222,24.504,5.642,24.032,0.472,45.549,-2.985,-4.22,277.82,88.109,101270.837,29.706,121.49
浙江,杭州市,25.912,34.119,9.119,34.954,0.627,30.075,-3.767,-2.877,272.529,96.516,99545.644,29.891,119.464
浙江,温州市,18.879,27.286,7.935,24.788,0.456,36.84,-1.498,-4.274,276.398,91.961,98328.694,27.897,120.411
浙江,湖州市,27.534,35.447,6.66,40.576,0.63,33.214,-4.518,-3.103,274.071,94.737,101336.088,30.757,119.871
浙江,绍兴市,30.128,35.787,7.811,39.904,0.618,21.499,-1.927,-2.899,275.021,97.682,100412.619,29.709,120.64
浙江,舟山市,7.642,11.058,2.018,2.872,0.278,76.582,-4.288,-5.333,279.635,80.388,102327.22,30.038,122.23
浙江,衢州市,21.522,28.192,9.608,26.389,0.547,28.459,-5.816,-2.444,273.472,91.578,98606.418,28.912,118.675
浙江,金华市,25.324,31.959,7.655,33.879,0.56,24.407,-3.053,-2.573,273.5,96.565,98957.515,29.109,119.967
海南,万宁市,10.066,27.744,1.409,1.918,0.259,76.831,-5.024,-4.469,292.873,94.584,100090.736,18.842,110.294
海南,三亚市,10.114,20.619,1.7,3.181,0.391,69.874,-8.309,-2.78,294.084,82.343,98763.024,18.413,109.407
海南,东方市,13.088,21.174,2.417,2.627,0.265,65.933,-4.077,0.056,295.176,73.347,99377.239,18.971,108.838
海南,临高县,15.073,29.557,4.736,6.291,0.343,59.333,-7.213,-0.996,292.746,86.444,100703.546,19.821,109.733
海南,乐东黎族自治县,11.282,19.546,1.693,2.332,0.283,66.216,-6.248,-1.015,294.142,78.252,97858.548,18.659,109.072
海南,五指山市,12.416,22.722,1.724,2.346,0.274,67.202,-6.922,-0.738,291.202,90.294,94673.52,18.81,109.518
海南,儋州市,14.365,26.719,3.429,4.218,0.321,63.994,-7.286,-0.174,293.284,84.161,100317.627,19.568,109.399
海南,定安县,10.857,25.948,2.237,4.163,0.327,67.092,-5.945,-2.0,292.627,89.633,100406.232,19.47,110.28
海南,屯昌县,11.418,25.788,2.228,3.86,0.324,68.202,-5.018,-1.284,292.202,92.02,99605.998,19.342,110.076
海南,文昌市,10.145,27.767,1.946,2.33,0.275,73.53,-7.269,-3.639,292.731,90.51,101204.134,19.707,110.773
海南,昌江黎族自治县,14.076,23.914,2.794,2.774,0.282,66.461,-7.052,-0.159,293.623,80.791,98384.027,19.233,109.016
海南,海口市,12.679,28.566,3.367,5.213,0.332,62.891,-6.955,-2.402,292.509,89.205,101009.483,19.842,110.393
海南,澄迈县,13.06,27.257,3.78,6.069,0.356,60.199,-6.436,-1.387,292.623,87.847,100535.47,19.676,109.989
海南,琼中黎族苗族自治县,13.4,26.703,2.014,3.025,0.302,65.981,-4.739,-1.002,291.095,96.818,97381.674,19.087,109.847
海南,琼海市,9.513,26.702,1.518,2.233,0.273,75.89,-5.3,-3.142,293.053,91.348,100954.867,19.22,110.43
海南,白沙黎族自治县,14.038,25.35,2.438,2.579,0.295,67.175,-5.996,0.275,291.712,90.941,97063.358,19.2,109.388
海南,陵水黎族自治县,10.693,25.363,1.444,2.164,0.306,73.326,-5.326,-4.783,293.216,89.909,99382.373,18.581,109.913
湖北,仙桃市,55.812,76.523,5.795,8.852,0.774,76.152,-2.504,-6.017,270.092,94.48,102490.809,30.284,113.417
湖北,十堰市,48.295,58.263,13.871,15.158,0.808,80.435,-3.166,-1.057,263.712,87.149,94074.968,32.462,110.476
湖北,咸宁市,45.298,50.336,5.515,14.183,0.914,59.466,-3.486,-3.075,271.704,95.728,100345.58,29.621,114.178
湖北,天门市,53.717,69.826,7.492,10.901,0.833,83.038,-2.147,-6.059,269.091,92.699,102506.672,30.633,113.053
湖北,孝感市,49.033,64.758,7.763,13.964,0.835,70.16,-3.084,-5.615,268.902,91.841,101866.99,31.116,113.869
湖北,宜昌市,46.81,54.226,11.52,11.734,0.767,73.113,-1.925,-2.166,265.859,88.513,94866.697,30.746,111.129
湖北,恩施土家族苗族自治州,41.758,50.628,14.028,9.705,0.77,51.14,-2.502,1.682,267.168,89.097,89818.494,30.195,109.552
湖北,武汉市,47.298,66.758,6.114,16.743,0.809,61.287,-2.787,-4.353,271.139,92.426,102359.173,30.606,114.349
湖北,潜江市,60.259,74.486,6.174,11.244,0.902,86.593,-1.84,-6.85,268.992,92.178,102494.47,30.33,112.77
湖北,神农架林区,34.8,40.112,11.109,6.305,0.541,74.925,-0.338,3.028,264.402,88.935,82811.074,31.592,110.49
湖北,荆州市,57.455,70.703,7.881,11.54,0.918,82.671,-1.716,-6.77,269.626,92.715,102210.872,30.01,112.512
湖北,荆门市,55.973,65.668,9.594,14.425,0.875,87.012,-0.891,-6.431,267.457,90.471,101468.069,31.059,112.616
湖北,襄阳市,58.615,62.852,10.667,15.059,0.897,85.874,-1.263,-3.543,265.407,89.968,98585.546,31.919,111.96
湖北,鄂州市,41.797,47.18,5.844,16.876,0.871,58.837,-2.869,-2.941,271.913,94.204,102365.854,30.337,114.794
湖北,随州市,47.088,62.012,9.153,14.221,0.735,80.691,-3.998,-4.453,267.087,89.778,100729.211,31.809,113.43
湖北,黄冈市,34.168,34.911,8.575,15.671,0.658,58.44,-4.853,-2.998,270.964,88.977,100495.099,30.702,115.358
湖北,黄石市,34.245,36.698,6.756,16.259,0.811,54.767,-4.742,-2.4,272.157,94.874,101257.886,29.925,115.034
湖南,娄底市,28.879,40.948,8.641,11.929,1.039,51.519,-1.167,-4.534,269.405,92.473,97957.402,27.715,111.632
湖南,岳阳市,52.512,57.049,6.636,10.159,0.85,63.231,-2.471,-4.263,272.046,95.506,101077.413,29.081,113.275
湖南,常德市,48.76,66.284,10.669,12.318,0.989,68.667,-1.359,-6.482,268.308,93.119,100353.292,29.271,111.524
湖南,张家界市,44.374,52.236,9.576,10.434,0.813,59.764,-4.286,-3.138,267.464,92.142,96058.296,29.379,110.526
湖南,怀化市,28.942,40.61,8.056,8.449,0.872,53.959,-2.455,-3.632,269.115,92.883,96960.225,27.535,110.071
湖南,株洲市,26.207,33.765,8.748,17.11,0.751,35.652,-0.898,-2.664,274.558,93.459,98621.946,27.109,113.513
湖南,永州市,20.669,30.546,7.678,12.981,0.726,35.693,-1.919,-3.246,273.81,92.237,97094.797,25.748,111.723
湖南,湘潭市,33.812,41.003,6.237,18.2,0.919,46.701,0.701,-5.324,271.94,96.701,101138.018,27.744,112.619
湖南,湘西土家族苗族自治州,40.244,48.021,6.453,8.63,0.843,57.229,-4.3,-2.012,267.813,92.361,95935.15,28.708,109.718
湖南,益阳市,44.339,63.17,8.769,10.426,1.054,64.115,-0.288,-5.246,269.227,94.842,99720.801,28.525,111.919
湖南,衡阳市,22.499,28.06,6.228,17.564,0.806,35.074,0.279,-4.533,272.892,96.383,100557.452,26.781,112.565
湖南,邵阳市,24.204,32.153,9.159,12.4,0.788,44.137,-2.333,-2.591,270.269,94.502,95519.354,26.893,110.881
湖南,郴州市,19.416,29.249,6.456,15.278,0.725,34.169,-0.145,-2.261,275.672,90.698,96199.805,25.769,113.109
湖南,长沙市,38.087,46.244,6.995,14.444,0.79,47.099,-0.52,-3.861,272.45,95.684,100499.426,28.235,113.159
甘肃,临夏回族自治州,57.507,84.401,18.001,19.24,1.239,61.187,-2.411,-0.899,265.106,80.081,76957.144,35.617,103.291
甘肃,兰州市,59.976,88.809,21.108,20.033,1.032,53.889,-2.589,-1.033,264.164,79.192,78697.353,36.359,103.633
甘肃,嘉峪关市,21.145,61.255,13.712,18.888,0.488,61.453,-5.41,0.965,256.42,68.417,81604.578,39.798,98.145
甘肃,天水市,91.474,108.269,18.33,19.307,1.048,65.155,-1.134,0.465,264.481,79.776,82448.806,34.645,105.739
甘肃,定西市,71.204,90.85,17.03,13.901,1.079,59.593,-0.97,-1.721,263.413,83.452,76714.081,35.124,104.432
甘肃,平凉市,99.527,115.315,16.907,21.193,1.072,72.306,-0.542,1.279,264.004,85.612,84454.78,35.304,106.644
甘肃,庆阳市,84.711,100.963,19.258,20.871,1.013,66.996,-0.285,1.277,263.792,87.388,85836.481,36.149,107.596
甘肃,张掖市,14.234,27.956,6.375,3.625,0.257,56.366,1.098,-1.132,258.555,62.826,74133.209,38.94,99.855
甘肃,武威市,34.7,63.367,14.479,8.487,0.507,53.302,-0.428,-2.955,260.691,71.005,81319.018,38.163,103.073
甘肃,甘南藏族自治州,31.487,38.409,6.935,4.842,0.496,64.567,-0.971,-1.359,262.193,77.427,66635.715,34.331,102.768
甘肃,白银市,62.466,93.413,20.338,15.805,0.951,51.645,-0.309,-3.66,263.779,78.19,81247.086,36.59,104.646
甘肃,酒泉市,9.402,13.129,4.613,2.039,0.217,48.429,-3.395,-0.528,257.914,62.379,78861.266,40.236,96.062
甘肃,金昌市,25.855,61.544,10.468,6.901,0.397,60.165,-0.783,-1.739,260.809,68.833,80441.586,38.44,102.048
甘肃,陇南市,52.47,66.544,16.34,12.677,0.816,60.998,-1.212,-0.298,264.123,78.37,81959.753,33.599,105.224
福建,三明市,12.275,19.773,7.696,9.293,0.361,54.174,-2.853,0.587,281.337,82.732,95520.785,26.29,117.395
福建,南平市,12.932,19.117,7.031,8.989,0.366,50.901,-2.526,-0.151,278.905,81.088,96378.351,27.324,118.143
福建,厦门市,11.667,26.883,9.525,20.235,0.405,51.76,-5.742,-8.525,284.19,78.712,100857.485,24.642,118.11
福建,宁德市,14.372,21.642,6.265,13.094,0.374,49.425,-2.394,-2.582,277.426,90.427,95792.053,26.968,119.474
福建,泉州市,11.115,21.104,6.848,13.287,0.373,56.313,-4.812,-4.227,282.186,84.52,97008.826,25.201,118.249
福建,漳州市,15.133,30.332,8.375,18.026,0.424,52.402,-4.594,-4.803,283.001,82.7,98612.138,24.372,117.444
福建,福州市,11.604,20.648,6.209,14.63,0.406,52.484,-3.399,-5.34,280.265,88.207,97907.874,26.083,119.206
福建,莆田市,10.212,19.022,6.365,12.579,0.383,57.8,-4.286,-7.327,282.268,84.088,98619.648,25.445,118.864
福建,龙岩市,16.216,25.431,7.978,12.983,0.403,52.399,-2.04,-0.021,283.127,80.41,95465.117,25.256,116.739
西藏,山南市,15.501,18.525,1.813,1.267,0.221,87.434,7.573,0.83,268.237,53.72,65404.894,28.295,92.274
西藏,拉萨市,3.625,9.399,0.178,1.787,0.192,82.82,9.069,-0.147,261.824,45.768,55516.345,30.043,91.093
西藏,日喀则市,2.704,3.864,0.36,0.349,0.138,80.452,12.803,-1.899,260.522,35.898,54408.751,29.483,86.493
西藏,昌都市,7.406,8.335,1.032,0.38,0.247,88.287,9.267,7.278,261.829,53.607,57986.158,30.753,97.044
西藏,林芝市,12.936,14.522,1.872,1.298,0.202,88.922,2.677,4.379,266.059,74.0,65643.32,29.184,95.25
西藏,玉树藏族自治州,1.303,1.624,0.188,0.195,0.132,77.581,6.549,0.926,256.567,57.562,56010.047,34.196,94.317
西藏,那曲市,0.912,1.184,0.134,0.168,0.126,79.904,10.543,-1.717,256.365,47.944,54250.457,32.709,89.262
西藏,阿里地区,1.424,1.823,0.227,0.45,0.119,75.51,13.511,-2.807,254.911,42.808,53711.853,33.013,82.553
贵州,六盘水市,21.743,32.047,13.411,13.793,0.788,39.883,3.003,5.846,281.154,73.564,82805.818,26.106,104.896
贵州,安顺市,22.563,33.281,11.74,8.911,0.676,32.138,-3.443,3.815,275.763,96.816,88083.297,25.986,105.978
贵州,毕节市,19.95,28.705,11.03,12.498,0.809,40.553,3.101,3.73,276.856,73.94,83164.93,27.063,105.211
贵州,贵阳市,18.984,24.623,11.561,15.946,0.741,31.667,-1.035,3.524,273.513,94.981,88171.662,26.845,106.71
贵州,遵义市,22.274,31.6,14.177,10.955,0.72,40.939,-4.212,1.08,269.603,90.253,90547.22,28.167,107.102
贵州,铜仁市,15.918,34.76,14.488,7.642,0.874,52.371,-3.79,-1.076,267.885,92.304,93178.729,27.937,108.534
贵州,黔东南苗族侗族自治州,16.582,29.692,15.152,9.764,0.818,41.642,-2.176,-2.247,269.816,93.626,92996.091,26.495,108.574
贵州,黔南布依族苗族自治州,15.178,24.542,12.189,8.662,0.712,37.902,-2.271,0.989,272.828,95.836,90489.898,26.0,107.265
贵州,黔西南布依族苗族自治州,16.623,29.707,9.467,6.501,0.732,32.105,-1.697,4.299,279.061,95.744,88467.219,25.256,105.467
辽宁,丹东市,27.237,37.115,15.794,25.765,0.741,43.863,0.141,-4.502,257.251,44.397,99929.831,40.554,124.376
辽宁,大连市,38.702,56.554,24.761,36.11,1.028,39.239,-0.312,-2.725,262.006,41.543,102424.082,39.591,122.22
辽宁,抚顺市,43.037,58.449,22.409,39.578,0.824,36.985,1.891,-0.65,253.843,47.576,98062.239,41.841,124.65
辽宁,朝阳市,49.786,71.344,39.103,24.841,1.242,36.418,0.361,-2.394,258.211,40.628,97631.141,41.545,120.053
辽宁,本溪市,38.882,54.819,22.029,35.951,0.912,37.497,1.06,-3.381,254.512,47.407,97319.526,41.232,124.544
辽宁,沈阳市,60.226,80.108,32.738,37.227,0.991,31.098,1.417,-1.085,256.543,35.432,102744.963,42.081,123.159
辽宁,盘锦市,75.355,97.087,62.084,56.427,1.58,25.981,-1.055,-1.911,258.496,28.393,103461.689,41.13,122.01
辽宁,营口市,56.088,81.616,35.742,47.843,1.442,32.862,-0.867,-3.343,259.012,30.687,100934.349,40.395,122.478
辽宁,葫芦岛市,63.01,88.346,48.514,40.485,1.489,33.201,0.256,-1.898,260.457,35.013,100636.202,40.66,120.215
辽宁,辽阳市,62.399,85.002,41.608,50.476,1.379,31.048,0.151,-1.611,256.887,36.228,101201.627,41.153,123.261
辽宁,铁岭市,44.487,61.783,24.882,33.437,0.849,36.394,3.02,0.362,254.322,42.844,100963.384,42.653,124.158
辽宁,锦州市,63.262,79.582,51.74,42.721,1.071,31.791,0.265,-2.807,258.562,31.848,102557.135,41.502,121.659
辽宁,阜新市,30.794,40.09,17.833,14.608,0.631,39.563,2.417,-3.62,256.929,39.17,100917.363,42.289,121.968
辽宁,鞍山市,49.682,69.832,34.063,46.299,1.255,34.027,0.584,-3.151,258.315,33.087,101241.165,40.731,123.007
重庆,重庆城区,30.987,42.506,14.786,16.475,0.71,38.248,-3.566,0.569,273.82,69.104,95328.869,29.824,107.125
重庆,重庆郊县,38.15,49.171,17.216,9.882,0.708,52.193,-4.185,0.738,269.156,80.409,91396.047,30.334,108.755
陕西,咸阳市,109.758,121.446,18.566,33.215,1.25,58.454,-2.862,-0.327,265.305,84.083,91966.922,34.779,108.367
陕西,商洛市,53.915,62.808,12.393,15.109,0.72,65.259,-1.492,0.124,261.466,84.919,89756.716,33.64,109.889
陕西,安康市,50.455,59.318,14.381,13.175,0.731,75.261,-3.989,-0.904,263.064,84.748,90286.064,32.735,108.932
陕西,宝鸡市,110.659,116.203,14.491,24.958,1.032,67.897,-1.681,0.776,263.717,85.978,86448.383,34.386,107.193
陕西,延安市,73.207,89.459,26.142,30.539,1.363,51.716,-0.468,2.544,263.104,86.9,87753.29,36.432,109.316
陕西,榆林市,73.683,100.349,26.922,29.12,1.336,42.315,0.161,2.45,263.641,86.212,88135.374,38.041,109.581
陕西,汉中市,49.793,62.444,13.132,12.116,0.743,63.766,-3.843,-0.557,264.011,81.405,89213.863,33.088,107.098
陕西,渭南市,91.725,109.194,23.251,31.363,1.176,52.321,-3.651,-0.258,265.562,80.127,94537.893,34.919,109.855
陕西,西安市,101.295,112.144,15.008,33.327,1.136,52.585,-1.86,0.084,265.115,78.695,90965.564,34.12,108.77
陕西,铜川市,95.741,110.109,25.867,29.908,1.328,57.792,-3.046,0.231,262.889,87.711,89501.02,35.198,109.058
青海,保亭黎族苗族自治县,11.056,22.228,1.666,3.06,0.356,69.174,-6.402,-2.98,292.31,90.496,97204.986,18.566,109.618
青海,吐鲁番市,8.747,15.844,3.334,8.442,0.302,57.083,-2.802,-3.229,260.369,39.956,90960.466,42.386,89.851
青海,果洛藏族自治州,3.232,4.184,0.65,0.681,0.139,74.295,2.81,0.533,258.675,72.182,58743.449,34.127,99.404
青海,海东市,53.693,64.799,16.182,14.462,0.872,53.65,-2.812,1.458,262.803,83.356,72004.088,36.347,102.34
青海,海北藏族自治州,8.507,10.093,2.707,2.477,0.213,61.349,2.14,0.257,258.489,62.13,64243.542,37.775,100.288
青海,海南藏族自治州,6.924,7.556,1.53,1.373,0.191,63.374,1.308,-0.652,261.625,65.663,65446.379,35.89,100.272
青海,海西蒙古族藏族自治州,0.886,1.135,0.396,0.386,0.137,65.945,3.626,-0.093,259.084,47.966,63429.639,36.677,94.519
青海,西宁市,47.364,59.254,12.739,14.869,1.169,59.918,-0.72,1.183,261.711,77.342,68646.865,36.842,101.423
青海,黄南藏族自治州,19.843,21.425,3.556,2.64,0.302,64.91,-0.245,-0.803,261.79,74.177,64758.858,35.022,101.631
香港,香港特别行政区,22.84,38.33,6.255,23.705,0.485,53.8,-8.2,-4.79,288.3,80.115,101236.72,22.45,114.22
黑龙江,七台河市,24.589,37.89,7.496,12.487,0.399,56.63,11.499,-0.12,249.577,61.443,98797.178,45.87,130.943
黑龙江,伊春市,11.617,14.658,3.739,4.669,0.342,53.874,7.608,0.338,246.024,65.824,97078.372,47.772,129.184
黑龙江,佳木斯市,12.387,17.467,4.442,6.429,0.331,57.995,9.482,1.917,249.786,58.232,100675.758,47.207,132.11
黑龙江,双鸭山市,14.317,18.912,5.4,7.679,0.331,55.793,9.801,1.223,250.073,59.777,100232.319,46.722,132.643
黑龙江,哈尔滨市,40.359,51.321,16.933,21.055,0.711,43.933,6.731,2.61,248.635,68.259,99575.306,45.634,127.964
黑龙江,大兴安岭地区,0.344,0.469,0.727,1.008,0.242,57.278,6.806,-3.316,244.765,64.0,95032.986,52.286,124.212
黑龙江,大庆市,17.046,21.348,6.613,10.007,0.444,50.521,6.387,-2.37,250.685,49.417,101177.719,46.327,124.687
黑龙江,牡丹江市,22.694,30.558,8.035,12.409,0.448,50.3,9.235,0.21,250.986,57.077,95890.62,44.592,129.883
黑龙江,绥化市,19.95,28.046,7.718,13.184,0.554,46.976,6.363,-0.188,247.181,64.637,100072.818,46.89,126.634
黑龙江,鸡西市,17.967,23.922,5.735,9.711,0.348,51.713,9.434,-0.8,251.44,56.633,100117.959,45.626,132.289
黑龙江,鹤岗市,7.015,9.155,4.091,4.945,0.297,60.041,8.425,-1.041,249.634,54.989,99615.992,47.661,130.778
黑龙江,黑河市,4.013,4.59,2.133,2.489,0.299,53.791,6.248,-1.003,245.821,65.822,97505.047,49.268,127.004
黑龙江,齐齐哈尔市,9.959,13.002,5.305,5.069,0.373,51.865,6.774,-2.426,248.252,52.595,100087.338,47.715,124.57
