province,city,PM2.5,PM10,SO2,NO2,CO,O3,U,V,TEMP,RH,PSFC,lat,lon
上海,上海市,32.168,65.306,16.501,47.764,0.764,42.744,8.922,-4.992,274.71,44.602,102792.858,31.173,121.42
云南,临沧市,22.562,32.037,7.587,7.701,0.569,61.634,-0.947,3.992,282.852,77.553,84202.123,23.935,99.686
云南,丽江市,22.411,36.939,9.819,10.692,0.779,60.975,0.055,3.272,274.813,63.044,74706.957,26.96,100.515
云南,保山市,14.387,26.331,4.941,12.158,0.565,53.606,1.788,2.407,282.059,55.936,82077.029,24.953,98.962
云南,大理白族自治州,17.825,34.31,7.264,9.77,0.629,58.633,1.484,3.727,277.866,67.246,78265.482,25.726,100.053
云南,德宏傣族景颇族自治州,17.011,27.331,4.948,14.848,0.511,48.423,-0.26,1.49,284.672,56.786,86320.408,24.535,98.052
云南,怒江傈僳族自治州,10.496,16.44,1.654,3.695,0.353,64.13,2.408,3.16,275.571,52.128,72759.688,26.916,98.885
云南,文山壮族苗族自治州,31.772,46.773,12.163,4.245,0.744,61.983,-3.306,-3.06,274.757,80.564,87335.962,23.696,104.735
云南,昆明市,38.368,53.516,10.961,20.128,1.184,34.133,-3.648,2.691,273.262,88.839,79584.004,25.384,102.863
云南,昭通市,35.537,60.913,14.539,11.475,0.763,65.896,-1.995,-0.423,272.115,58.575,84878.308,27.667,103.985
云南,普洱市,25.495,42.299,10.252,6.104,0.513,49.732,-2.963,3.073,281.075,93.724,86432.494,23.159,100.718
云南,曲靖市,40.234,61.425,13.9,16.53,1.023,51.719,-4.257,0.504,270.76,83.333,80486.916,25.737,103.929
云南,楚雄彝族自治州,30.089,46.292,12.195,13.315,0.868,42.485,-1.074,3.338,277.002,87.145,81317.625,25.328,101.567
云南,玉溪市,27.035,41.445,9.772,8.478,0.721,47.337,-4.278,2.953,277.127,89.172,83951.031,24.136,102.217
云南,红河哈尼族彝族自治州,31.251,43.436,10.755,5.107,0.65,52.272,-4.779,0.579,276.132,89.014,85766.232,23.451,103.034
云南,西双版纳傣族自治州,21.909,41.203,9.851,7.516,0.529,40.868,-4.903,-0.022,281.513,91.766,89527.487,21.939,100.912
云南,迪庆藏族自治州,7.373,12.283,1.98,3.214,0.321,68.443,4.929,2.736,272.463,50.78,67098.591,27.957,99.459
内蒙古,乌兰察布市,3.25,5.152,2.388,1.873,0.266,56.566,6.0,-6.136,255.45,69.406,86167.048,41.691,112.44
内蒙古,乌海市,23.866,58.131,25.501,30.052,0.632,52.606,7.659,-3.979,263.129,57.351,88505.789,39.396,106.856
内蒙古,兴安盟,4.07,5.217,3.33,3.263,0.296,58.256,4.672,-8.439,249.827,46.382,95010.473,46.244,121.341
内蒙古,包头市,4.118,8.186,2.751,3.253,0.287,54.907,5.51,-4.978,257.855,72.538,86324.097,41.549,110.276
内蒙古,呼伦贝尔市,1.526,1.931,2.523,2.14,0.266,60.82,3.612,-7.174,246.101,60.713,93850.83,49.636,121.171
内蒙古,呼和浩特市,10.705,24.971,8.745,12.731,0.604,57.591,5.469,-5.278,258.931,60.738,86605.343,40.578,111.513
内蒙古,巴彦淖尔市,4.396,7.736,1.765,2.048,0.211,55.073,5.857,-1.96,260.67,67.433,87993.198,41.446,107.582
内蒙古,赤峰市,2.614,4.333,2.401,1.399,0.259,55.877,6.631,-9.725,252.487,48.607,92075.018,43.226,118.892
内蒙古,通辽市,6.188,8.076,3.681,3.553,0.282,50.752,4.46,-8.455,254.428,44.035,98402.011,43.814,121.591
内蒙古,鄂尔多斯市,12.765,24.882,12.323,16.537,0.446,52.284,6.849,-3.222,262.294,61.469,87665.121,39.407,108.63
内蒙古,锡林郭勒盟,1.59,2.031,1.687,0.887,0.22,55.925,4.581,-5.985,250.892,64.458,89354.1,44.179,115.482
内蒙古,阿拉善盟,6.483,9.086,3.009,2.088,0.212,56.967,6.391,-1.482,263.948,49.478,88473.093,40.473,102.467
北京,北京市,5.321,11.927,2.939,6.044,0.283,60.285,3.266,-7.85,263.398,29.003,98744.327,40.158,116.395
台湾,台湾省,13.182,15.828,6.573,12.976,0.221,59.737,-0.273,-5.572,282.419,72.434,93625.908,23.757,120.975
吉林,吉林市,28.258,40.191,11.289,15.725,0.707,44.524,4.005,-3.271,249.876,76.145,97096.575,43.573,126.859
吉林,四平市,29.618,30.547,6.8,13.867,0.557,46.5,3.071,-5.829,254.093,65.708,99826.944,43.472,124.386
吉林,延边朝鲜族自治州,18.013,23.429,8.207,9.117,0.465,52.784,7.698,-2.907,250.643,63.778,93445.958,43.141,129.147
吉林,松原市,11.86,16.792,5.211,7.755,0.422,52.957,3.472,-6.895,252.448,61.332,100257.399,44.785,124.496
吉林,白城市,10.962,13.545,4.108,6.517,0.442,55.763,2.492,-7.747,253.47,45.08,100547.041,45.35,123.031
吉林,白山市,34.328,43.784,20.926,22.317,0.772,33.866,3.707,-2.42,249.043,76.685,91654.432,42.063,127.256
吉林,辽源市,39.136,45.062,10.295,22.107,0.762,41.228,2.811,-5.202,253.376,75.269,97632.618,42.836,125.32
吉林,通化市,38.47,50.016,18.522,25.33,0.913,34.188,2.17,-4.542,252.614,75.946,95570.447,41.939,125.927
吉林,长春市,22.744,30.734,9.486,14.625,0.607,47.917,3.848,-5.586,251.6,69.935,99636.566,44.268,125.611
四川,乐山市,47.206,68.124,10.515,23.592,0.761,55.015,-1.224,1.129,275.237,41.868,90674.613,29.218,103.569
四川,内江市,71.415,108.006,16.057,54.109,1.039,44.152,-0.809,0.21,279.537,35.262,98161.797,29.62,104.95
四川,凉山彝族自治州,25.049,37.554,10.926,7.853,0.709,66.514,-1.454,0.887,270.614,64.376,74329.581,27.883,102.065
四川,南充市,65.908,116.273,9.015,45.276,1.01,46.68,-1.255,-1.689,277.835,35.8,98183.472,31.19,106.199
四川,宜宾市,48.958,73.108,13.366,30.817,0.955,50.483,-0.536,0.222,278.621,38.255,96432.082,28.573,104.621
四川,巴中市,57.138,90.397,7.812,30.643,0.929,47.322,0.453,-1.922,274.795,33.252,93662.09,32.033,107.031
四川,广元市,37.001,70.407,8.781,32.806,0.825,41.866,-0.466,-1.536,274.79,33.054,92745.643,32.261,105.788
四川,广安市,67.781,128.058,14.22,52.698,1.127,42.813,0.193,-0.731,278.741,38.896,98197.967,30.43,106.628
四川,德阳市,81.866,136.564,10.042,56.94,1.091,38.776,-0.473,0.073,276.459,34.87,94421.538,31.13,104.436
四川,成都市,65.146,112.926,10.127,50.588,1.0,47.685,-0.27,0.187,276.997,37.686,94574.435,30.64,103.929
四川,攀枝花市,34.468,55.464,24.221,20.391,1.2,54.026,-2.635,-0.252,276.983,61.663,81874.098,26.791,101.734
四川,泸州市,45.024,69.724,12.207,29.612,0.622,46.74,-0.684,-0.643,277.48,42.066,94732.63,28.424,105.675
四川,甘孜藏族自治州,2.802,3.69,0.598,1.495,0.147,67.756,5.311,-1.927,264.157,44.854,60920.883,30.936,100.009
四川,眉山市,59.306,92.231,11.194,39.989,0.841,47.604,-0.878,0.614,277.584,38.704,95052.837,29.912,103.766
四川,绵阳市,64.447,96.629,8.537,36.539,0.82,45.586,-0.134,-0.18,273.444,37.525,88949.584,31.86,104.704
四川,自贡市,76.805,104.775,16.369,55.362,1.071,43.682,-1.39,0.483,279.549,36.101,98138.145,29.307,104.659
四川,资阳市,55.066,117.272,10.334,37.207,0.963,44.161,-0.655,-0.555,279.125,32.992,98423.151,30.102,105.149
四川,达州市,72.693,110.1,12.292,33.966,1.174,46.147,-0.763,-1.5,275.591,38.15,95348.802,31.335,107.636
四川,遂宁市,65.366,136.185,9.287,46.065,1.02,40.289,-0.487,-1.08,278.772,32.383,98668.43,30.642,105.457
四川,阿坝藏族羌族自治州,4.287,6.32,0.637,2.994,0.213,70.232,4.371,-3.914,262.017,40.389,65364.814,32.406,102.61
四川,雅安市,41.409,58.38,7.528,14.43,0.571,61.751,-0.618,-0.006,269.819,55.0,80626.775,29.932,102.689
天津,天津市,8.073,21.219,4.269,12.277,0.387,55.178,3.519,-7.741,266.038,24.764,102745.784,39.315,117.308
宁夏,中卫市,18.841,50.689,7.239,10.661,0.383,59.369,6.448,-4.429,265.045,42.694,84308.485,37.018,105.509
宁夏,吴忠市,15.284,33.526,9.09,10.021,0.31,56.881,7.736,-2.877,263.942,52.161,85866.057,37.454,106.577
宁夏,固原市,26.57,59.741,15.541,25.334,0.644,60.746,6.931,-6.337,264.48,41.867,81518.703,35.905,106.183
宁夏,石嘴山市,26.933,55.713,31.46,26.138,0.618,54.704,6.612,-3.138,264.042,48.278,87492.8,39.013,106.499
宁夏,银川市,28.183,58.479,30.086,27.197,0.626,51.15,6.17,-1.344,264.861,47.717,87878.753,38.287,106.342
安徽,亳州市,35.22,69.167,16.569,37.1,0.672,49.682,3.404,-2.691,272.135,45.437,102770.029,33.44,116.162
安徽,六安市,25.357,46.785,11.682,19.76,0.429,72.661,5.264,-3.592,272.295,50.3,100198.301,31.617,116.209
安徽,合肥市,26.939,55.333,12.762,31.505,0.564,67.453,4.875,-3.871,273.555,50.217,102667.532,31.766,117.359
安徽,安庆市,31.055,52.538,10.271,24.008,0.497,57.025,2.86,-4.163,274.885,39.615,100641.733,30.557,116.473
安徽,宣城市,26.551,53.97,13.647,28.249,0.588,58.746,5.726,-3.478,273.11,56.309,100480.42,30.676,118.846
安徽,宿州市,38.563,89.076,17.983,40.922,0.821,43.856,4.26,-4.091,271.538,35.29,102647.755,33.844,117.23
安徽,池州市,34.362,60.049,12.133,32.902,0.544,54.283,2.591,-4.569,274.354,46.097,100814.679,30.296,117.379
安徽,淮北市,38.262,80.713,19.672,44.205,0.742,44.446,3.9,-3.191,271.79,39.238,102732.42,33.722,116.747
安徽,淮南市,32.671,57.874,15.477,31.0,0.547,66.503,4.426,-3.594,273.138,49.95,102844.303,32.463,116.746
安徽,滁州市,32.812,65.62,14.381,32.111,0.629,55.944,5.301,-3.764,272.333,46.822,102474.934,32.55,118.076
安徽,芜湖市,28.004,58.516,15.202,33.864,0.64,60.166,5.5,-3.935,274.428,51.925,102827.526,31.167,118.162
安徽,蚌埠市,38.726,71.003,16.569,39.937,0.716,49.923,4.368,-3.533,271.858,45.268,102770.377,33.121,117.263
安徽,铜陵市,31.118,56.626,12.877,31.212,0.519,62.479,4.642,-4.94,274.721,46.324,102721.264,30.883,117.531
安徽,阜阳市,37.452,71.783,17.502,33.694,0.768,55.392,4.324,-2.712,272.585,47.007,102794.704,32.937,115.723
安徽,马鞍山市,27.26,61.625,15.212,34.883,0.74,57.473,5.444,-3.974,273.63,48.902,102798.694,31.622,118.386
安徽,黄山市,27.055,49.183,11.725,21.774,0.484,52.634,4.015,-4.282,273.104,49.191,98409.623,29.869,118.09
山东,东营市,9.991,30.188,12.738,17.38,0.495,50.315,7.483,-7.109,268.023,31.387,102703.524,37.57,118.572
山东,临沂市,22.226,63.839,19.342,30.92,0.703,41.272,5.676,-6.304,269.001,25.655,100913.415,35.289,118.27
山东,威海市,8.478,20.235,8.085,8.245,0.375,57.492,7.008,-6.448,267.74,72.595,101517.505,37.148,122.028
山东,德州市,20.334,54.893,13.502,33.121,0.809,36.362,1.972,-5.403,268.47,20.911,102792.039,37.233,116.679
山东,日照市,14.358,53.115,14.877,21.827,0.56,45.759,6.858,-7.122,268.117,22.489,100944.412,35.566,119.108
山东,枣庄市,33.239,88.376,26.738,37.996,0.761,38.008,4.744,-6.043,270.398,26.036,101782.101,34.925,117.383
山东,泰安市,23.131,58.561,18.711,39.216,0.796,34.984,2.891,-5.564,268.669,23.409,100876.15,35.993,117.04
山东,济南市,18.811,54.408,18.098,36.323,0.839,34.448,3.223,-5.926,267.352,22.93,100835.517,36.639,117.254
山东,济宁市,31.088,77.919,21.157,39.893,0.858,36.876,2.957,-5.147,270.624,24.58,102293.473,35.375,116.697
山东,淄博市,18.167,52.873,23.305,33.533,0.955,37.037,5.906,-6.89,266.364,23.322,100099.28,36.623,118.062
山东,滨州市,13.5,37.781,12.259,22.897,0.627,44.274,5.871,-6.839,267.656,22.613,102763.178,37.516,117.852
山东,潍坊市,15.215,52.765,19.51,26.281,0.691,43.164,8.775,-7.342,267.443,25.708,101518.686,36.53,119.092
山东,烟台市,8.804,27.347,7.845,9.483,0.395,57.714,6.911,-7.19,267.417,65.989,101160.316,37.25,120.789
山东,聊城市,29.387,71.086,17.903,40.037,0.918,33.141,0.438,-3.8,270.073,22.093,102594.624,36.458,115.863
山东,菏泽市,27.713,80.563,15.676,37.961,1.006,40.962,1.724,-2.886,271.719,26.732,102500.1,35.134,115.69
山东,青岛市,12.319,46.552,11.758,17.326,0.456,50.623,9.196,-6.78,268.278,43.42,101947.294,36.46,120.172
山西,临汾市,29.664,55.747,44.978,25.411,1.161,47.956,5.257,-3.616,264.431,61.087,90847.597,36.227,111.398
山西,吕梁市,25.466,38.732,23.959,20.088,0.868,49.655,6.107,-4.165,262.535,63.038,88242.706,37.663,111.27
山西,大同市,9.755,17.857,9.625,8.438,0.576,56.642,6.729,-7.623,258.576,54.234,87414.872,39.911,113.713
山西,太原市,14.077,28.172,12.3,14.966,0.524,56.971,8.365,-6.649,262.784,51.551,87939.257,37.967,112.321
山西,忻州市,13.697,26.45,11.925,15.21,0.466,52.328,7.776,-5.817,260.059,60.286,86326.318,38.877,112.391
山西,晋中市,18.109,38.176,18.022,17.56,0.722,54.279,7.23,-4.116,263.669,48.333,88932.073,37.328,112.997
山西,晋城市,19.982,45.792,25.742,17.478,0.734,61.124,7.796,-7.518,265.931,48.988,91100.411,35.625,112.752
山西,朔州市,13.607,30.046,13.862,15.608,0.63,55.215,7.625,-4.9,259.477,59.65,86824.882,39.619,112.655
山西,运城市,38.749,78.246,55.717,34.094,1.252,46.551,5.782,-2.465,268.332,52.042,95404.767,35.205,111.071
山西,长治市,17.886,34.781,21.866,18.585,0.673,53.7,7.619,-4.392,264.596,49.946,89281.597,36.48,112.915
山西,阳泉市,14.369,27.525,13.647,19.518,0.464,53.466,7.608,-6.677,264.531,40.306,90864.303,38.031,113.512
广东,东莞市,26.549,39.061,9.508,29.437,0.731,54.809,-5.456,-8.306,283.522,31.383,102435.56,22.931,113.81
广东,中山市,28.814,43.548,10.887,37.908,0.672,48.299,-5.436,-9.099,284.437,35.177,102407.673,22.5,113.383
广东,云浮市,30.087,40.722,7.394,21.13,0.662,46.337,-5.817,-6.165,282.272,34.464,100391.773,22.776,111.818
广东,佛山市,29.615,46.307,11.377,42.593,0.666,39.537,-4.592,-8.234,283.455,30.971,102530.501,23.035,112.979
广东,广州市,25.55,36.676,8.934,27.114,0.678,54.141,-4.998,-8.584,282.911,30.229,101566.052,23.339,113.525
广东,惠州市,21.845,30.728,8.014,10.796,0.638,67.079,-4.952,-10.333,281.877,33.412,100495.904,23.244,114.485
广东,揭阳市,21.416,36.319,12.151,21.746,0.737,59.252,-1.376,-10.755,283.316,28.998,101059.219,23.323,116.123
广东,梅州市,19.799,31.262,10.582,14.459,0.619,62.248,-0.69,-8.596,280.314,35.23,99051.582,24.169,116.07
广东,汕头市,20.51,35.219,13.062,26.196,0.762,58.544,-1.893,-8.789,284.635,31.565,102226.536,23.339,116.614
广东,汕尾市,19.253,29.861,8.718,10.489,0.58,66.583,-3.205,-10.593,283.446,28.874,100749.216,23.024,115.527
广东,江门市,29.018,42.762,11.326,33.802,0.61,44.298,-5.318,-9.435,283.901,33.464,101812.698,22.289,112.676
广东,河源市,23.182,33.217,9.282,9.806,0.609,63.905,-3.208,-9.923,280.057,37.743,99286.38,24.021,114.969
广东,深圳市,25.381,37.092,10.051,24.85,0.694,59.479,-5.529,-10.318,283.383,34.546,101871.198,22.667,114.143
广东,清远市,29.394,42.175,9.647,17.718,0.68,55.717,-4.275,-8.739,280.089,34.756,98842.105,24.295,112.871
广东,湛江市,33.068,41.798,9.857,14.246,0.757,49.229,-4.46,-6.73,285.853,37.379,102201.275,21.091,110.163
广东,潮州市,18.925,32.334,10.525,20.224,0.68,58.529,-0.037,-8.98,283.072,30.697,100476.277,23.755,116.754
广东,珠海市,25.875,35.488,12.962,27.213,0.552,56.2,-5.76,-10.45,285.195,38.438,102431.693,22.095,113.317
广东,肇庆市,32.07,44.742,7.98,21.067,0.665,49.025,-5.539,-6.999,282.185,32.183,100515.1,23.505,112.199
广东,茂名市,29.226,38.229,9.059,12.265,0.702,51.868,-7.267,-7.543,283.79,30.947,100341.037,22.013,110.952
广东,阳江市,28.083,37.04,9.072,16.614,0.565,51.437,-5.616,-9.308,283.173,31.058,100932.237,22.042,111.786
广东,韶关市,27.953,38.707,10.029,18.335,0.837,56.318,-3.614,-7.669,278.845,38.122,98061.181,24.785,113.819
广西,北海市,43.842,58.661,8.942,14.391,1.116,49.964,-3.755,-7.053,284.346,34.319,102349.314,21.674,109.37
广西,南宁市,34.785,54.631,13.257,22.874,0.803,49.015,-3.87,-6.508,282.355,35.285,100576.562,23.051,108.469
广西,崇左市,33.169,50.625,10.919,15.834,0.779,45.614,-3.869,-6.674,281.625,39.296,99223.146,22.483,107.291
广西,来宾市,34.344,48.83,13.189,14.965,0.682,57.216,-4.648,-6.274,281.459,32.46,99357.3,23.859,109.417
广西,柳州市,32.298,46.068,13.907,11.111,0.615,61.832,-3.61,-5.533,280.537,35.922,98807.173,24.956,109.372
广西,桂林市,35.928,49.647,13.712,13.629,0.611,65.257,-5.067,-5.147,278.878,35.905,97095.417,25.353,110.513
广西,梧州市,37.32,53.295,9.915,22.021,0.851,47.876,-5.184,-6.067,282.16,31.446,100154.4,23.484,110.996
广西,河池市,29.805,49.576,10.305,8.925,0.633,54.768,-3.781,-4.06,279.858,38.882,96363.087,24.628,107.843
广西,玉林市,38.023,57.386,10.111,16.922,1.076,50.271,-5.581,-7.175,283.128,34.124,100503.819,22.452,110.164
广西,百色市,35.554,49.855,11.135,8.354,0.89,53.04,-2.304,-3.642,279.011,49.229,94182.213,23.981,106.292
广西,贵港市,38.84,58.335,9.689,17.547,0.876,54.03,-5.74,-6.399,282.718,29.776,101059.156,23.322,110.021
广西,贺州市,35.698,52.514,11.63,16.076,0.681,59.06,-5.462,-8.018,280.179,31.734,98291.091,24.364,111.394
广西,钦州市,38.211,58.522,9.604,19.113,0.992,52.338,-3.756,-7.42,283.591,33.538,101660.255,22.173,109.01
广西,防城港市,34.187,53.882,12.97,21.085,0.832,48.158,-2.635,-8.078,282.109,39.476,100016.988,21.88,108.002
新疆,乌鲁木齐市,69.716,95.997,4.526,22.511,1.305,62.532,-1.247,2.545,265.206,31.828,84951.816,43.746,87.818
新疆,五家渠市,124.077,160.027,3.843,27.09,1.67,56.027,-1.3,-0.593,262.493,56.47,97964.077,44.363,87.517
新疆,伊犁哈萨克自治州,16.472,21.643,6.78,11.573,0.968,62.654,-0.657,2.386,267.861,35.231,80671.14,43.438,82.146
新疆,克孜勒苏柯尔克孜自治州,8.915,20.823,1.167,3.314,0.333,68.559,4.509,0.487,261.473,52.846,70555.73,39.661,75.949
新疆,克拉玛依市,76.856,72.019,7.363,13.023,0.636,51.126,-2.021,-1.722,263.507,56.764,98942.307,45.457,85.207
新疆,北屯市,8.98,9.316,7.468,17.734,0.52,59.382,-3.324,3.742,261.678,51.208,96951.512,47.27,87.868
新疆,博尔塔拉蒙古自治州,32.48,52.399,9.97,11.04,0.984,53.406,0.238,1.787,264.597,51.748,86979.62,44.714,82.114
新疆,双河市,50.194,90.34,17.55,13.138,1.022,41.42,-0.084,-0.612,264.286,54.952,99447.824,44.87,82.474
新疆,可克达拉市,71.382,95.648,34.65,54.762,3.792,36.55,-5.978,1.146,274.724,33.606,95539.918,43.918,80.786
新疆,和田地区,5.951,12.059,1.455,1.509,0.246,59.18,4.116,1.206,264.753,39.672,74524.416,37.059,80.934
新疆,哈密市,7.75,8.496,2.649,1.58,0.285,71.921,1.663,1.19,265.178,34.661,89346.789,43.042,93.517
新疆,喀什地区,13.7,26.195,2.318,4.13,0.391,57.853,4.545,2.577,264.523,50.222,76684.894,38.125,77.178
新疆,图木舒克市,9.698,11.145,3.728,2.052,0.263,48.193,1.417,1.038,268.757,49.692,90474.21,39.892,79.182
新疆,塔城地区,36.91,39.837,4.968,8.065,0.613,61.614,-0.465,1.06,265.377,53.714,90498.388,45.642,84.789
新疆,巴音郭楞蒙古自治州,4.679,8.41,1.468,0.927,0.2,61.143,2.876,-0.179,264.093,38.017,79897.94,39.463,87.481
新疆,新星市,28.655,32.74,7.34,12.155,0.925,50.945,-1.095,0.63,265.095,41.235,94180.49,42.75,93.68
新疆,昆玉市,42.82,106.243,9.12,14.35,1.333,45.243,-1.963,0.513,269.537,45.673,88001.053,37.457,79.093
新疆,昌吉回族自治州,35.527,44.71,2.987,8.841,0.715,71.431,-1.014,1.112,265.818,37.875,90884.479,44.342,88.608
新疆,石河子市,294.48,341.125,21.37,77.815,3.1,24.335,-0.375,-0.57,264.245,54.86,95917.165,44.245,86.035
新疆,胡杨河市,65.718,75.304,5.878,9.466,0.632,50.306,-3.452,-1.312,262.814,65.822,99437.662,44.852,84.772
新疆,铁门关市,25.557,88.003,3.967,6.887,1.077,45.637,2.337,0.713,267.727,35.513,93045.823,41.773,85.66
新疆,阿克苏地区,14.904,30.343,3.213,3.708,0.391,54.121,1.497,0.338,266.043,49.594,86271.446,40.965,81.578
新疆,阿勒泰地区,6.349,6.357,3.508,5.321,0.294,71.338,-3.247,1.838,263.514,41.16,89427.533,46.902,88.421
新疆,阿拉尔市,19.051,40.652,2.852,4.118,0.515,45.343,0.862,1.305,268.221,59.037,91401.85,40.629,80.998
江苏,南京市,29.072,64.926,13.933,33.243,0.696,53.99,6.061,-3.819,273.299,46.316,102809.52,31.899,118.876
江苏,南通市,31.654,62.171,15.509,28.151,0.652,50.077,8.455,-4.495,273.291,36.955,102772.281,32.201,120.979
江苏,宿迁市,33.819,84.076,18.038,34.396,0.81,41.073,5.986,-5.052,271.734,33.701,102838.01,33.765,118.495
江苏,常州市,30.949,64.321,14.606,35.56,0.798,52.69,7.296,-4.042,273.806,46.454,102821.746,31.613,119.666
江苏,徐州市,36.355,93.774,21.682,39.464,0.809,38.857,4.564,-4.99,271.247,29.994,102595.587,34.363,117.513
江苏,扬州市,29.47,68.819,13.05,27.216,0.648,50.832,7.424,-4.99,273.206,38.099,102863.763,32.709,119.486
江苏,无锡市,31.252,66.233,15.785,38.136,0.83,51.717,7.667,-4.174,274.051,46.816,102692.114,31.546,120.066
江苏,泰州市,33.192,72.971,14.127,29.449,0.742,49.129,7.581,-4.923,272.977,37.129,102787.439,32.605,120.048
江苏,淮安市,30.658,78.286,15.494,29.903,0.724,44.628,6.554,-5.033,272.37,34.662,102816.137,33.362,118.985
江苏,盐城市,28.536,71.65,15.058,25.897,0.684,45.818,8.46,-4.882,271.976,32.113,102760.814,33.529,120.156
江苏,苏州市,30.016,62.768,15.648,37.441,0.725,53.474,8.514,-5.074,274.83,46.206,102811.376,31.374,120.661
江苏,连云港市,26.032,71.412,18.384,30.672,0.698,40.137,6.634,-5.611,270.86,27.25,102617.099,34.519,119.133
江苏,镇江市,32.256,69.471,14.051,35.821,0.739,48.757,7.207,-4.046,273.359,44.14,102787.796,32.016,119.49
江西,上饶市,33.672,58.42,23.255,25.445,0.65,42.615,3.325,-3.21,276.325,49.314,100659.886,28.778,117.47
江西,九江市,34.199,57.158,11.495,28.483,0.664,45.866,3.186,-5.22,276.382,47.996,100686.926,29.313,115.444
江西,南昌市,35.433,66.857,18.202,39.187,0.791,40.422,2.798,-5.302,278.109,46.798,102674.277,28.671,116.016
江西,吉安市,41.152,62.027,15.03,22.964,0.808,44.073,0.107,-4.598,278.083,47.031,100288.15,26.954,114.831
江西,宜春市,37.097,60.903,14.808,28.255,0.75,43.957,1.409,-4.264,277.481,46.349,100656.96,28.29,114.974
江西,抚州市,36.268,54.118,16.324,23.075,0.626,46.656,1.171,-4.116,276.906,52.269,100259.213,27.514,116.42
江西,新余市,41.311,67.182,17.335,31.978,0.853,38.956,1.411,-3.739,278.547,46.445,101647.978,27.847,114.836
江西,景德镇市,36.224,63.373,15.335,26.362,0.635,39.98,2.144,-3.752,276.277,45.513,101546.434,29.287,117.24
江西,萍乡市,51.787,80.947,15.956,28.306,0.973,38.841,0.341,-4.049,277.523,48.292,99282.9,27.505,113.908
江西,赣州市,33.237,49.62,15.201,17.568,0.997,52.604,-1.179,-6.951,277.428,48.748,98454.009,25.692,115.279
江西,鹰潭市,34.565,57.223,19.127,30.062,0.647,41.202,2.384,-2.827,277.016,51.463,101251.517,28.222,117.094
河北,保定市,15.604,26.934,7.584,14.363,0.396,53.976,2.059,-5.198,266.299,27.775,98780.296,39.018,115.159
河北,唐山市,16.747,26.507,9.609,11.842,0.476,51.854,3.391,-6.651,264.62,30.476,102066.373,39.731,118.354
河北,廊坊市,11.16,24.903,4.547,12.988,0.38,55.853,2.736,-7.618,266.871,22.594,102852.121,39.267,116.632
河北,张家口市,5.173,5.768,2.655,2.885,0.278,61.632,6.574,-9.209,255.165,54.699,87784.862,40.877,115.042
河北,承德市,4.123,5.578,2.417,2.112,0.253,60.591,4.649,-8.994,255.469,44.358,91130.602,41.339,117.578
河北,沧州市,19.204,38.467,9.152,21.114,0.547,47.407,3.084,-6.733,267.704,22.131,102877.452,38.258,116.744
河北,石家庄市,23.699,46.834,13.243,26.97,0.56,46.051,2.044,-3.872,269.006,26.163,99407.497,38.135,114.407
河北,秦皇岛市,13.067,19.729,6.477,6.914,0.467,50.45,1.661,-7.052,261.784,35.309,99487.974,40.12,119.193
河北,衡水市,29.53,55.585,10.688,28.413,0.763,42.216,0.408,-4.736,268.913,20.944,102786.334,37.755,115.813
河北,邢台市,31.736,63.589,15.242,30.301,0.844,43.457,0.717,-4.3,270.49,23.216,101173.544,37.195,114.815
河北,邯郸市,30.664,68.088,22.61,34.675,1.093,40.937,1.458,-3.54,271.22,25.737,100671.013,36.538,114.596
河南,三门峡市,21.53,46.378,17.373,23.687,0.636,54.063,6.659,-4.428,268.101,47.936,92854.315,34.362,111.101
河南,信阳市,34.546,62.34,13.252,27.353,0.782,54.36,4.024,-3.686,273.336,47.65,101854.458,32.091,114.907
河南,南阳市,34.546,57.146,10.348,32.033,0.926,51.086,4.308,-3.657,274.218,36.711,99664.812,33.034,112.323
河南,周口市,25.815,74.83,16.524,32.584,0.69,52.159,4.384,-2.94,272.82,41.449,102534.436,33.738,114.884
河南,商丘市,25.154,74.854,15.069,37.566,0.751,44.639,3.085,-2.58,272.073,36.011,102563.049,34.277,115.718
河南,安阳市,23.178,53.051,20.237,33.647,0.892,46.368,2.592,-3.573,271.945,28.958,100249.494,35.888,114.318
河南,平顶山市,24.673,55.63,16.407,28.169,0.663,56.204,7.713,-6.475,273.2,39.133,100274.635,33.8,113.025
河南,开封市,17.595,58.041,14.423,29.839,0.692,53.244,4.515,-2.363,273.006,35.516,102207.005,34.594,114.514
河南,新乡市,18.605,48.154,14.872,27.879,0.7,56.619,4.042,-1.835,272.782,32.221,101165.679,35.256,114.111
河南,洛阳市,19.701,46.605,18.281,21.996,0.626,55.598,7.637,-4.348,269.734,45.12,95344.891,34.274,112.019
河南,济源市,16.905,40.947,22.451,17.336,0.635,60.77,6.37,-3.85,270.976,37.599,97211.895,35.105,112.445
河南,漯河市,26.468,71.353,18.365,34.636,0.696,56.013,5.451,-4.418,273.918,38.849,102413.588,33.652,113.945
河南,濮阳市,30.178,74.173,19.352,39.081,1.132,37.659,0.522,-2.83,271.531,24.529,102464.821,35.809,115.283
河南,焦作市,17.756,47.414,16.416,22.218,0.647,68.11,7.004,-1.941,273.047,34.194,101039.492,35.121,113.163
河南,许昌市,23.349,64.155,19.277,33.689,0.699,54.379,6.763,-4.925,273.699,37.061,101651.944,34.075,113.707
河南,郑州市,20.208,57.554,18.032,31.399,0.693,57.928,8.75,-4.412,272.65,38.431,100222.687,34.634,113.438
河南,驻马店市,32.824,70.246,14.555,30.88,0.766,57.261,4.684,-4.253,273.489,44.005,102134.396,32.925,114.174
河南,鹤壁市,22.978,52.501,19.071,36.371,0.854,46.191,1.108,-2.27,272.889,28.767,101521.164,35.716,114.319
浙江,丽水市,24.436,41.078,17.8,19.519,0.533,52.497,6.0,-4.318,273.734,49.146,95477.956,28.194,119.51
浙江,台州市,26.934,48.338,12.636,26.32,0.61,49.003,6.095,-5.417,275.767,48.61,99902.411,28.742,121.109
浙江,嘉兴市,27.953,54.635,13.8,34.393,0.667,51.669,7.471,-4.026,275.225,49.551,102850.407,30.635,120.754
浙江,宁波市,28.821,52.016,14.427,32.987,0.606,46.451,7.936,-5.128,275.731,49.939,101489.872,29.706,121.49
浙江,杭州市,23.64,45.462,12.555,23.391,0.535,53.715,5.48,-3.7,274.16,50.417,99842.3,29.891,119.464
浙江,温州市,23.546,38.923,11.974,24.292,0.556,54.157,5.513,-5.91,276.551,41.825,98643.161,27.897,120.411
浙江,湖州市,25.004,51.976,13.452,28.946,0.658,57.207,7.3,-3.886,273.773,53.039,101548.839,30.757,119.871
浙江,绍兴市,26.866,51.348,13.076,34.189,0.644,45.3,6.089,-3.896,274.702,50.384,100680.559,29.709,120.64
浙江,舟山市,27.092,47.862,14.958,22.51,0.558,53.635,10.06,-6.222,277.452,52.225,102487.612,30.038,122.23
浙江,衢州市,31.186,54.752,25.64,27.912,0.631,43.286,4.645,-1.767,274.987,48.755,99099.864,28.912,118.675
浙江,金华市,29.721,52.374,15.882,33.38,0.636,43.711,5.802,-3.445,274.768,51.229,99282.687,29.109,119.967
海南,万宁市,18.53,24.111,7.781,7.306,0.418,59.62,-0.874,-9.379,287.76,78.373,100887.887,18.842,110.294
海南,三亚市,12.919,19.341,6.754,8.074,0.753,51.576,-4.19,-6.891,287.817,73.101,99511.587,18.413,109.407
海南,东方市,16.724,20.698,7.215,5.703,0.371,59.928,-5.752,-6.483,286.569,72.588,100282.524,18.971,108.838
海南,临高县,22.284,26.05,7.57,8.514,0.499,58.369,-5.227,-6.339,287.881,61.703,101632.173,19.821,109.733
海南,乐东黎族自治县,16.172,20.915,6.996,6.126,0.54,55.562,-5.382,-7.05,286.294,77.295,98626.29,18.659,109.072
海南,五指山市,19.434,24.3,7.172,7.05,0.55,53.186,-5.102,-7.868,283.268,90.0,95343.806,18.81,109.518
海南,儋州市,20.918,25.216,7.209,7.489,0.424,58.984,-5.461,-5.031,287.261,66.431,101269.417,19.568,109.399
海南,定安县,23.705,29.188,8.257,10.222,0.65,52.493,-3.395,-6.608,288.063,69.875,101262.713,19.47,110.28
海南,屯昌县,22.806,28.43,8.438,10.222,0.612,52.782,-2.588,-5.714,287.082,74.68,100461.202,19.342,110.076
海南,文昌市,21.467,26.19,8.215,8.05,0.532,58.975,-4.956,-8.42,289.298,67.365,102035.67,19.707,110.773
海南,昌江黎族自治县,18.441,22.408,7.126,6.007,0.37,61.149,-7.391,-5.81,285.609,75.487,99272.24,19.233,109.016
海南,海口市,23.586,28.376,8.389,10.18,0.602,54.844,-5.142,-7.227,288.818,63.757,101875.115,19.842,110.393
海南,澄迈县,23.956,28.836,8.744,11.216,0.63,52.55,-3.853,-6.043,287.881,65.886,101431.107,19.676,109.989
海南,琼中黎族苗族自治县,21.414,26.976,7.731,8.614,0.493,52.759,-1.911,-5.802,284.915,85.095,98175.539,19.087,109.847
海南,琼海市,20.683,26.118,8.183,8.147,0.518,58.617,-1.803,-6.865,288.587,72.22,101797.445,19.22,110.43
海南,白沙黎族自治县,20.638,25.366,7.495,7.348,0.422,56.359,-4.495,-4.421,284.284,84.152,97894.705,19.2,109.388
海南,陵水黎族自治县,15.386,20.576,7.26,7.179,0.587,56.626,-2.707,-10.337,287.164,76.566,100132.094,18.581,109.913
湖北,仙桃市,48.389,79.635,11.696,33.181,0.932,46.58,1.162,-4.787,276.949,40.074,103011.29,30.284,113.417
湖北,十堰市,21.248,34.099,7.366,15.738,0.605,55.434,5.304,-1.335,272.288,38.741,94629.183,32.462,110.476
湖北,咸宁市,41.394,62.657,8.279,29.175,0.759,46.837,1.484,-4.313,276.241,50.935,100981.115,29.621,114.178
湖北,天门市,46.428,75.824,11.969,33.236,1.01,46.394,1.728,-5.28,277.016,37.054,102963.376,30.633,113.053
湖北,孝感市,42.78,68.588,9.845,31.397,1.014,45.624,1.624,-4.371,275.438,42.507,102293.387,31.116,113.869
湖北,宜昌市,29.442,41.202,6.035,16.6,0.653,55.548,2.188,-1.975,275.036,33.943,95456.538,30.746,111.129
湖北,恩施土家族苗族自治州,51.386,65.367,10.485,12.46,0.97,47.184,1.675,-2.75,273.522,40.054,90695.696,30.195,109.552
湖北,武汉市,45.995,70.096,9.366,44.822,0.947,38.382,1.335,-4.782,276.197,43.856,102865.022,30.606,114.349
湖北,潜江市,50.244,84.536,11.831,39.652,1.112,43.234,0.331,-6.098,277.257,35.734,102986.458,30.33,112.77
湖北,神农架林区,5.652,7.778,1.723,2.551,0.188,69.026,6.368,-6.843,266.688,37.84,83611.125,31.592,110.49
湖北,荆州市,43.345,71.886,11.31,32.514,0.973,43.088,-0.504,-4.448,277.727,38.607,102730.976,30.01,112.512
湖北,荆门市,40.965,61.731,12.188,34.211,0.914,46.04,1.634,-5.393,276.324,36.944,101875.617,31.059,112.616
湖北,襄阳市,32.802,49.774,10.638,28.001,0.766,49.629,5.436,-4.323,274.437,39.294,98946.821,31.919,111.96
湖北,鄂州市,47.971,70.907,11.494,47.67,0.926,36.11,1.887,-5.491,276.427,44.077,102903.484,30.337,114.794
湖北,随州市,40.022,65.183,11.621,33.874,1.011,44.059,3.256,-3.889,274.689,40.682,101069.521,31.809,113.43
湖北,黄冈市,38.607,60.537,11.391,26.193,0.747,47.004,2.896,-5.519,274.408,42.896,100992.628,30.702,115.358
湖北,黄石市,41.611,64.483,13.293,42.201,0.855,40.731,2.824,-5.227,276.367,47.786,101837.459,29.925,115.034
湖南,娄底市,39.149,75.876,17.937,25.158,1.261,44.513,-0.963,-3.03,277.813,53.533,98713.666,27.715,111.632
湖南,岳阳市,46.514,71.363,10.294,23.835,0.84,44.13,-0.02,-5.152,277.649,47.195,101749.963,29.081,113.275
湖南,常德市,39.07,63.442,12.319,23.819,1.094,43.951,-0.497,-1.956,277.202,49.334,100949.214,29.271,111.524
湖南,张家界市,34.208,55.538,8.518,17.012,0.907,44.934,-0.702,-1.018,275.877,47.124,96771.383,29.379,110.526
湖南,怀化市,46.29,76.345,11.575,19.924,0.961,42.948,-1.445,-2.326,277.803,54.864,97744.318,27.535,110.071
湖南,株洲市,51.707,82.181,15.659,32.398,0.959,38.141,-0.672,-4.178,277.733,48.689,99429.908,27.109,113.513
湖南,永州市,43.297,67.509,16.784,23.718,0.795,47.249,-3.995,-4.814,277.851,44.045,97914.922,25.748,111.723
湖南,湘潭市,50.295,90.465,19.673,49.35,1.328,29.264,0.106,-4.403,278.542,53.724,101874.071,27.744,112.619
湖南,湘西土家族苗族自治州,43.296,73.845,10.178,20.008,0.807,30.286,-0.828,-2.594,276.674,49.856,96696.663,28.708,109.718
湖南,益阳市,36.497,63.553,12.88,20.354,1.131,48.235,-0.269,-3.368,277.498,54.75,100408.916,28.525,111.919
湖南,衡阳市,55.098,89.811,20.936,42.274,1.115,29.893,-0.747,-3.637,278.626,50.926,101338.772,26.781,112.565
湖南,邵阳市,57.982,88.285,22.022,25.75,0.893,45.932,-2.049,-2.095,277.358,47.264,96345.118,26.893,110.881
湖南,郴州市,37.525,58.268,13.211,25.096,0.989,44.356,-1.955,-6.258,277.262,42.93,97007.809,25.769,113.109
湖南,长沙市,52.841,80.636,14.145,33.961,1.083,37.509,0.678,-4.907,277.905,51.961,101228.126,28.235,113.159
甘肃,临夏回族自治州,40.236,75.271,8.612,25.347,1.66,55.873,2.395,-0.853,266.402,33.736,77939.548,35.617,103.291
甘肃,兰州市,46.795,85.338,22.797,50.126,1.532,47.536,1.431,-0.883,266.158,32.203,79639.129,36.359,103.633
甘肃,嘉峪关市,21.342,51.727,9.882,21.997,0.585,52.583,6.06,-3.172,266.668,23.457,82353.682,39.798,98.145
甘肃,天水市,60.555,96.648,18.833,32.902,1.195,51.191,2.739,-2.382,265.959,45.854,83440.877,34.645,105.739
甘肃,定西市,44.921,69.972,10.297,19.603,1.266,58.731,3.053,-2.549,264.81,40.554,77700.414,35.124,104.432
甘肃,平凉市,37.322,63.436,13.815,30.24,0.856,58.552,4.275,-5.535,267.452,39.047,85301.308,35.304,106.644
甘肃,庆阳市,16.261,32.615,7.133,10.784,0.43,63.489,6.045,-5.789,266.003,47.399,86558.276,36.149,107.596
甘肃,张掖市,10.587,16.753,4.252,6.096,0.307,62.557,5.378,-0.855,261.783,31.69,74992.657,38.94,99.855
甘肃,武威市,14.784,25.007,18.064,9.276,0.623,58.713,5.046,-3.32,264.531,38.028,82054.716,38.163,103.073
甘肃,甘南藏族自治州,2.444,3.925,0.546,2.337,0.229,74.227,6.678,-4.968,261.135,35.63,67643.907,34.331,102.768
甘肃,白银市,30.43,60.312,11.923,22.259,0.79,57.784,3.949,-4.317,265.684,38.259,82144.393,36.59,104.646
甘肃,酒泉市,4.222,6.433,1.625,1.713,0.177,64.822,4.462,-0.048,263.234,29.936,79705.065,40.236,96.062
甘肃,金昌市,14.1,27.805,28.138,10.783,0.634,59.586,8.697,-4.23,266.308,29.664,81198.332,38.44,102.048
甘肃,陇南市,31.875,54.627,9.171,20.283,0.651,50.416,0.748,-1.401,268.252,44.443,82958.443,33.599,105.224
福建,三明市,23.617,35.584,12.155,17.272,0.702,48.835,1.405,-5.08,275.628,53.123,96239.863,26.29,117.395
福建,南平市,22.982,34.805,15.467,14.694,0.541,52.091,2.776,-4.182,275.275,52.268,97041.57,27.324,118.143
福建,厦门市,19.927,34.052,12.315,25.72,0.505,52.473,-0.728,-9.343,283.13,30.982,101437.487,24.642,118.11
福建,宁德市,17.333,25.148,9.426,9.632,0.412,63.135,4.377,-5.677,276.698,40.613,96167.451,26.968,119.474
福建,泉州市,18.601,29.939,10.37,16.736,0.497,59.06,1.749,-7.991,279.171,39.628,97542.571,25.201,118.249
福建,漳州市,17.64,28.867,10.562,17.013,0.493,62.301,-0.532,-7.721,281.685,32.306,99174.725,24.372,117.444
福建,福州市,17.541,26.611,9.086,13.717,0.439,63.201,3.654,-5.94,279.069,40.445,98374.168,26.083,119.206
福建,莆田市,16.996,26.58,9.022,11.966,0.432,65.193,2.128,-8.656,280.225,37.288,99131.673,25.445,118.864
福建,龙岩市,20.29,31.134,11.62,12.071,0.566,59.971,-0.459,-7.439,277.317,42.788,96155.086,25.256,116.739
西藏,山南市,10.94,12.419,0.477,2.221,0.164,78.338,7.054,-3.607,276.186,32.768,66258.158,28.295,92.274
西藏,拉萨市,4.576,8.003,0.023,3.714,0.198,76.177,10.116,-4.724,271.238,32.665,56647.99,30.043,91.093
西藏,日喀则市,1.542,1.955,0.108,0.408,0.106,75.532,11.13,-3.937,270.44,17.936,55559.719,29.483,86.493
西藏,昌都市,0.737,1.01,0.033,0.681,0.128,74.413,8.67,-3.335,267.071,33.822,58899.228,30.753,97.044
西藏,林芝市,5.124,6.182,0.327,1.575,0.116,73.146,4.013,-1.245,273.581,41.958,66390.959,29.184,95.25
西藏,玉树藏族自治州,0.452,0.629,0.063,0.566,0.121,71.386,8.175,-3.722,258.842,43.012,57095.951,34.196,94.317
西藏,那曲市,0.194,0.276,0.013,0.157,0.109,77.257,13.464,-4.116,264.794,28.542,55419.326,32.709,89.262
西藏,阿里地区,0.489,0.589,0.035,0.804,0.105,72.683,13.165,-0.563,263.859,21.779,54893.174,33.013,82.553
贵州,六盘水市,36.677,61.121,16.371,14.998,0.841,66.112,-2.98,-0.988,271.89,70.266,83895.871,26.106,104.896
贵州,安顺市,32.86,54.683,15.581,15.673,0.586,60.878,-2.903,-3.12,275.781,51.473,89228.366,25.986,105.978
贵州,毕节市,38.546,62.085,15.822,18.034,0.745,64.768,-2.185,-1.11,271.774,60.748,84289.733,27.063,105.211
贵州,贵阳市,42.619,64.826,19.556,24.704,0.721,55.411,-1.385,-3.467,274.609,51.344,89309.938,26.845,106.71
贵州,遵义市,35.469,55.105,14.409,19.408,0.636,52.026,-1.054,-2.564,275.975,41.352,91628.81,28.167,107.102
贵州,铜仁市,33.49,74.172,14.331,16.82,0.993,40.1,-1.256,-2.938,276.978,43.387,94077.277,27.937,108.534
贵州,黔东南苗族侗族自治州,38.305,63.142,17.03,12.61,0.844,51.453,-1.835,-3.829,277.268,50.008,93919.988,26.495,108.574
贵州,黔南布依族苗族自治州,33.592,50.098,15.474,8.956,0.575,61.057,-2.428,-3.743,276.7,47.696,91526.224,26.0,107.265
贵州,黔西南布依族苗族自治州,27.422,51.164,13.177,8.08,0.779,60.968,-2.656,-2.745,276.039,61.244,89620.656,25.256,105.467
辽宁,丹东市,17.711,32.523,12.698,12.505,0.51,45.491,3.345,-6.745,258.041,62.392,98796.116,40.554,124.376
辽宁,大连市,10.671,26.738,7.755,8.79,0.405,49.256,3.376,-9.031,261.883,59.928,101441.61,39.591,122.22
辽宁,抚顺市,28.434,40.881,10.091,16.787,0.567,42.083,2.804,-4.719,254.591,76.686,96974.5,41.841,124.65
辽宁,朝阳市,7.089,21.115,7.673,4.583,0.388,51.505,3.815,-10.552,257.027,38.375,96912.869,41.545,120.053
辽宁,本溪市,22.558,37.796,13.17,15.511,0.544,43.798,3.185,-5.952,254.911,76.292,96222.407,41.232,124.544
辽宁,沈阳市,16.494,32.033,8.873,11.659,0.439,43.963,2.42,-7.034,257.545,54.802,101736.239,42.081,123.159
辽宁,盘锦市,13.434,34.645,11.333,12.814,0.506,44.896,2.922,-7.981,259.515,37.729,102531.217,41.13,122.01
辽宁,营口市,14.837,36.822,9.818,13.682,0.56,45.901,2.962,-8.64,258.404,51.622,99968.263,40.395,122.478
辽宁,葫芦岛市,9.961,25.055,10.215,6.781,0.499,49.456,2.802,-9.269,259.875,31.932,99907.565,40.66,120.215
辽宁,辽阳市,18.529,43.988,15.121,17.937,0.731,43.001,2.912,-6.412,257.481,64.327,100172.612,41.153,123.261
辽宁,铁岭市,29.866,38.336,8.11,15.746,0.549,44.592,2.845,-5.844,255.39,69.064,99932.737,42.653,124.158
辽宁,锦州市,10.085,27.213,10.663,8.216,0.41,46.162,3.094,-8.646,258.771,37.33,101669.511,41.502,121.659
辽宁,阜新市,7.594,15.41,5.052,4.723,0.305,45.933,3.622,-8.565,256.854,42.305,100015.12,42.289,121.968
辽宁,鞍山市,15.643,37.099,11.864,13.98,0.685,44.994,3.637,-7.58,258.205,55.678,100225.453,40.731,123.007
重庆,重庆城区,57.022,88.038,16.794,38.5,0.932,43.085,-0.076,-0.811,277.741,39.216,96436.405,29.824,107.125
重庆,重庆郊县,46.055,65.066,15.219,16.152,0.805,50.261,0.621,-1.719,274.412,40.711,92358.527,30.334,108.755
陕西,咸阳市,57.375,102.475,13.015,40.884,1.128,50.724,3.784,-3.295,268.648,47.146,92656.962,34.779,108.367
陕西,商洛市,15.911,27.96,5.816,15.57,0.423,58.623,5.477,-5.413,268.932,40.679,90319.228,33.64,109.889
陕西,安康市,24.755,34.675,7.786,13.868,0.525,56.157,3.076,-1.793,270.561,39.633,91015.751,32.735,108.932
陕西,宝鸡市,49.796,75.167,11.672,34.771,0.942,52.847,3.783,-3.226,268.697,35.807,87277.714,34.386,107.193
陕西,延安市,18.496,36.102,20.791,28.006,0.86,50.185,4.902,-4.708,265.346,56.207,88326.484,36.432,109.316
陕西,榆林市,19.701,44.125,22.038,36.251,1.026,44.219,6.196,-4.746,263.907,58.593,88634.572,38.041,109.581
陕西,汉中市,34.968,49.425,7.953,20.921,0.778,51.592,2.929,-2.913,271.953,34.967,90054.878,33.088,107.098
陕西,渭南市,36.276,75.646,18.035,37.571,0.938,47.179,4.829,-0.977,268.94,47.763,95103.257,34.919,109.855
陕西,西安市,49.949,82.628,12.941,41.337,0.929,44.012,4.182,-1.507,268.995,38.813,91702.209,34.12,108.77
陕西,铜川市,24.184,45.636,9.386,21.001,0.657,58.288,5.032,-5.171,266.907,51.266,90110.854,35.198,109.058
青海,保亭黎族苗族自治县,15.098,20.75,6.924,7.888,0.706,52.302,-3.262,-8.468,286.122,79.406,97887.116,18.566,109.618
青海,吐鲁番市,23.347,34.662,6.225,6.664,0.718,60.813,0.524,0.417,265.567,33.954,91577.509,42.386,89.851
青海,果洛藏族自治州,0.535,0.474,0.057,0.549,0.12,71.518,7.234,-3.518,255.656,46.252,59756.848,34.127,99.404
青海,海东市,13.822,17.379,4.067,9.768,0.581,64.464,5.839,-2.566,263.431,33.249,72976.719,36.347,102.34
青海,海北藏族自治州,0.915,1.089,0.408,0.593,0.145,73.007,6.521,-3.684,256.42,36.64,65171.774,37.775,100.288
青海,海南藏族自治州,0.587,0.668,0.189,0.411,0.115,71.896,8.35,-3.07,258.917,37.93,66501.336,35.89,100.272
青海,海西蒙古族藏族自治州,0.554,0.622,0.246,0.312,0.117,67.936,5.047,-1.371,259.113,35.828,64566.552,36.677,94.519
青海,西宁市,8.066,10.158,4.174,7.367,0.495,67.181,7.196,-3.629,260.81,33.298,69608.128,36.842,101.423
青海,黄南藏族自治州,0.707,0.817,0.173,0.512,0.121,74.068,7.635,-4.367,258.837,38.833,65775.839,35.022,101.631
香港,香港特别行政区,22.91,32.34,10.165,21.19,0.58,65.17,-5.765,-11.015,284.58,37.05,102019.69,22.45,114.22
黑龙江,七台河市,14.978,19.379,4.328,7.785,0.35,50.294,7.027,-3.715,249.239,71.89,97886.991,45.87,130.943
黑龙江,伊春市,1.107,1.385,1.394,1.941,0.235,62.592,4.49,-6.302,246.964,66.414,96505.508,47.772,129.184
黑龙江,佳木斯市,5.925,8.023,2.629,4.37,0.287,57.194,3.141,-4.933,250.828,72.777,100004.678,47.207,132.11
黑龙江,双鸭山市,6.502,8.346,3.258,5.254,0.289,55.898,4.521,-4.722,250.458,75.884,99438.058,46.722,132.643
黑龙江,哈尔滨市,14.651,21.923,7.209,10.205,0.55,51.143,4.955,-2.738,248.654,71.234,98658.314,45.634,127.964
黑龙江,大兴安岭地区,0.393,0.62,0.764,1.023,0.244,65.008,4.59,-7.53,245.309,56.995,95405.955,52.286,124.212
黑龙江,大庆市,11.399,14.59,7.158,7.364,0.401,57.514,3.292,-8.062,250.409,60.736,100556.692,46.327,124.687
黑龙江,牡丹江市,13.309,18.443,3.592,5.93,0.395,51.832,6.747,-3.01,249.361,64.202,94856.971,44.592,129.883
黑龙江,绥化市,8.288,12.239,3.206,5.319,0.408,57.692,3.619,-6.896,248.479,64.874,99408.749,46.89,126.634
黑龙江,鸡西市,9.593,11.335,3.683,7.098,0.297,51.191,6.152,-4.712,250.699,72.739,99123.978,45.626,132.289
黑龙江,鹤岗市,2.01,2.669,1.482,2.382,0.251,60.917,4.691,-6.653,249.172,64.452,99022.022,47.661,130.778
黑龙江,黑河市,1.85,2.766,0.759,1.382,0.264,65.955,3.056,-8.066,246.409,62.976,97321.738,49.268,127.004
黑龙江,齐齐哈尔市,9.351,10.615,6.524,4.047,0.352,59.721,2.547,-8.421,249.283,55.959,99695.435,47.715,124.57
