province,city,PM2.5,PM10,SO2,NO2,CO,O3,U,V,TEMP,RH,PSFC,lat,lon
上海,上海市,23.501,28.991,6.998,44.866,0.845,26.943,0.692,-0.197,282.15,87.83,101844.783,31.173,121.42
云南,临沧市,14.879,20.317,3.186,8.806,0.729,57.517,5.853,2.44,284.465,60.378,83708.241,23.935,99.686
云南,丽江市,9.218,17.175,2.769,5.5,0.513,73.69,9.516,2.898,276.464,42.337,74082.757,26.96,100.515
云南,保山市,15.064,30.016,4.638,10.082,0.583,49.126,5.338,2.104,281.596,56.835,81626.741,24.953,98.962
云南,大理白族自治州,11.04,23.094,3.586,6.173,0.581,65.206,8.329,3.556,279.197,49.196,77726.977,25.726,100.053
云南,德宏傣族景颇族自治州,20.376,28.864,5.778,12.141,0.489,40.929,2.071,1.023,283.89,62.435,85910.582,24.535,98.052
云南,怒江傈僳族自治州,7.478,12.761,1.184,2.03,0.321,72.551,6.2,3.188,272.96,63.31,72279.391,26.916,98.885
云南,文山壮族苗族自治州,27.232,38.781,8.466,7.238,0.674,42.419,3.972,4.25,287.347,87.123,86275.399,23.696,104.735
云南,昆明市,13.344,26.141,8.364,13.703,0.565,59.654,10.861,5.45,281.883,53.136,78866.664,25.384,102.863
云南,昭通市,30.72,40.772,12.152,12.185,0.896,46.483,2.289,0.063,274.882,71.146,83792.945,27.667,103.985
云南,普洱市,12.464,16.882,3.081,5.927,0.487,53.837,4.469,1.569,287.115,70.933,85792.939,23.159,100.718
云南,曲靖市,10.919,19.162,7.518,9.709,0.406,63.969,11.591,5.577,283.149,47.834,79594.041,25.737,103.929
云南,楚雄彝族自治州,12.329,20.82,4.594,7.844,0.547,64.984,8.024,4.784,282.533,50.568,80643.308,25.328,101.567
云南,玉溪市,11.169,20.72,4.412,7.177,0.475,65.232,6.875,3.645,285.605,62.66,83229.237,24.136,102.217
云南,红河哈尼族彝族自治州,14.343,21.614,5.603,4.854,0.373,58.322,4.885,2.922,287.133,82.808,84932.546,23.451,103.034
云南,西双版纳傣族自治州,16.791,26.022,4.029,9.318,0.64,29.003,2.924,1.429,290.296,88.928,88794.83,21.939,100.912
云南,迪庆藏族自治州,5.299,7.982,1.245,1.045,0.207,84.646,10.293,4.174,267.943,68.912,66532.403,27.957,99.459
内蒙古,乌兰察布市,24.049,33.135,12.74,10.427,0.536,47.263,5.521,-0.567,259.406,73.226,85758.078,41.691,112.44
内蒙古,乌海市,23.476,51.71,14.214,11.534,0.449,68.651,7.754,-5.112,260.668,64.576,88077.538,39.396,106.856
内蒙古,兴安盟,4.403,5.979,3.806,2.874,0.295,52.476,6.773,-1.233,262.279,60.054,94555.434,46.244,121.341
内蒙古,包头市,17.988,26.1,8.258,4.497,0.438,65.945,6.152,-1.131,258.4,68.077,85837.267,41.549,110.276
内蒙古,呼伦贝尔市,3.69,4.08,4.509,3.614,0.261,48.006,5.915,0.271,256.647,78.014,93032.861,49.636,121.171
内蒙古,呼和浩特市,36.613,56.953,21.634,21.34,0.866,53.749,4.124,-0.888,261.243,70.194,86193.802,40.578,111.513
内蒙古,巴彦淖尔市,13.984,18.169,5.313,1.852,0.287,51.991,7.883,-1.08,258.22,66.599,87507.694,41.446,107.582
内蒙古,赤峰市,15.06,22.177,8.805,6.497,0.417,49.994,5.252,-1.21,263.957,57.077,91760.321,43.226,118.892
内蒙古,通辽市,21.42,30.456,12.575,12.341,0.54,38.892,3.595,0.381,264.946,57.96,98006.114,43.814,121.591
内蒙古,鄂尔多斯市,22.788,35.552,12.689,9.269,0.5,54.485,6.178,-3.341,260.76,68.57,87209.572,39.407,108.63
内蒙古,锡林郭勒盟,8.484,11.446,5.293,2.506,0.272,53.012,5.339,0.931,258.802,74.203,88850.811,44.179,115.482
内蒙古,阿拉善盟,14.074,20.494,4.845,1.243,0.257,50.677,7.189,-3.111,259.476,64.104,88130.018,40.473,102.467
北京,北京市,35.625,56.75,11.187,35.482,0.813,30.725,1.934,-1.177,269.815,44.75,98175.121,40.158,116.395
台湾,台湾省,11.912,15.916,4.405,15.306,0.248,54.362,-2.428,0.006,290.475,86.741,93073.601,23.757,120.975
吉林,吉林市,43.984,56.719,21.28,28.396,0.974,46.646,1.92,5.83,262.554,68.417,97389.205,43.573,126.859
吉林,四平市,64.694,86.504,33.087,40.731,1.043,26.393,2.588,5.187,264.15,64.347,99701.747,43.472,124.386
吉林,延边朝鲜族自治州,31.576,38.31,14.171,23.78,0.805,40.286,5.718,1.865,263.568,58.875,94250.613,43.141,129.147
吉林,松原市,36.535,52.204,13.826,20.559,0.798,30.686,3.689,4.253,263.119,63.263,99969.232,44.785,124.496
吉林,白城市,16.676,22.934,7.273,9.292,0.474,37.59,4.992,1.314,264.483,54.122,100007.68,45.35,123.031
吉林,白山市,31.613,40.884,21.137,26.543,1.128,42.099,0.486,4.186,262.852,56.639,92355.968,42.063,127.256
吉林,辽源市,73.608,89.004,27.765,48.004,1.345,27.118,3.224,5.532,264.548,60.682,97781.459,42.836,125.32
吉林,通化市,72.258,93.98,33.709,46.382,1.607,24.837,0.209,3.636,263.988,56.994,95975.37,41.939,125.927
吉林,长春市,53.787,76.071,26.954,35.916,0.988,37.372,3.418,5.449,263.016,66.978,99570.827,44.268,125.611
四川,乐山市,36.291,46.496,9.733,21.035,0.829,43.189,-0.273,-3.497,272.946,70.426,89607.289,29.218,103.569
四川,内江市,22.501,33.065,9.707,18.213,0.736,38.233,-0.785,-5.197,276.724,63.255,97008.812,29.62,104.95
四川,凉山彝族自治州,9.665,15.061,5.214,6.269,0.461,75.203,10.068,5.05,275.691,39.501,73488.927,27.883,102.065
四川,南充市,26.178,38.488,11.377,19.317,0.828,56.472,-4.074,-5.447,274.422,71.059,97056.707,31.19,106.199
四川,宜宾市,29.109,37.009,12.698,23.933,1.051,28.471,1.111,-3.163,276.749,68.973,95282.597,28.573,104.621
四川,巴中市,35.178,46.435,12.826,17.427,0.812,55.897,-6.36,-6.115,271.263,67.313,92580.311,32.033,107.031
四川,广元市,27.038,39.072,12.221,10.315,0.714,58.414,-3.273,-7.631,272.352,55.002,91719.404,32.261,105.788
四川,广安市,19.914,32.4,8.052,20.148,0.767,38.744,-0.639,-4.139,275.864,80.166,96984.269,30.43,106.628
四川,德阳市,31.501,43.832,7.856,19.503,0.814,52.113,-4.282,-4.268,274.408,53.031,93360.382,31.13,104.436
四川,成都市,29.155,44.715,8.697,25.394,0.82,46.585,-2.563,-3.423,274.694,55.418,93519.131,30.64,103.929
四川,攀枝花市,14.832,29.97,15.301,23.354,0.982,56.72,7.452,5.521,283.091,32.024,81007.816,26.791,101.734
四川,泸州市,20.943,29.279,10.956,19.544,0.731,25.915,1.527,-3.086,276.245,75.98,93541.175,28.424,105.675
四川,甘孜藏族自治州,3.645,4.336,0.572,0.614,0.149,79.481,9.494,2.345,262.733,56.783,60097.09,30.936,100.009
四川,眉山市,28.189,42.067,8.512,24.343,0.758,41.166,-1.454,-3.542,275.063,61.036,93986.853,29.912,103.766
四川,绵阳市,32.097,41.323,10.137,10.518,0.63,55.96,-3.875,-5.027,271.18,57.851,87917.053,31.86,104.704
四川,自贡市,29.854,37.463,10.541,21.645,0.843,31.714,-0.697,-4.808,277.411,61.239,96983.668,29.307,104.659
四川,资阳市,17.573,31.716,8.722,15.867,0.741,46.077,-1.704,-5.391,276.198,62.594,97277.915,30.102,105.149
四川,达州市,32.426,45.102,14.519,20.71,0.74,50.797,-4.25,-4.113,273.018,80.418,94182.056,31.335,107.636
四川,遂宁市,22.86,35.432,10.034,17.238,0.794,51.802,-3.112,-5.824,275.769,62.17,97535.286,30.642,105.457
四川,阿坝藏族羌族自治州,16.183,18.917,3.276,2.562,0.292,66.536,4.323,0.236,263.537,64.692,64413.186,32.406,102.61
四川,雅安市,35.352,43.341,8.608,11.7,0.67,61.88,-1.154,-0.769,268.196,76.022,79616.052,29.932,102.689
天津,天津市,86.312,114.214,24.639,68.7,1.857,17.938,2.246,-0.183,271.648,39.981,102108.966,39.315,117.308
宁夏,中卫市,24.58,50.915,7.457,4.521,0.359,55.167,4.47,-5.618,260.406,68.198,83792.875,37.018,105.509
宁夏,吴忠市,26.949,49.358,11.29,8.703,0.41,50.92,6.116,-4.303,260.976,70.615,85376.635,37.454,106.577
宁夏,固原市,30.593,55.983,9.111,6.003,0.451,64.026,2.705,-6.583,259.734,72.143,80894.651,35.905,106.183
宁夏,石嘴山市,29.486,60.314,14.353,10.248,0.523,65.044,7.02,-4.14,261.556,56.538,87069.054,39.013,106.499
宁夏,银川市,35.478,76.971,20.613,17.213,0.661,56.933,4.219,-1.776,262.449,60.374,87449.787,38.287,106.342
安徽,亳州市,134.065,149.662,18.044,40.218,1.318,40.339,0.672,-4.773,270.915,96.135,101962.925,33.44,116.162
安徽,六安市,94.917,114.254,14.917,21.582,1.188,66.252,1.857,-2.672,272.008,95.29,99275.396,31.617,116.209
安徽,合肥市,91.855,89.941,10.736,34.849,1.265,42.708,1.636,-3.538,274.944,94.161,101684.276,31.766,117.359
安徽,安庆市,65.114,62.098,11.427,23.764,1.243,59.751,-0.673,-3.333,275.654,87.978,99623.284,30.557,116.473
安徽,宣城市,35.532,45.744,10.128,37.971,1.085,28.338,0.885,0.284,277.355,92.856,99483.171,30.676,118.846
安徽,宿州市,140.391,151.154,19.958,51.578,1.665,27.342,0.179,-4.51,272.432,95.366,101834.91,33.844,117.23
安徽,池州市,50.417,54.456,11.548,27.47,1.171,44.299,-0.708,-3.043,276.025,92.979,99773.337,30.296,117.379
安徽,淮北市,149.689,166.134,26.052,55.042,1.662,27.474,0.621,-4.728,271.718,95.64,101922.119,33.722,116.747
安徽,淮南市,116.747,129.017,16.717,32.916,1.271,47.39,0.856,-4.529,273.228,97.289,101930.692,32.463,116.746
安徽,滁州市,77.272,82.374,10.76,37.942,1.123,36.395,0.309,-3.32,275.166,97.008,101526.407,32.55,118.076
安徽,芜湖市,72.579,70.06,12.042,41.114,1.382,33.928,1.458,-1.902,277.352,91.58,101790.491,31.167,118.162
安徽,蚌埠市,124.895,131.517,16.185,42.561,1.504,35.748,0.287,-4.397,272.912,97.44,101888.617,33.121,117.263
安徽,铜陵市,73.53,73.523,12.149,31.734,1.299,51.168,1.022,-3.876,276.196,89.16,101680.904,30.883,117.531
安徽,阜阳市,123.385,147.128,16.971,30.375,1.209,47.465,0.992,-4.441,270.568,96.089,101965.651,32.937,115.723
安徽,马鞍山市,68.355,64.253,11.3,43.281,1.329,21.759,1.254,-2.435,277.183,92.618,101775.511,31.622,118.386
安徽,黄山市,20.127,34.078,10.909,22.357,0.904,27.502,-0.982,-1.161,277.357,93.179,97402.479,29.869,118.09
山东,东营市,53.824,79.182,24.444,41.897,1.0,35.686,1.298,0.948,272.948,71.733,102252.146,37.57,118.572
山东,临沂市,102.087,125.189,18.048,51.089,1.454,22.546,-1.572,-3.869,272.517,87.722,100293.597,35.289,118.27
山东,威海市,22.481,43.847,11.956,31.975,0.81,35.532,0.529,-1.84,273.817,72.285,101524.519,37.148,122.028
山东,德州市,75.643,100.154,18.608,46.319,1.311,32.283,0.75,0.46,272.628,57.031,102140.517,37.233,116.679
山东,日照市,84.535,106.407,14.041,52.724,1.223,25.819,-2.14,-4.567,272.823,85.559,100401.351,35.566,119.108
山东,枣庄市,127.979,173.261,29.296,56.26,1.572,18.634,-0.916,-3.436,272.424,87.947,101088.185,34.925,117.383
山东,泰安市,107.213,136.452,24.774,51.513,1.551,25.113,-0.253,-1.63,272.004,79.895,100256.965,35.993,117.04
山东,济南市,103.194,130.79,24.43,54.584,1.533,25.173,0.097,-0.712,271.65,79.42,100240.565,36.639,117.254
山东,济宁市,103.521,141.286,22.39,48.96,1.403,26.275,-0.062,-3.392,272.452,80.077,101612.337,35.375,116.697
山东,淄博市,103.839,129.117,32.327,55.457,1.806,21.272,-0.398,-0.375,271.243,84.857,99581.141,36.623,118.062
山东,滨州市,73.716,95.979,26.03,49.761,1.343,31.289,0.92,0.964,272.733,62.172,102201.619,37.516,117.852
山东,潍坊市,82.726,114.682,22.549,52.211,1.354,27.01,-0.569,-1.49,272.217,83.605,101086.489,36.53,119.092
山东,烟台市,29.079,58.152,16.26,37.405,1.094,34.365,0.204,-0.304,272.792,70.512,101033.772,37.25,120.789
山东,聊城市,80.65,102.45,12.918,37.753,1.135,31.332,0.496,-0.832,272.33,65.906,101934.943,36.458,115.863
山东,菏泽市,89.842,117.011,11.437,33.303,1.232,43.583,0.936,-2.937,271.334,85.542,101819.446,35.134,115.69
山东,青岛市,52.816,88.704,16.009,47.379,1.129,28.863,-1.128,-2.835,273.298,73.55,101636.703,36.46,120.172
山西,临汾市,81.901,99.136,31.088,21.418,1.471,43.141,2.827,-3.139,265.018,80.988,90224.23,36.227,111.398
山西,吕梁市,74.87,85.571,32.481,23.707,1.349,38.912,3.344,-2.952,263.675,77.602,87716.538,37.663,111.27
山西,大同市,59.112,76.193,24.903,29.811,1.106,32.26,3.568,-1.824,263.14,74.598,87070.598,39.911,113.713
山西,太原市,74.501,97.496,36.493,35.101,1.275,32.452,3.56,-3.184,264.322,72.189,87486.105,37.967,112.321
山西,忻州市,78.076,94.703,32.385,31.599,1.106,34.696,3.689,-2.339,262.603,74.314,85933.232,38.877,112.391
山西,晋中市,80.724,100.777,38.284,36.181,1.561,36.059,3.359,-2.044,265.317,78.391,88427.85,37.328,112.997
山西,晋城市,93.996,112.451,29.174,26.613,1.458,55.262,3.404,-4.241,266.119,82.195,90495.013,35.625,112.752
山西,朔州市,76.596,96.54,40.288,33.96,1.167,30.915,4.724,-1.163,262.473,75.708,86431.028,39.619,112.655
山西,运城市,98.055,124.414,33.98,23.908,1.446,52.401,3.077,-2.194,267.213,80.303,94709.844,35.205,111.071
山西,长治市,82.52,99.298,33.409,29.138,1.524,47.79,2.857,-2.922,265.629,80.595,88723.138,36.48,112.915
山西,阳泉市,84.67,104.376,42.112,44.021,1.361,32.081,4.641,-3.427,266.387,68.568,90373.887,38.031,113.512
广东,东莞市,15.797,17.063,6.184,33.852,0.918,14.538,-5.0,-3.162,288.842,92.302,101187.521,22.931,113.81
广东,中山市,14.629,23.624,6.899,39.357,0.857,13.253,-3.476,-3.881,289.556,95.491,101164.587,22.5,113.383
广东,云浮市,20.159,27.603,8.053,37.469,1.076,5.704,-3.805,-1.633,286.379,96.931,99149.127,22.776,111.818
广东,佛山市,23.407,32.927,7.843,46.793,1.187,5.009,-2.3,-4.126,287.528,93.705,101258.871,23.035,112.979
广东,广州市,16.736,19.585,6.374,32.792,0.933,15.972,-4.281,-2.93,288.006,91.632,100338.134,23.339,113.525
广东,惠州市,12.429,15.419,6.535,20.75,0.809,26.335,-5.352,-3.073,288.256,93.903,99355.411,23.244,114.485
广东,揭阳市,17.538,23.09,9.426,30.2,1.018,27.768,-5.997,-3.772,289.164,93.438,100018.529,23.323,116.123
广东,梅州市,12.83,16.954,7.048,22.293,0.864,31.246,-5.013,-1.936,287.587,93.634,97984.57,24.169,116.07
广东,汕头市,12.901,22.395,8.034,24.484,0.801,39.26,-7.444,-4.58,290.325,91.649,101145.648,23.339,116.614
广东,汕尾市,14.267,19.345,7.78,22.319,0.841,31.704,-6.893,-4.035,289.27,93.348,99699.171,23.024,115.527
广东,江门市,20.985,33.236,8.364,40.58,1.002,6.912,-2.507,-4.594,288.511,95.529,100589.098,22.289,112.676
广东,河源市,12.878,19.295,7.569,21.654,0.927,26.34,-5.069,-2.912,286.678,94.576,98163.334,24.021,114.969
广东,深圳市,10.222,16.009,5.864,27.114,0.76,25.651,-5.889,-2.69,290.033,94.331,100671.01,22.667,114.143
广东,清远市,12.429,17.852,7.365,20.575,0.902,19.721,-3.07,-3.065,284.648,95.276,97663.118,24.295,112.871
广东,湛江市,13.113,21.982,6.385,20.22,0.839,29.198,-3.344,0.053,293.504,94.717,100898.615,21.091,110.163
广东,潮州市,12.392,16.99,6.713,21.936,0.798,37.144,-7.675,-4.354,289.131,89.522,99455.221,23.755,116.754
广东,珠海市,13.673,25.517,7.775,31.567,0.628,25.262,-3.505,-3.527,290.993,96.6,101208.098,22.095,113.317
广东,肇庆市,17.794,23.467,6.946,26.799,0.944,13.713,-4.745,-2.923,286.372,93.85,99280.348,23.505,112.199
广东,茂名市,14.127,19.444,8.847,25.182,1.052,15.25,-3.336,-0.288,291.138,92.657,99130.621,22.013,110.952
广东,阳江市,19.073,27.083,9.203,33.042,1.042,7.485,-2.483,-3.666,288.547,94.45,99717.687,22.042,111.786
广东,韶关市,11.765,17.401,7.396,20.655,1.025,21.978,-2.758,-1.932,283.791,96.596,96898.388,24.785,113.819
广西,北海市,23.82,30.413,10.058,25.971,1.419,12.494,-2.531,-2.871,290.641,90.563,100968.306,21.674,109.37
广西,南宁市,16.27,21.167,8.696,19.979,1.232,11.006,-2.714,-3.524,284.186,94.557,99205.689,23.051,108.469
广西,崇左市,25.776,33.517,10.544,20.475,1.341,13.641,-2.66,-1.566,285.489,96.107,97845.583,22.483,107.291
广西,来宾市,15.315,23.231,10.029,12.428,1.045,14.636,-2.141,-3.202,283.168,95.734,98044.38,23.859,109.417
广西,柳州市,14.523,26.937,12.463,11.933,1.019,19.56,-1.366,-5.172,280.055,91.3,97527.241,24.956,109.372
广西,桂林市,13.59,23.753,9.629,14.188,0.992,21.554,-3.166,-3.234,278.958,94.468,95897.027,25.353,110.513
广西,梧州市,18.282,26.28,9.676,19.612,0.978,12.408,-3.918,-2.174,285.755,95.666,98876.081,23.484,110.996
广西,河池市,16.734,26.029,10.912,10.554,1.074,20.423,-2.851,-1.572,281.288,93.569,95059.543,24.628,107.843
广西,玉林市,18.66,25.505,10.785,23.717,1.351,9.372,-2.559,-2.713,288.459,94.825,99212.158,22.452,110.164
广西,百色市,33.383,45.679,13.071,14.762,1.31,23.653,-1.931,1.674,284.995,95.435,92838.204,23.981,106.292
广西,贵港市,13.243,20.905,9.536,15.582,1.018,12.84,-3.799,-3.897,285.358,94.428,99728.858,23.322,110.021
广西,贺州市,12.034,21.121,10.323,14.92,0.945,16.626,-3.235,-3.188,283.332,95.652,97067.61,24.364,111.394
广西,钦州市,17.947,22.434,9.17,22.857,1.451,8.938,-2.172,-4.284,287.184,91.552,100293.811,22.173,109.01
广西,防城港市,24.693,31.824,10.105,22.477,1.406,11.23,-1.984,-2.91,287.171,93.576,98665.853,21.88,108.002
新疆,乌鲁木齐市,38.706,58.162,4.657,15.705,0.738,60.512,-0.442,0.361,259.209,35.781,84927.557,43.746,87.818
新疆,五家渠市,64.217,93.863,6.237,19.95,0.97,39.25,-2.583,-0.44,257.1,67.837,98328.63,44.363,87.517
新疆,伊犁哈萨克自治州,21.696,33.292,9.527,14.98,1.551,67.599,-1.591,1.715,263.079,26.432,80480.355,43.438,82.146
新疆,克孜勒苏柯尔克孜自治州,8.458,26.342,1.158,2.762,0.311,59.304,3.836,-1.102,258.637,59.294,70250.134,39.661,75.949
新疆,克拉玛依市,39.927,44.257,4.924,9.189,0.47,37.067,-1.664,-0.776,260.226,72.982,99277.97,45.457,85.207
新疆,北屯市,18.886,19.728,13.26,20.9,0.626,34.11,-2.468,2.862,255.256,65.608,97236.786,47.27,87.868
新疆,博尔塔拉蒙古自治州,25.983,40.018,8.189,10.537,0.791,55.328,-0.776,0.776,259.194,42.517,87061.083,44.714,82.114
新疆,双河市,33.96,56.092,12.342,12.696,0.458,38.012,0.188,-0.662,260.024,66.112,99797.78,44.87,82.474
新疆,可克达拉市,87.848,142.346,39.052,65.116,6.558,37.602,-6.936,1.31,270.698,25.496,95598.876,43.918,80.786
新疆,和田地区,5.022,10.369,1.146,1.317,0.252,58.453,1.374,-1.018,260.352,48.37,74121.444,37.059,80.934
新疆,哈密市,11.077,11.987,4.331,1.589,0.25,55.974,2.86,-0.488,260.392,46.046,89227.357,43.042,93.517
新疆,喀什地区,10.478,25.622,1.907,3.287,0.323,52.334,0.98,-0.286,261.329,56.798,76408.522,38.125,77.178
新疆,图木舒克市,12.23,20.05,4.003,2.468,0.318,39.542,-2.975,-1.785,265.867,55.885,90356.25,39.892,79.182
新疆,塔城地区,25.522,31.382,4.571,6.69,0.422,52.975,-0.969,1.707,260.949,45.998,90643.453,45.642,84.789
新疆,巴音郭楞蒙古自治州,5.654,8.959,2.261,0.79,0.185,61.315,1.776,-1.058,259.651,50.964,79576.006,39.463,87.481
新疆,新星市,20.43,22.16,7.1,8.945,0.56,47.54,-0.955,0.815,262.155,53.1,94124.005,42.75,93.68
新疆,昆玉市,24.463,63.197,3.793,8.22,1.003,43.323,-3.597,0.423,268.44,44.91,87768.343,37.457,79.093
新疆,昌吉回族自治州,28.338,36.734,4.566,7.64,0.499,54.523,-0.713,0.737,259.101,45.886,91047.335,44.342,88.608
新疆,石河子市,111.795,158.51,12.82,47.87,1.7,27.095,-1.385,-0.185,258.985,56.205,96207.91,44.245,86.035
新疆,胡杨河市,53.61,68.742,4.198,10.078,0.706,35.298,-3.184,-0.766,260.664,77.832,99783.496,44.852,84.772
新疆,铁门关市,28.87,100.483,6.75,9.91,0.723,55.34,0.797,0.037,264.75,37.413,93024.313,41.773,85.66
新疆,阿克苏地区,15.557,46.376,3.625,4.201,0.419,54.538,-0.995,-0.22,262.946,52.806,86108.722,40.965,81.578
新疆,阿勒泰地区,10.667,11.799,5.863,5.067,0.317,56.108,-2.407,0.544,257.799,48.593,89530.419,46.902,88.421
新疆,阿拉尔市,23.857,78.752,3.779,8.685,0.61,45.89,-2.606,-1.022,265.928,57.111,91301.526,40.629,80.998
江苏,南京市,51.964,56.089,9.577,42.911,1.093,23.712,0.695,-1.764,277.603,93.338,101800.995,31.899,118.876
江苏,南通市,25.467,31.631,8.349,33.558,0.741,38.482,-0.44,0.536,280.918,89.393,101843.565,32.201,120.979
江苏,宿迁市,97.562,88.883,11.544,43.994,1.296,26.306,-0.471,-3.789,275.249,96.651,101987.238,33.765,118.495
江苏,常州市,41.406,45.127,8.975,44.149,1.162,19.684,1.212,-0.162,279.112,90.161,101815.878,31.613,119.666
江苏,徐州市,143.231,164.253,22.452,56.849,1.698,19.733,-0.15,-4.248,272.734,93.783,101829.635,34.363,117.513
江苏,扬州市,36.911,45.483,7.324,33.797,0.871,35.801,-0.181,-2.442,278.272,93.518,101912.377,32.709,119.486
江苏,无锡市,34.078,40.493,9.12,45.952,1.14,18.984,1.282,0.032,279.69,89.632,101701.42,31.546,120.066
江苏,泰州市,31.829,39.401,7.613,33.504,0.873,37.093,-0.252,-0.988,279.403,92.123,101837.153,32.605,120.048
江苏,淮安市,54.783,58.101,8.966,34.804,0.934,35.109,-0.594,-3.719,276.856,94.612,101919.272,33.362,118.985
江苏,盐城市,22.952,29.878,5.701,14.618,0.552,56.371,-3.005,-1.974,279.331,90.085,101902.042,33.529,120.156
江苏,苏州市,27.038,34.695,8.308,46.646,0.947,22.612,1.4,-0.26,280.91,88.389,101840.462,31.374,120.661
江苏,连云港市,49.136,56.451,8.112,28.697,0.796,40.24,-2.786,-2.938,276.617,90.433,101852.196,34.519,119.133
江苏,镇江市,45.76,49.807,8.498,42.592,1.046,21.899,0.934,-0.746,278.648,92.135,101792.716,32.016,119.49
江西,上饶市,24.683,31.47,10.503,23.378,0.926,21.221,0.408,-1.814,279.854,91.676,99528.294,28.778,117.47
江西,九江市,51.703,52.414,9.258,23.439,1.241,39.331,0.829,-4.054,276.068,91.215,99599.991,29.313,115.444
江西,南昌市,28.174,32.768,7.556,22.94,1.086,26.996,1.505,-5.081,278.786,89.655,101513.716,28.671,116.016
江西,吉安市,24.155,29.989,11.001,23.981,1.123,13.747,0.176,-3.068,278.789,96.311,99107.521,26.954,114.831
江西,宜春市,33.918,38.523,9.355,23.109,1.058,24.568,0.036,-3.079,277.428,91.639,99523.355,28.29,114.974
江西,抚州市,22.526,28.468,8.642,22.396,0.864,21.128,0.288,-2.59,279.8,96.066,99082.654,27.514,116.42
江西,新余市,28.407,35.795,12.373,28.349,1.113,14.282,-0.005,-2.795,278.309,93.281,100486.764,27.847,114.836
江西,景德镇市,24.223,32.553,10.687,21.444,0.974,21.1,0.211,-2.671,278.74,90.454,100415.528,29.287,117.24
江西,萍乡市,32.679,42.291,12.062,21.112,1.171,23.068,1.624,-2.317,276.198,96.103,98148.78,27.505,113.908
江西,赣州市,15.023,19.715,8.875,19.245,1.142,22.419,-1.072,-1.683,282.287,97.532,97279.659,25.692,115.279
江西,鹰潭市,21.873,32.723,9.181,27.738,0.921,17.865,0.759,-2.353,279.677,93.468,100079.521,28.222,117.094
河北,保定市,107.156,137.221,24.799,51.821,1.51,32.565,2.139,-0.608,270.437,55.655,98180.851,39.018,115.159
河北,唐山市,72.563,113.211,34.499,74.732,2.2,18.231,1.306,-0.156,271.354,47.973,101537.061,39.731,118.354
河北,廊坊市,102.368,143.865,26.297,65.088,1.888,22.155,1.664,0.155,271.295,36.838,102172.631,39.267,116.632
河北,张家口市,26.601,39.107,12.083,17.721,0.58,43.506,3.691,-2.285,262.342,69.563,87506.275,40.877,115.042
河北,承德市,23.681,43.667,11.677,18.614,0.655,42.057,3.526,-1.547,264.789,55.692,90907.125,41.339,117.578
河北,沧州市,91.823,119.482,30.54,56.834,1.792,32.19,1.4,0.202,272.386,34.649,102222.994,38.258,116.744
河北,石家庄市,98.634,126.67,30.144,48.596,1.442,32.868,1.911,-0.42,271.036,58.875,98785.89,38.135,114.407
河北,秦皇岛市,67.431,118.199,45.542,78.794,3.318,16.487,3.152,0.17,270.142,49.952,99090.665,40.12,119.193
河北,衡水市,71.47,95.1,17.413,38.898,1.245,39.574,1.144,0.569,272.566,43.041,102100.168,37.755,115.813
河北,邢台市,90.039,119.664,17.683,38.5,1.643,37.785,1.302,0.05,271.885,58.215,100530.749,37.195,114.815
河北,邯郸市,107.685,130.661,20.989,38.088,1.767,31.692,1.44,-0.178,271.232,70.913,100047.585,36.538,114.596
河南,三门峡市,80.556,106.408,17.451,22.79,1.068,54.804,4.045,-4.133,265.998,85.23,92130.49,34.362,111.101
河南,信阳市,117.319,143.074,14.886,25.583,1.344,59.527,1.157,-4.163,269.725,95.41,100978.15,32.091,114.907
河南,南阳市,82.636,86.065,11.694,29.39,1.199,62.613,0.972,-2.973,269.319,80.855,98894.349,33.034,112.323
河南,周口市,100.147,134.023,12.067,29.285,1.218,59.297,0.921,-3.497,269.673,93.853,101801.901,33.738,114.884
河南,商丘市,103.012,129.367,12.667,36.546,1.222,43.384,0.872,-4.057,270.611,91.673,101840.179,34.277,115.718
河南,安阳市,110.265,126.892,18.378,36.182,1.573,39.2,1.101,-1.124,270.396,82.095,99641.959,35.888,114.318
河南,平顶山市,96.593,106.392,17.346,31.638,1.231,44.373,3.904,-4.471,269.371,80.734,99549.577,33.8,113.025
河南,开封市,96.894,114.732,10.854,30.821,1.185,55.292,0.727,-2.329,269.899,90.672,101538.004,34.594,114.514
河南,新乡市,111.856,129.341,13.667,38.274,1.452,44.047,0.719,-1.599,270.161,85.607,100539.624,35.256,114.111
河南,洛阳市,80.595,96.963,18.427,23.13,1.118,49.829,4.852,-3.423,267.51,79.966,94607.934,34.274,112.019
河南,济源市,90.625,107.647,25.735,26.384,1.311,51.418,2.926,-3.775,269.455,72.479,96510.842,35.105,112.445
河南,漯河市,120.537,135.661,14.762,36.539,1.283,51.301,1.917,-3.202,269.548,89.136,101682.802,33.652,113.945
河南,濮阳市,104.657,112.393,11.456,31.2,1.286,45.401,0.779,-1.34,271.523,79.744,101813.401,35.809,115.283
河南,焦作市,121.876,140.417,21.778,39.573,1.636,37.321,2.075,-1.592,270.664,77.854,100349.4,35.121,113.163
河南,许昌市,115.375,127.195,17.735,39.505,1.324,40.109,1.815,-3.428,269.962,84.971,100950.949,34.075,113.707
河南,郑州市,119.285,129.473,19.069,42.326,1.409,33.774,2.849,-2.071,269.731,83.52,99541.122,34.634,113.438
河南,驻马店市,114.619,140.025,11.693,30.23,1.249,62.226,1.804,-4.142,268.984,92.089,101346.081,32.925,114.174
河南,鹤壁市,112.418,132.724,15.201,39.051,1.567,34.276,1.063,-1.073,270.788,83.037,100901.763,35.716,114.319
浙江,丽水市,22.708,25.9,6.895,19.141,0.665,35.87,-0.467,1.637,283.169,93.692,94579.111,28.194,119.51
浙江,台州市,26.435,33.834,6.23,26.348,0.751,30.489,-0.186,-0.89,284.883,90.552,98940.517,28.742,121.109
浙江,嘉兴市,24.743,30.171,5.912,37.095,0.862,25.89,1.074,-0.783,281.565,86.199,101847.229,30.635,120.754
浙江,宁波市,29.907,36.624,7.084,38.556,0.798,23.752,0.43,-1.487,283.399,89.26,100519.66,29.706,121.49
浙江,杭州市,29.061,39.91,8.748,36.489,0.963,16.818,0.137,-1.211,279.296,90.804,98846.815,29.891,119.464
浙江,温州市,40.05,50.329,8.857,37.119,1.044,21.2,0.07,0.088,285.103,94.711,97713.541,27.897,120.411
浙江,湖州市,29.519,38.084,7.48,42.193,1.036,20.204,1.801,-0.122,279.061,90.2,100557.911,30.757,119.871
浙江,绍兴市,34.641,40.339,7.18,42.318,0.952,13.249,-0.369,-1.086,281.432,90.58,99685.739,29.709,120.64
浙江,舟山市,19.118,26.22,6.73,23.225,0.56,44.225,0.267,-1.388,284.66,89.162,101542.175,30.038,122.23
浙江,衢州市,26.888,33.513,10.779,28.845,0.858,17.737,-0.213,-0.468,280.78,91.222,98028.015,28.912,118.675
浙江,金华市,32.121,38.035,8.022,33.843,0.883,16.45,-0.444,-0.379,281.677,90.869,98287.087,29.109,119.967
海南,万宁市,7.826,14.122,1.113,3.52,0.24,52.867,0.547,3.75,295.924,95.926,99876.744,18.842,110.294
海南,三亚市,8.546,13.574,1.587,11.414,0.456,24.67,-1.899,1.897,295.7,93.357,98665.213,18.413,109.407
海南,东方市,8.503,12.806,1.437,3.257,0.205,53.393,-0.655,3.715,297.145,83.97,99228.24,18.971,108.838
海南,临高县,8.937,16.599,2.151,9.874,0.457,36.937,-0.256,0.433,295.83,91.737,100425.493,19.821,109.733
海南,乐东黎族自治县,7.476,11.525,0.98,4.71,0.259,41.262,-1.779,3.064,295.558,90.968,97758.798,18.659,109.072
海南,五指山市,7.206,10.458,1.12,4.898,0.242,39.694,-0.234,4.058,294.386,91.342,94571.166,18.81,109.518
海南,儋州市,13.179,19.833,2.159,6.782,0.369,46.837,0.34,-0.461,295.796,91.619,100077.392,19.568,109.399
海南,定安县,6.427,13.157,1.958,12.127,0.502,33.002,-0.88,2.53,296.663,91.392,100121.887,19.47,110.28
海南,屯昌县,6.958,12.094,1.738,8.492,0.414,35.744,-0.146,1.664,296.776,88.276,99333.994,19.342,110.076
海南,文昌市,6.742,13.614,1.144,4.823,0.281,52.885,-1.813,3.215,295.777,97.47,100919.242,19.707,110.773
海南,昌江黎族自治县,12.707,17.887,2.258,4.319,0.246,54.733,0.536,2.107,295.812,89.344,98227.712,19.233,109.016
海南,海口市,6.748,15.367,2.628,16.137,0.529,31.369,-1.406,1.479,296.147,93.728,100708.082,19.842,110.393
海南,澄迈县,7.009,14.287,2.904,14.229,0.519,28.637,-0.57,0.39,296.519,88.973,100248.024,19.676,109.989
海南,琼中黎族苗族自治县,6.785,10.605,1.053,4.558,0.272,43.1,0.74,3.283,296.1,86.918,97165.651,19.087,109.847
海南,琼海市,6.69,13.447,1.385,6.613,0.337,46.113,-0.653,3.58,296.553,94.1,100687.615,19.22,110.43
海南,白沙黎族自治县,8.248,11.816,1.345,3.904,0.236,49.044,0.781,2.775,295.966,86.402,96873.745,19.2,109.388
海南,陵水黎族自治县,8.973,13.877,0.863,5.934,0.324,33.34,0.584,1.954,295.704,94.744,99221.523,18.581,109.913
湖北,仙桃市,106.186,104.928,8.039,17.323,1.387,71.251,0.278,-6.222,271.833,88.139,102042.941,30.284,113.417
湖北,十堰市,50.132,54.917,15.461,21.319,1.026,48.548,1.88,-1.445,268.231,81.13,93771.223,32.462,110.476
湖北,咸宁市,88.389,95.543,8.132,22.32,1.38,49.352,0.538,-4.132,273.906,92.966,99934.372,29.621,114.178
湖北,天门市,92.577,98.928,10.757,20.359,1.318,77.451,0.25,-5.78,271.088,85.869,102038.689,30.633,113.053
湖北,孝感市,109.528,119.632,9.209,20.909,1.436,67.641,0.357,-6.303,270.604,88.626,101362.375,31.116,113.869
湖北,宜昌市,53.078,62.026,13.721,18.071,0.889,61.036,-0.835,-1.637,269.915,86.532,94517.664,30.746,111.129
湖北,恩施土家族苗族自治州,37.071,46.576,13.841,12.421,1.0,33.658,-0.653,1.005,270.589,94.562,89626.797,30.195,109.552
湖北,武汉市,116.079,117.068,8.224,24.693,1.51,52.165,0.817,-6.132,273.384,86.416,101855.481,30.606,114.349
湖北,潜江市,89.294,96.82,9.781,21.932,1.378,75.476,0.087,-6.206,270.93,86.804,102049.589,30.33,112.77
湖北,神农架林区,38.981,46.331,14.345,9.188,0.669,61.411,2.013,-1.619,266.712,90.894,82715.428,31.592,110.49
湖北,荆州市,85.088,91.162,10.474,20.148,1.292,72.648,-0.204,-6.43,271.592,87.953,101787.504,30.01,112.512
湖北,荆门市,94.86,96.642,13.976,26.028,1.233,73.569,0.374,-6.542,269.857,84.825,100987.932,31.059,112.616
湖北,襄阳市,77.722,68.686,13.978,26.252,1.145,66.348,1.58,-3.792,268.962,84.424,98118.507,31.919,111.96
湖北,鄂州市,96.783,103.649,8.946,28.853,1.489,53.873,2.139,-5.039,275.167,86.417,101842.206,30.337,114.794
湖北,随州市,99.485,112.963,11.743,24.069,1.237,68.899,0.678,-5.057,269.248,87.213,100210.881,31.809,113.43
湖北,黄冈市,88.709,87.835,11.153,22.205,1.423,61.724,0.661,-3.734,274.373,85.701,99957.163,30.702,115.358
湖北,黄石市,77.215,84.972,8.954,28.92,1.422,46.758,2.134,-3.462,275.429,90.792,100767.409,29.925,115.034
湖南,娄底市,22.487,31.807,9.141,15.595,1.005,52.1,-0.817,-4.487,272.345,88.568,97647.874,27.715,111.632
湖南,岳阳市,77.892,82.177,9.686,15.796,1.232,60.74,-0.396,-5.714,274.305,90.75,100694.073,29.081,113.275
湖南,常德市,48.063,61.05,9.451,16.8,1.053,64.536,-0.682,-5.214,270.831,90.698,99991.223,29.271,111.524
湖南,张家界市,30.84,40.156,9.866,13.607,0.751,50.73,-2.943,-1.689,270.124,93.566,95762.162,29.379,110.526
湖南,怀化市,19.028,29.306,8.403,10.562,0.867,46.576,-2.107,-3.748,272.689,92.205,96664.152,27.535,110.071
湖南,株洲市,33.218,40.897,8.655,19.965,0.982,27.199,1.559,-2.964,276.072,95.859,98312.448,27.109,113.513
湖南,永州市,12.583,20.901,7.219,14.875,0.892,25.196,-2.394,-3.19,276.517,95.59,96789.188,25.748,111.723
湖南,湘潭市,37.507,44.212,5.998,19.91,1.002,50.526,1.976,-5.725,273.869,91.505,100797.372,27.744,112.619
湖南,湘西土家族苗族自治州,25.508,34.976,6.538,11.118,0.693,46.491,-3.445,-1.975,271.389,91.128,95652.961,28.708,109.718
湖南,益阳市,42.794,58.288,7.825,13.862,1.138,67.8,0.624,-5.568,271.549,93.086,99387.376,28.525,111.919
湖南,衡阳市,21.901,26.137,7.758,19.535,0.939,30.666,0.546,-4.7,274.682,93.657,100235.411,26.781,112.565
湖南,邵阳市,22.472,31.138,10.394,14.661,0.899,35.564,-2.011,-2.383,273.748,94.981,95243.291,26.893,110.881
湖南,郴州市,13.599,19.529,5.465,18.776,0.937,22.793,-0.153,-2.397,277.334,97.984,95907.563,25.769,113.109
湖南,长沙市,51.858,56.991,9.056,19.552,1.071,43.958,1.615,-4.89,274.923,91.74,100134.793,28.235,113.159
甘肃,临夏回族自治州,32.241,63.785,14.986,14.174,1.011,61.491,-2.404,-1.002,259.727,77.196,77231.634,35.617,103.291
甘肃,兰州市,35.52,68.922,13.53,13.477,0.595,59.353,-2.127,-1.064,259.313,73.674,79003.462,36.359,103.633
甘肃,嘉峪关市,20.618,101.882,7.668,10.86,0.46,60.66,8.942,-6.0,258.748,45.838,81973.968,39.798,98.145
甘肃,天水市,40.042,54.921,10.203,8.787,0.6,64.213,0.867,-5.577,263.236,74.465,82691.133,34.645,105.739
甘肃,定西市,34.693,55.498,10.643,8.113,0.566,58.712,-0.91,-3.856,259.18,77.253,76965.866,35.124,104.432
甘肃,平凉市,38.549,56.66,8.9,8.402,0.566,64.139,1.702,-6.776,263.276,69.096,84658.956,35.304,106.644
甘肃,庆阳市,35.255,53.241,11.347,8.258,0.513,57.547,3.427,-6.621,263.17,69.302,85992.181,36.149,107.596
甘肃,张掖市,18.848,63.149,6.451,5.273,0.351,60.537,5.563,-2.876,254.706,59.328,74390.517,38.94,99.855
甘肃,武威市,30.226,62.754,10.554,5.668,0.496,48.633,3.866,-2.877,258.884,71.031,81556.503,38.163,103.073
甘肃,甘南藏族自治州,20.871,27.775,5.002,3.975,0.48,61.476,1.087,-2.13,259.614,75.407,66740.151,34.331,102.768
甘肃,白银市,28.605,53.221,9.026,7.35,0.386,56.922,1.638,-6.148,259.918,68.514,81571.202,36.59,104.646
甘肃,酒泉市,8.256,19.766,3.314,1.123,0.203,61.069,5.797,-1.854,256.374,51.149,79306.979,40.236,96.062
甘肃,金昌市,26.226,76.153,13.938,6.408,0.489,54.063,6.252,-3.858,258.847,61.357,80717.31,38.44,102.048
甘肃,陇南市,37.443,47.141,10.446,7.881,0.565,58.51,-1.642,-6.179,264.805,70.078,82101.205,33.599,105.224
福建,三明市,15.363,22.284,8.73,19.424,0.794,27.305,-1.411,0.752,284.472,97.153,95192.477,26.29,117.395
福建,南平市,13.949,20.17,8.021,14.775,0.576,37.173,-0.267,0.875,283.776,95.882,95982.363,27.324,118.143
福建,厦门市,13.823,20.86,8.125,36.33,0.768,24.735,-3.737,-5.472,288.645,94.16,100432.693,24.642,118.11
福建,宁德市,21.195,27.111,6.985,19.43,0.708,32.828,-0.173,0.823,285.303,97.95,95323.023,26.968,119.474
福建,泉州市,14.066,18.281,6.57,26.117,0.734,29.2,-2.911,-2.423,286.724,97.248,96644.438,25.201,118.249
福建,漳州市,13.951,19.423,6.781,26.519,0.743,31.249,-3.977,-3.707,287.488,96.474,98237.666,24.372,117.444
福建,福州市,16.651,23.334,5.766,25.143,0.719,30.117,-1.137,-0.872,286.633,97.948,97433.181,26.083,119.206
福建,莆田市,13.569,18.079,5.362,22.065,0.6,35.872,-2.554,-2.927,287.411,96.551,98191.671,25.445,118.864
福建,龙岩市,12.034,17.085,7.619,21.096,0.752,30.348,-2.711,-0.29,285.768,95.869,95162.54,25.256,116.739
西藏,山南市,13.167,15.45,1.251,1.423,0.198,83.299,8.302,-0.401,269.126,48.932,65448.555,28.295,92.274
西藏,拉萨市,3.345,8.647,0.106,2.626,0.196,75.499,6.937,-2.646,261.628,53.128,55612.749,30.043,91.093
西藏,日喀则市,2.29,3.225,0.313,0.468,0.13,79.264,13.373,-3.498,262.53,30.857,54497.978,29.483,86.493
西藏,昌都市,4.402,5.355,0.471,0.41,0.171,79.444,8.818,3.61,261.0,58.202,58052.706,30.753,97.044
西藏,林芝市,8.827,9.98,1.005,1.43,0.159,80.845,1.988,2.258,265.543,75.622,65682.762,29.184,95.25
西藏,玉树藏族自治州,0.593,0.939,0.102,0.191,0.133,77.571,7.568,-2.715,253.985,56.068,56216.328,34.196,94.317
西藏,那曲市,0.502,0.734,0.065,0.203,0.124,78.344,7.836,-3.666,254.963,50.026,54466.276,32.709,89.262
西藏,阿里地区,0.795,0.964,0.099,0.841,0.121,76.49,8.464,-3.695,254.476,41.537,53965.835,33.013,82.553
贵州,六盘水市,15.856,33.078,15.953,15.573,0.575,51.583,6.007,4.479,283.715,57.479,82779.765,26.106,104.896
贵州,安顺市,22.142,38.604,14.75,11.381,0.662,30.893,-2.376,1.761,280.86,91.086,87966.867,25.986,105.978
贵州,毕节市,15.904,27.033,11.14,14.328,0.875,38.18,2.077,-0.037,276.901,75.741,83191.363,27.063,105.211
贵州,贵阳市,22.734,32.804,12.026,17.241,0.885,19.675,-1.424,-2.584,275.716,95.729,88115.409,26.845,106.71
贵州,遵义市,28.842,38.755,15.793,13.839,0.864,29.565,-1.064,-1.493,274.299,88.974,90453.492,28.167,107.102
贵州,铜仁市,19.642,31.908,16.524,9.935,0.948,43.37,-2.815,-1.481,272.859,91.64,92952.278,27.937,108.534
贵州,黔东南苗族侗族自治州,17.655,28.28,16.581,11.133,0.941,33.232,-2.034,-2.712,274.475,93.482,92759.352,26.495,108.574
贵州,黔南布依族苗族自治州,17.282,26.25,11.951,9.879,0.774,27.021,-1.759,-0.48,278.228,93.514,90302.151,26.0,107.265
贵州,黔西南布依族苗族自治州,16.999,35.056,11.095,8.622,0.77,37.621,0.354,3.121,284.542,80.901,88332.103,25.256,105.467
辽宁,丹东市,71.056,96.249,32.925,44.608,1.908,22.734,-1.052,-1.554,266.216,56.948,99083.023,40.554,124.376
辽宁,大连市,50.136,67.892,24.275,38.186,1.135,32.776,-1.395,0.103,269.933,57.718,101407.33,39.591,122.22
辽宁,抚顺市,81.264,107.315,32.275,55.249,1.718,22.03,0.276,4.464,265.417,57.663,97193.27,41.841,124.65
辽宁,朝阳市,52.654,87.649,41.714,37.475,1.552,31.39,2.67,0.455,267.945,48.342,96582.388,41.545,120.053
辽宁,本溪市,73.808,100.55,32.641,48.979,1.912,23.293,0.187,2.566,265.805,54.187,96532.599,41.232,124.544
辽宁,沈阳市,76.894,120.352,62.71,62.118,1.774,16.604,0.799,4.807,266.562,59.539,101507.822,42.081,123.159
辽宁,盘锦市,56.168,86.075,54.713,54.861,1.77,26.802,1.101,3.33,270.313,63.551,102161.655,41.13,122.01
辽宁,营口市,44.341,66.044,23.684,37.107,1.171,36.116,-0.708,4.183,269.868,54.002,99895.58,40.395,122.478
辽宁,葫芦岛市,61.117,95.713,40.953,64.413,2.54,20.888,4.279,1.167,270.408,44.136,99503.063,40.66,120.215
辽宁,辽阳市,56.457,87.715,43.837,49.964,1.801,25.269,-0.199,4.998,268.66,53.109,100109.551,41.153,123.261
辽宁,铁岭市,78.042,109.831,47.652,58.608,1.395,17.698,1.172,5.882,265.282,60.337,99866.968,42.653,124.158
辽宁,锦州市,89.103,124.323,81.76,67.011,2.153,20.44,1.907,1.214,268.481,49.335,101285.443,41.502,121.659
辽宁,阜新市,72.263,99.86,48.065,42.363,1.392,27.647,2.296,1.049,266.429,54.253,99704.394,42.289,121.968
辽宁,鞍山市,49.684,77.8,33.583,45.825,1.584,27.283,-0.126,2.563,268.467,53.771,100197.308,40.731,123.007
重庆,重庆城区,31.224,41.611,13.769,20.098,0.852,30.752,-0.353,-1.565,275.998,78.099,95226.139,29.824,107.125
重庆,重庆郊县,37.044,48.846,18.089,12.874,0.857,41.493,-2.698,-1.007,272.224,85.307,91236.455,30.334,108.755
陕西,咸阳市,82.882,93.932,17.659,21.42,1.206,57.847,2.643,-3.9,267.042,77.004,91990.737,34.779,108.367
陕西,商洛市,60.207,69.476,12.772,16.952,0.854,55.286,2.365,-5.763,266.509,74.777,89526.455,33.64,109.889
陕西,安康市,44.962,51.24,14.126,14.579,0.763,48.655,-0.486,-2.297,266.87,80.442,90139.428,32.735,108.932
陕西,宝鸡市,48.332,58.443,10.287,12.225,0.737,66.824,-0.078,-5.074,264.571,76.251,86575.404,34.386,107.193
陕西,延安市,46.202,60.897,19.49,16.904,0.909,59.498,3.123,-5.392,264.07,70.375,87742.72,36.432,109.316
陕西,榆林市,37.197,51.54,20.308,16.432,0.942,51.967,4.506,-4.085,263.23,71.864,88124.841,38.041,109.581
陕西,汉中市,38.741,48.479,12.832,12.152,0.803,57.042,-1.967,-3.74,267.825,70.417,89159.546,33.088,107.098
陕西,渭南市,98.085,115.491,20.781,27.194,1.383,49.619,2.909,-1.579,267.558,77.12,94398.332,34.919,109.855
陕西,西安市,77.188,88.496,15.349,24.313,1.259,53.0,4.049,-1.552,265.9,87.286,90987.193,34.12,108.77
陕西,铜川市,77.27,84.96,23.231,18.43,1.137,59.901,1.892,-5.68,265.708,71.286,89455.826,35.198,109.058
青海,保亭黎族苗族自治县,9.21,13.578,1.704,11.846,0.43,24.704,-0.28,1.932,295.036,93.658,97079.058,18.566,109.618
青海,吐鲁番市,13.708,17.689,4.379,4.241,0.394,63.767,1.241,0.375,262.649,35.825,91491.754,42.386,89.851
青海,果洛藏族自治州,1.902,2.494,0.409,0.602,0.147,68.665,5.235,-1.823,255.182,69.035,58865.847,34.127,99.404
青海,海东市,38.891,49.794,16.603,13.621,0.614,46.108,-1.188,1.161,258.11,78.264,72172.789,36.347,102.34
青海,海北藏族自治州,7.157,10.689,2.548,1.956,0.195,68.363,7.027,-2.009,253.489,56.481,64281.488,37.775,100.288
青海,海南藏族自治州,2.33,2.578,0.507,0.609,0.141,64.563,7.42,-1.834,257.723,55.009,65609.16,35.89,100.272
青海,海西蒙古族藏族自治州,1.696,2.036,0.548,0.298,0.14,68.008,6.631,-2.647,254.321,56.354,63761.468,36.677,94.519
青海,西宁市,21.526,30.932,7.377,8.245,0.53,58.286,5.454,-0.499,258.252,60.575,68734.75,36.842,101.423
青海,黄南藏族自治州,8.717,9.132,1.746,1.615,0.225,64.058,4.13,-2.818,258.478,67.327,64884.909,35.022,101.631
香港,香港特别行政区,11.595,21.195,4.935,20.38,0.545,39.505,-7.425,-2.335,291.52,95.865,100836.855,22.45,114.22
黑龙江,七台河市,37.287,54.965,12.845,24.696,0.683,44.452,5.621,1.641,261.279,74.089,98358.429,45.87,130.943
黑龙江,伊春市,31.049,45.949,10.063,17.354,0.57,38.959,5.654,2.86,257.364,79.999,96581.647,47.772,129.184
黑龙江,佳木斯市,33.684,44.631,9.918,17.242,0.551,38.969,5.718,4.072,259.004,78.783,100319.515,47.207,132.11
黑龙江,双鸭山市,32.951,42.319,10.113,16.649,0.517,37.187,5.865,4.024,259.752,76.237,99910.241,46.722,132.643
黑龙江,哈尔滨市,55.302,74.419,22.791,33.281,0.845,37.563,4.184,5.222,260.834,77.754,98803.949,45.634,127.964
黑龙江,大兴安岭地区,1.298,1.474,1.799,1.97,0.199,39.119,5.366,-1.46,256.019,80.354,94345.504,52.286,124.212
黑龙江,大庆市,32.946,43.192,13.502,19.668,0.782,38.193,3.771,2.557,262.205,66.523,100071.292,46.327,124.687
黑龙江,牡丹江市,44.824,61.876,14.048,25.846,0.938,33.659,6.082,3.408,262.665,64.993,95508.552,44.592,129.883
黑龙江,绥化市,37.816,63.234,16.47,29.288,0.863,35.526,3.05,3.381,258.207,80.766,99208.231,46.89,126.634
黑龙江,鸡西市,33.358,43.521,10.489,21.198,0.605,33.074,5.726,2.779,261.456,72.65,99748.387,45.626,132.289
黑龙江,鹤岗市,28.232,41.366,10.157,17.248,0.598,42.117,6.136,2.47,259.77,71.437,99167.702,47.661,130.778
黑龙江,黑河市,16.25,23.01,6.064,6.428,0.433,38.597,5.136,1.726,257.074,81.196,96863.515,49.268,127.004
黑龙江,齐齐哈尔市,27.302,35.772,16.017,12.973,0.687,42.262,4.064,0.746,260.688,71.576,99100.467,47.715,124.57
