province,city,PM2.5,PM10,SO2,NO2,CO,O3,U,V,TEMP,RH,PSFC,lat,lon
上海,上海市,9.158,13.807,6.476,24.024,0.57,51.276,-5.548,-6.841,280.164,86.93,102625.048,31.173,121.42
云南,临沧市,17.542,19.229,5.063,6.408,0.622,63.833,1.194,1.012,284.319,81.72,83961.904,23.935,99.686
云南,丽江市,12.904,18.977,4.269,5.627,0.577,68.337,5.099,0.84,276.309,62.993,74479.401,26.96,100.515
云南,保山市,13.262,20.088,4.93,6.893,0.497,47.856,1.43,0.59,281.678,81.801,81903.307,24.953,98.962
云南,大理白族自治州,13.019,24.045,4.881,6.364,0.592,64.056,3.966,1.692,279.371,74.488,78059.589,25.726,100.053
云南,德宏傣族景颇族自治州,16.826,20.975,5.455,7.76,0.409,46.875,-0.688,-0.021,284.004,85.219,86157.195,24.535,98.052
云南,怒江傈僳族自治州,14.294,20.293,2.622,2.526,0.386,64.117,1.507,0.668,273.251,80.762,72626.442,26.916,98.885
云南,文山壮族苗族自治州,32.407,45.644,9.872,8.085,0.635,48.316,0.536,5.05,285.603,92.553,86612.974,23.696,104.735
云南,昆明市,11.274,18.846,6.614,10.586,0.468,63.063,5.072,2.44,281.151,78.824,79197.686,25.384,102.863
云南,昭通市,30.08,41.567,12.198,14.144,0.98,49.092,1.643,1.177,277.072,79.636,84078.727,27.667,103.985
云南,普洱市,17.905,22.343,5.215,4.279,0.408,59.892,0.58,0.937,285.796,87.37,86051.22,23.159,100.718
云南,曲靖市,15.85,22.99,8.44,11.323,0.53,57.085,5.407,3.165,281.569,76.815,79958.404,25.737,103.929
云南,楚雄彝族自治州,12.583,18.935,4.725,4.239,0.472,69.042,4.31,2.72,282.538,71.976,80963.369,25.328,101.567
云南,玉溪市,12.369,20.037,5.016,5.413,0.399,65.176,1.83,0.873,284.217,81.771,83524.448,24.136,102.217
云南,红河哈尼族彝族自治州,19.353,28.268,6.999,4.993,0.426,60.382,0.575,3.483,285.514,89.46,85228.607,23.451,103.034
云南,西双版纳傣族自治州,17.91,25.787,6.327,6.39,0.409,42.484,-0.568,1.26,287.994,92.439,89065.196,21.939,100.912
云南,迪庆藏族自治州,9.212,12.959,2.939,3.035,0.308,71.931,4.388,-0.009,268.675,63.746,66956.561,27.957,99.459
内蒙古,乌兰察布市,8.802,14.974,7.816,7.437,0.451,44.758,-2.135,-1.059,257.631,56.865,86705.793,41.691,112.44
内蒙古,乌海市,53.381,85.779,27.155,31.784,0.986,31.744,-7.001,5.43,266.096,83.57,88010.566,39.396,106.856
内蒙古,兴安盟,4.025,4.848,2.722,2.345,0.291,52.749,7.113,-4.373,258.97,53.885,95765.613,46.244,121.341
内蒙古,包头市,12.074,22.129,9.978,14.215,0.534,38.702,-3.813,0.034,258.986,60.075,86603.172,41.549,110.276
内蒙古,呼伦贝尔市,2.212,2.596,3.369,2.42,0.253,50.426,6.968,-0.682,255.123,70.672,94268.07,49.636,121.171
内蒙古,呼和浩特市,19.625,38.571,20.106,28.436,0.873,35.728,-3.552,0.323,261.303,56.365,86974.402,40.578,111.513
内蒙古,巴彦淖尔市,15.179,26.934,11.839,13.008,0.469,34.451,-6.251,-0.861,260.654,74.628,87952.739,41.446,107.582
内蒙古,赤峰市,6.945,9.827,4.995,4.375,0.421,52.514,5.096,-5.636,259.413,54.503,92962.932,43.226,118.892
内蒙古,通辽市,8.876,12.068,4.932,5.54,0.367,41.483,5.272,-4.409,261.013,49.115,99260.968,43.814,121.591
内蒙古,鄂尔多斯市,39.461,64.631,22.756,26.933,0.921,29.478,-5.268,2.895,264.169,85.69,87491.357,39.407,108.63
内蒙古,锡林郭勒盟,2.0,2.472,1.933,1.375,0.243,52.133,2.597,-1.795,255.169,71.034,90102.252,44.179,115.482
内蒙古,阿拉善盟,27.627,39.758,14.977,10.592,0.439,33.618,-8.128,0.332,262.698,79.128,87789.404,40.473,102.467
北京,北京市,13.031,21.852,4.66,20.237,0.463,37.8,0.841,-3.846,267.061,36.33,99419.377,40.158,116.395
台湾,台湾省,14.057,17.366,5.555,19.783,0.222,53.701,-1.455,0.299,288.83,79.826,93308.542,23.757,120.975
吉林,吉林市,45.395,59.153,17.259,24.714,0.988,40.412,2.911,1.981,257.294,72.45,98292.448,43.573,126.859
吉林,四平市,58.462,71.456,11.647,24.173,0.827,31.894,3.16,-0.186,259.956,52.105,100819.251,43.472,124.386
吉林,延边朝鲜族自治州,26.81,31.363,10.263,15.121,0.621,50.657,6.717,-1.049,257.576,68.866,94866.322,43.141,129.147
吉林,松原市,25.047,34.633,7.695,13.1,0.649,38.483,4.412,-0.336,259.691,59.017,101122.496,44.785,124.496
吉林,白城市,15.505,19.398,4.987,7.244,0.492,42.404,4.311,-2.195,261.717,49.783,101251.854,45.35,123.031
吉林,白山市,36.925,44.803,23.751,24.968,0.852,40.303,0.815,-0.071,255.804,74.115,93000.687,42.063,127.256
吉林,辽源市,71.046,87.343,13.762,34.859,1.229,32.694,2.668,0.028,259.582,58.718,98761.666,42.836,125.32
吉林,通化市,55.647,69.027,19.065,29.647,1.276,32.22,0.285,-1.585,258.234,67.117,96787.833,41.939,125.927
吉林,长春市,46.498,63.698,12.983,22.308,0.88,38.282,3.904,0.85,258.738,61.724,100642.54,44.268,125.611
四川,乐山市,39.403,48.224,8.891,21.027,0.944,43.023,0.255,-1.136,274.316,84.515,89826.421,29.218,103.569
四川,内江市,19.932,30.437,10.485,20.8,0.856,32.109,-0.122,-2.818,277.453,84.239,97245.103,29.62,104.95
四川,凉山彝族自治州,9.21,14.921,5.624,5.702,0.535,66.362,5.635,3.114,275.768,57.402,73918.512,27.883,102.065
四川,南充市,18.036,23.258,11.187,20.59,1.173,37.057,-4.15,-2.307,274.83,93.581,97333.493,31.19,106.199
四川,宜宾市,35.311,42.605,12.942,25.119,1.18,31.433,0.543,-2.049,277.071,85.282,95511.247,28.573,104.621
四川,巴中市,28.37,35.341,12.839,19.06,1.013,38.23,-6.054,-3.516,270.406,88.351,92892.358,32.033,107.031
四川,广元市,20.982,32.83,16.006,18.895,1.07,40.066,-3.698,-2.426,271.218,87.112,91951.473,32.261,105.788
四川,广安市,15.452,26.769,9.918,21.841,1.037,33.924,-1.413,-0.729,277.286,91.57,97298.662,30.43,106.628
四川,德阳市,17.449,28.307,6.586,17.661,1.035,43.756,-2.778,-2.087,274.45,82.679,93569.385,31.13,104.436
四川,成都市,24.262,39.575,7.62,23.456,0.938,37.278,-1.768,-1.819,275.094,80.077,93714.882,30.64,103.929
四川,攀枝花市,14.239,27.311,18.063,18.704,1.101,48.469,2.833,2.375,282.187,58.662,81420.313,26.791,101.734
四川,泸州市,18.386,23.451,9.657,25.608,0.954,22.213,-0.093,-0.866,277.438,87.599,93797.848,28.424,105.675
四川,甘孜藏族自治州,2.488,2.876,0.498,0.878,0.142,76.98,8.567,0.561,264.416,40.284,60612.292,30.936,100.009
四川,眉山市,32.649,44.378,8.088,22.522,0.878,36.07,-0.363,-1.475,275.643,83.357,94187.021,29.912,103.766
四川,绵阳市,24.255,34.561,11.269,13.121,0.921,50.202,-1.78,-1.86,271.783,81.047,88142.659,31.86,104.704
四川,自贡市,31.297,38.351,11.354,24.092,0.959,31.224,0.12,-2.598,277.722,81.841,97216.254,29.307,104.659
四川,资阳市,12.129,24.591,9.109,16.704,0.924,36.888,-0.884,-2.593,277.124,86.295,97514.874,30.102,105.149
四川,达州市,28.892,37.084,14.058,20.025,0.982,38.332,-4.549,-0.851,273.017,94.323,94538.383,31.335,107.636
四川,遂宁市,12.151,19.432,9.38,17.318,1.072,38.245,-1.838,-2.509,276.87,87.226,97774.081,30.642,105.457
四川,阿坝藏族羌族自治州,6.059,7.907,1.573,2.054,0.244,73.685,7.295,-0.417,266.881,45.264,64885.859,32.406,102.61
四川,雅安市,32.477,39.115,6.943,9.732,0.64,63.338,0.989,-0.639,272.045,67.931,79878.752,29.932,102.689
天津,天津市,20.832,42.223,12.341,41.18,0.959,19.899,-0.031,-3.68,268.215,39.867,103394.362,39.315,117.308
宁夏,中卫市,66.502,82.641,21.036,21.498,1.013,36.275,-2.002,6.844,267.496,72.514,83391.321,37.018,105.509
宁夏,吴忠市,58.006,74.252,21.369,19.677,0.823,35.93,-3.909,7.409,266.258,77.544,85158.313,37.454,106.577
宁夏,固原市,61.175,74.762,15.606,19.035,1.06,46.4,-1.92,6.614,263.948,85.563,80805.906,35.905,106.183
宁夏,石嘴山市,58.688,88.662,26.413,28.812,1.001,34.237,-3.843,1.915,265.396,89.082,87020.184,39.013,106.499
宁夏,银川市,58.861,82.824,24.36,25.755,0.908,32.637,-3.548,1.522,266.793,80.954,87271.144,38.287,106.342
安徽,亳州市,60.806,74.147,15.096,29.987,0.897,30.833,-4.232,-7.106,271.317,82.137,102884.854,33.44,116.162
安徽,六安市,27.641,31.889,9.873,19.338,0.643,43.861,-4.466,-4.063,272.003,97.498,99967.662,31.617,116.209
安徽,合肥市,21.035,21.729,6.575,20.057,0.595,46.306,-5.022,-5.721,273.263,98.234,102462.55,31.766,117.359
安徽,安庆市,12.599,13.861,10.417,20.82,0.594,40.551,-5.557,-8.696,274.143,93.851,100203.491,30.557,116.473
安徽,宣城市,14.012,18.675,7.593,32.117,0.677,34.339,-5.547,-4.247,276.358,95.39,100121.792,30.676,118.846
安徽,宿州市,54.416,65.12,15.03,30.073,0.931,33.473,-3.266,-6.874,271.527,79.067,102840.587,33.844,117.23
安徽,池州市,12.696,17.188,11.613,26.746,0.599,32.047,-5.039,-5.559,275.829,95.685,100306.803,30.296,117.379
安徽,淮北市,58.582,70.758,18.899,32.855,0.922,30.684,-3.998,-6.81,271.495,79.854,102895.633,33.722,116.747
安徽,淮南市,43.718,48.446,13.185,20.326,0.759,42.729,-5.446,-6.868,272.719,94.825,102759.555,32.463,116.746
安徽,滁州市,26.403,28.355,8.042,15.773,0.546,44.569,-4.956,-6.509,273.418,94.866,102423.266,32.55,118.076
安徽,芜湖市,16.397,19.207,8.512,33.369,0.718,37.165,-5.666,-6.272,274.314,98.565,102522.285,31.167,118.162
安徽,蚌埠市,48.303,54.342,14.382,23.333,0.862,37.338,-4.133,-7.367,272.12,85.695,102817.373,33.121,117.263
安徽,铜陵市,16.171,18.129,10.706,31.716,0.629,37.854,-4.926,-6.898,274.723,97.756,102339.638,30.883,117.531
安徽,阜阳市,61.642,79.083,15.092,25.839,0.872,33.661,-4.938,-7.225,271.331,89.432,102805.307,32.937,115.723
安徽,马鞍山市,15.756,18.715,6.528,30.266,0.659,39.297,-5.387,-6.29,273.619,98.302,102587.014,31.622,118.386
安徽,黄山市,7.691,16.003,10.535,19.541,0.493,31.91,-6.143,-2.372,276.977,93.45,97903.912,29.869,118.09
山东,东营市,25.807,48.42,22.076,32.245,0.814,30.563,1.874,-2.198,270.982,61.138,103334.174,37.57,118.572
山东,临沂市,36.659,57.844,16.647,30.049,0.836,32.618,-1.879,-4.879,270.939,62.951,101351.87,35.289,118.27
山东,威海市,11.55,25.695,9.183,11.487,0.45,55.167,1.623,-6.679,271.847,68.563,102446.784,37.148,122.028
山东,德州市,35.285,69.427,22.867,48.765,1.181,14.608,0.828,-4.93,268.637,30.062,103326.999,37.233,116.679
山东,日照市,30.93,53.446,14.33,28.862,0.688,35.528,-0.957,-5.326,270.673,68.138,101460.613,35.566,119.108
山东,枣庄市,50.537,71.364,16.636,32.138,0.888,29.739,-2.406,-4.559,271.296,63.454,102152.174,34.925,117.383
山东,泰安市,34.72,61.128,26.15,43.392,1.117,17.621,-1.052,-4.603,269.653,42.692,101339.615,35.993,117.04
山东,济南市,39.148,73.08,34.68,51.027,1.32,12.651,0.202,-3.654,268.407,35.679,101345.242,36.639,117.254
山东,济宁市,38.358,63.938,18.488,39.03,0.987,19.34,-1.41,-5.212,270.673,49.427,102708.944,35.375,116.697
山东,淄博市,42.168,72.95,41.375,50.684,1.442,13.015,1.387,-2.814,268.472,47.135,100638.831,36.623,118.062
山东,滨州市,36.488,61.289,22.984,47.301,1.121,17.267,2.588,-3.322,269.878,49.115,103319.656,37.516,117.852
山东,潍坊市,35.104,63.26,25.659,38.175,0.964,25.049,2.441,-3.249,270.336,60.006,102125.531,36.53,119.092
山东,烟台市,14.388,32.867,10.024,15.462,0.593,50.99,0.108,-4.554,271.32,77.506,102003.669,37.25,120.789
山东,聊城市,27.622,59.334,16.649,37.844,0.818,21.716,-0.358,-4.927,269.452,25.068,103118.809,36.458,115.863
山东,菏泽市,30.424,58.713,11.998,32.378,0.913,29.419,-2.069,-6.294,269.756,49.648,102919.352,35.134,115.69
山东,青岛市,25.088,50.289,12.522,27.924,0.726,35.54,0.772,-3.877,271.321,69.211,102658.619,36.46,120.172
山西,临汾市,72.532,91.662,35.236,32.852,1.642,32.264,-3.765,0.665,265.348,86.299,90871.979,36.227,111.398
山西,吕梁市,68.31,87.579,32.809,36.849,1.692,29.276,-3.738,0.788,264.604,79.732,88316.64,37.663,111.27
山西,大同市,16.663,25.836,9.511,12.945,0.693,36.138,-0.473,-2.403,260.802,49.184,88008.48,39.911,113.713
山西,太原市,50.895,85.772,35.03,39.132,1.084,24.367,-2.08,-1.35,262.808,68.556,88298.704,37.967,112.321
山西,忻州市,41.18,61.821,22.529,23.663,0.905,32.849,-1.737,0.135,262.492,62.013,86701.032,38.877,112.391
山西,晋中市,46.08,65.569,17.322,28.206,0.979,37.747,-2.271,-0.288,263.361,75.754,89270.429,37.328,112.997
山西,晋城市,54.209,72.786,13.432,22.981,1.046,40.726,-2.103,-0.124,264.144,88.443,91318.765,35.625,112.752
山西,朔州市,33.579,53.305,25.85,26.19,1.016,30.207,-1.919,-0.533,260.476,64.555,87284.162,39.619,112.655
山西,运城市,64.8,82.538,23.645,25.085,1.247,37.625,-5.201,1.547,266.145,85.478,95360.103,35.205,111.071
山西,长治市,37.637,60.217,14.757,24.733,0.93,45.444,-3.303,-0.654,262.817,83.994,89574.25,36.48,112.915
山西,阳泉市,59.833,86.143,26.92,40.871,1.094,27.009,-0.662,-0.002,264.022,56.462,91350.109,38.031,113.512
广东,东莞市,41.694,65.957,11.309,51.243,0.841,46.524,-4.813,-2.593,291.211,74.042,101565.876,22.931,113.81
广东,中山市,30.43,59.377,11.904,50.974,0.668,42.612,-4.936,-3.473,291.201,79.143,101551.226,22.5,113.383
广东,云浮市,73.299,92.035,13.628,45.068,0.979,56.819,-5.042,-1.417,289.571,75.998,99523.394,22.776,111.818
广东,佛山市,69.102,112.813,19.263,75.256,1.107,43.474,-2.953,-3.826,290.669,71.761,101629.432,23.035,112.979
广东,广州市,58.019,82.435,13.186,53.533,0.966,51.979,-3.596,-3.073,290.48,72.641,100717.744,23.339,113.525
广东,惠州市,42.692,59.603,8.389,27.93,0.785,48.994,-4.28,-3.235,289.869,77.969,99729.943,23.244,114.485
广东,揭阳市,47.193,64.991,11.754,35.394,0.927,38.305,-5.202,-3.183,290.001,83.68,100367.34,23.323,116.123
广东,梅州市,43.543,61.156,9.091,30.246,0.909,39.205,-2.284,-0.933,289.381,77.987,98325.729,24.169,116.07
广东,汕头市,29.696,45.086,10.253,28.511,0.742,47.079,-6.641,-4.289,290.798,83.752,101500.791,23.339,116.614
广东,汕尾市,36.622,50.115,8.054,24.426,0.725,46.814,-5.863,-4.112,290.033,83.502,100060.366,23.024,115.527
广东,江门市,44.125,72.675,14.104,47.202,0.753,45.595,-4.73,-4.106,290.934,78.911,100966.486,22.289,112.676
广东,河源市,56.071,77.555,10.978,32.088,0.989,40.187,-1.898,-3.809,287.862,79.443,98530.779,24.021,114.969
广东,深圳市,29.053,50.998,8.901,35.392,0.679,49.628,-5.503,-3.401,290.964,79.456,101060.878,22.667,114.143
广东,清远市,62.624,80.95,14.347,39.262,1.214,39.281,-2.075,-4.429,286.017,79.098,98060.188,24.295,112.871
广东,湛江市,21.33,39.558,8.636,11.533,0.546,75.817,-7.486,-1.06,293.503,78.233,101275.401,21.091,110.163
广东,潮州市,37.496,52.823,9.097,29.589,0.836,40.108,-5.974,-2.701,289.994,80.175,99806.646,23.755,116.754
广东,珠海市,22.855,41.695,11.193,32.567,0.457,53.495,-5.758,-4.392,291.615,83.135,101598.255,22.095,113.317
广东,肇庆市,72.215,91.184,14.141,42.405,1.05,51.448,-4.749,-2.69,289.323,73.175,99654.127,23.505,112.199
广东,茂名市,34.311,53.291,11.421,17.019,0.693,67.482,-6.707,-1.329,291.785,74.059,99510.012,22.013,110.952
广东,阳江市,45.377,66.203,12.902,27.691,0.761,56.243,-4.84,-3.893,290.655,77.949,100091.825,22.042,111.786
广东,韶关市,62.153,77.887,13.223,35.396,1.299,40.346,-1.57,-3.308,284.452,83.644,97311.504,24.785,113.819
广西,北海市,31.54,50.069,11.504,16.916,0.801,60.372,-5.252,-0.206,293.417,73.444,101331.905,21.674,109.37
广西,南宁市,71.672,100.039,15.274,36.11,1.433,28.79,-3.853,-3.084,287.696,80.109,99569.396,23.051,108.469
广西,崇左市,58.492,85.221,13.564,27.929,1.146,35.18,-4.19,-0.485,288.799,88.962,98198.08,22.483,107.291
广西,来宾市,50.146,70.629,15.142,21.381,1.337,30.171,-2.559,-3.811,285.298,80.348,98444.451,23.859,109.417
广西,柳州市,28.699,42.345,16.388,22.506,1.316,16.971,-1.337,-6.445,280.241,85.141,97951.002,24.956,109.372
广西,桂林市,32.503,45.994,12.405,23.996,1.272,16.774,-3.425,-4.053,279.399,87.54,96316.409,25.353,110.513
广西,梧州市,63.608,82.815,14.367,25.035,1.11,48.254,-4.227,-2.374,288.645,75.01,99256.514,23.484,110.996
广西,河池市,37.229,54.845,16.085,22.158,1.418,18.663,-3.06,-3.203,280.892,92.344,95474.771,24.628,107.843
广西,玉林市,54.238,78.789,13.843,22.397,0.95,57.251,-4.496,-1.521,291.12,75.113,99590.666,22.452,110.164
广西,百色市,66.627,85.33,18.006,19.103,1.238,27.202,-3.162,0.797,284.795,95.742,93235.345,23.981,106.292
广西,贵港市,72.221,98.507,15.253,23.928,1.168,47.353,-4.387,-3.627,288.568,74.081,100104.93,23.322,110.021
广西,贺州市,50.872,71.17,15.283,25.151,1.337,27.856,-3.073,-4.625,284.713,79.761,97480.159,24.364,111.394
广西,钦州市,54.345,79.189,13.196,26.647,1.159,46.266,-3.789,-2.06,291.239,77.079,100647.979,22.173,109.01
广西,防城港市,52.588,76.535,14.491,28.536,1.14,38.756,-3.958,-0.913,289.809,87.528,99026.764,21.88,108.002
新疆,乌鲁木齐市,18.804,26.315,4.51,23.998,0.627,48.265,3.3,-1.567,255.4,69.53,84091.178,43.746,87.818
新疆,五家渠市,43.82,59.56,10.583,53.587,1.437,24.297,4.41,1.987,259.4,84.183,97580.323,44.363,87.517
新疆,伊犁哈萨克自治州,18.754,23.286,7.934,7.051,0.489,66.513,1.358,-1.969,258.116,33.107,79861.11,43.438,82.146
新疆,克孜勒苏柯尔克孜自治州,5.384,15.84,0.686,1.271,0.21,72.797,7.508,-4.992,265.286,46.217,69612.335,39.661,75.949
新疆,克拉玛依市,12.229,13.348,3.842,6.926,0.495,39.123,0.02,-2.346,263.442,75.113,98462.257,45.457,85.207
新疆,北屯市,7.078,10.048,6.218,21.202,0.494,52.676,-3.074,-2.58,261.994,55.5,96487.544,47.27,87.868
新疆,博尔塔拉蒙古自治州,12.649,17.102,5.488,6.297,0.439,62.846,1.278,-0.913,256.567,48.979,86380.299,44.714,82.114
新疆,双河市,23.688,33.258,12.152,12.174,0.762,51.228,0.44,-0.842,260.904,61.104,99101.76,44.87,82.474
新疆,可克达拉市,95.968,125.45,40.612,39.884,1.916,37.126,-6.276,1.678,265.756,29.928,95251.996,43.918,80.786
新疆,和田地区,6.054,20.914,0.761,1.165,0.206,59.549,3.507,0.708,265.204,43.479,73382.423,37.059,80.934
新疆,哈密市,9.989,15.897,4.953,2.141,0.284,42.224,-3.274,1.017,262.385,57.444,88252.515,43.042,93.517
新疆,喀什地区,14.002,34.788,1.965,2.852,0.294,57.274,3.565,1.497,265.75,51.694,75527.791,38.125,77.178
新疆,图木舒克市,10.798,19.037,3.375,2.52,0.363,35.478,-3.277,-1.622,267.402,63.47,88960.748,39.892,79.182
新疆,塔城地区,7.376,7.734,2.555,3.039,0.291,47.723,-1.577,-1.524,258.873,68.343,89990.231,45.642,84.789
新疆,巴音郭楞蒙古自治州,3.318,4.28,1.549,0.908,0.19,55.749,3.677,-0.819,263.019,45.905,78669.988,39.463,87.481
新疆,新星市,25.8,68.73,6.4,10.055,0.965,40.695,3.105,-1.285,267.155,46.15,92828.35,42.75,93.68
新疆,昆玉市,57.523,222.743,5.9,11.81,1.1,48.527,-3.15,1.187,272.763,41.647,86442.323,37.457,79.093
新疆,昌吉回族自治州,21.573,26.222,8.248,17.189,0.58,39.582,2.21,0.463,256.994,78.929,90264.243,44.342,88.608
新疆,石河子市,25.97,24.705,7.895,22.23,0.575,46.455,6.345,-1.135,260.025,69.835,95522.435,44.245,86.035
新疆,胡杨河市,19.624,18.23,3.816,5.248,0.552,44.474,4.704,-0.02,260.93,81.326,99042.304,44.852,84.772
新疆,铁门关市,14.513,33.937,3.837,8.86,0.717,60.627,0.39,-0.027,265.907,41.697,91732.943,41.773,85.66
新疆,阿克苏地区,12.345,41.16,2.953,4.58,0.454,51.032,-0.615,-1.391,264.998,52.004,84872.413,40.965,81.578
新疆,阿勒泰地区,6.876,7.979,3.744,4.368,0.26,49.505,-5.354,0.899,258.191,64.406,88871.434,46.902,88.421
新疆,阿拉尔市,18.908,69.292,2.711,8.435,0.643,37.616,-3.663,0.037,267.738,64.165,89930.237,40.629,80.998
江苏,南京市,15.999,20.213,6.163,29.333,0.628,39.694,-4.901,-6.36,274.286,96.665,102664.12,31.899,118.876
江苏,南通市,9.875,12.753,3.229,8.896,0.375,56.993,-5.175,-6.197,278.86,84.057,102760.631,32.201,120.979
江苏,宿迁市,38.464,44.809,11.648,23.164,0.767,38.465,-2.747,-7.098,273.277,82.407,103027.599,33.765,118.495
江苏,常州市,19.43,22.418,5.878,37.82,0.838,35.674,-5.607,-6.217,277.131,92.088,102648.206,31.613,119.666
江苏,徐州市,52.169,67.609,15.154,31.314,0.899,32.589,-2.66,-6.24,271.558,70.448,102887.659,34.363,117.513
江苏,扬州市,16.858,21.006,5.647,16.022,0.53,45.089,-3.721,-6.678,275.071,91.646,102902.791,32.709,119.486
江苏,无锡市,18.464,22.212,6.556,40.302,0.854,33.938,-5.524,-5.986,277.917,90.445,102529.874,31.546,120.066
江苏,泰州市,16.037,19.153,4.978,14.767,0.529,49.12,-3.86,-6.251,276.698,88.352,102819.337,32.605,120.048
江苏,淮安市,25.013,29.49,8.404,16.77,0.596,42.252,-3.505,-6.234,274.452,88.751,102946.312,33.362,118.985
江苏,盐城市,13.572,18.139,5.363,7.716,0.388,54.318,-3.849,-6.425,276.585,80.53,102958.726,33.529,120.156
江苏,苏州市,11.694,16.42,5.45,30.202,0.606,44.886,-5.903,-6.589,279.061,87.896,102649.959,31.374,120.661
江苏,连云港市,24.748,36.316,10.62,18.535,0.55,45.179,-2.715,-7.002,274.182,71.123,102939.13,34.519,119.133
江苏,镇江市,17.879,21.231,5.412,29.01,0.691,39.634,-4.339,-6.441,275.422,94.281,102694.129,32.016,119.49
江西,上饶市,11.046,18.999,10.009,18.366,0.529,24.847,-5.08,-3.343,280.46,91.491,99909.191,28.778,117.47
江西,九江市,14.054,22.585,8.595,18.192,0.76,26.657,-3.791,-5.693,277.113,95.194,100017.454,29.313,115.444
江西,南昌市,10.483,18.429,6.359,20.163,0.617,20.967,-2.164,-5.825,280.755,94.158,101870.315,28.671,116.016
江西,吉安市,33.121,45.301,13.679,26.203,1.058,12.408,0.451,-3.746,280.433,93.721,99493.584,26.954,114.831
江西,宜春市,18.779,27.55,9.118,21.978,0.825,15.696,-1.217,-4.317,279.068,94.658,99900.915,28.29,114.974
江西,抚州市,19.896,28.256,9.219,19.954,0.555,18.14,0.164,-2.76,281.544,95.7,99426.443,27.514,116.42
江西,新余市,22.097,32.657,11.884,27.123,0.999,10.546,-0.816,-4.25,279.824,95.211,100862.757,27.847,114.836
江西,景德镇市,8.408,15.781,9.912,15.631,0.505,26.837,-5.109,-3.324,279.8,90.824,100814.239,29.287,117.24
江西,萍乡市,22.823,30.476,12.554,26.0,1.178,6.951,0.356,-2.204,278.753,96.743,98531.802,27.505,113.908
江西,赣州市,53.152,71.786,13.821,26.38,1.362,25.853,0.635,-3.651,282.615,90.922,97685.333,25.692,115.279
江西,鹰潭市,14.226,23.138,9.173,20.753,0.497,20.927,-3.109,-2.212,281.483,93.247,100408.103,28.222,117.094
河北,保定市,52.995,74.346,16.082,39.331,1.009,25.138,0.106,-1.011,267.3,30.178,99408.231,39.018,115.159
河北,唐山市,30.966,61.595,20.713,42.479,1.198,22.237,-1.114,-3.58,267.753,45.619,102813.835,39.731,118.354
河北,廊坊市,19.248,35.122,6.636,35.422,0.646,26.507,-0.259,-4.477,268.595,35.0,103472.243,39.267,116.632
河北,张家口市,11.339,17.169,4.338,10.234,0.445,45.362,1.063,-3.766,259.12,54.69,88517.999,40.877,115.042
河北,承德市,10.161,17.977,4.907,9.63,0.459,49.963,1.696,-5.364,261.042,51.638,92003.249,41.339,117.578
河北,沧州市,38.068,63.2,17.412,48.08,1.089,15.99,0.833,-5.17,268.512,36.924,103458.018,38.258,116.744
河北,石家庄市,72.834,104.015,27.132,47.811,1.139,22.909,-0.046,-0.295,268.01,39.659,99998.283,38.135,114.407
河北,秦皇岛市,26.067,51.742,14.825,27.806,0.979,36.017,-0.598,-5.134,265.666,46.231,100314.166,40.12,119.193
河北,衡水市,47.552,75.366,17.425,47.317,1.098,20.52,0.036,-4.195,268.409,29.5,103365.042,37.755,115.813
河北,邢台市,46.068,75.0,18.738,39.039,0.942,29.118,0.454,-2.646,268.62,40.26,101764.485,37.195,114.815
河北,邯郸市,40.633,68.428,18.962,34.369,1.032,29.183,0.134,-3.391,268.45,48.905,101242.215,36.538,114.596
河南,三门峡市,48.488,62.219,12.692,19.905,0.901,38.974,-5.914,1.065,264.613,86.075,92728.549,34.362,111.101
河南,信阳市,53.679,68.462,12.248,21.503,0.83,37.731,-5.337,-6.923,271.249,95.487,101661.417,32.091,114.907
河南,南阳市,36.463,58.103,7.779,18.773,0.865,56.815,-4.355,-6.06,267.606,89.236,99660.484,33.034,112.323
河南,周口市,40.882,87.533,9.362,26.245,0.86,33.638,-3.833,-7.463,269.497,79.55,102740.695,33.738,114.884
河南,商丘市,48.07,73.732,10.883,32.764,0.918,27.545,-3.133,-7.133,270.016,70.757,102852.394,34.277,115.718
河南,安阳市,37.959,62.32,15.547,29.883,1.018,33.211,-0.712,-4.891,268.125,54.474,100797.701,35.888,114.318
河南,平顶山市,37.06,59.799,8.406,20.109,0.843,43.862,-2.724,-5.754,267.039,87.754,100482.358,33.8,113.025
河南,开封市,25.556,62.905,9.05,21.595,0.787,45.286,-3.429,-7.215,268.687,66.551,102590.076,34.594,114.514
河南,新乡市,33.214,59.749,11.195,24.626,0.858,42.472,-3.64,-6.617,268.521,58.608,101646.888,35.256,114.111
河南,洛阳市,46.376,63.612,11.184,21.947,0.972,32.872,-3.523,-1.875,264.79,90.106,95424.134,34.274,112.019
河南,济源市,52.07,74.983,11.22,27.909,1.049,30.312,-3.075,-0.242,265.794,88.485,97488.542,35.105,112.445
河南,漯河市,35.809,64.675,9.014,19.975,0.749,46.147,-3.749,-7.293,268.623,82.345,102623.408,33.652,113.945
河南,濮阳市,28.986,57.12,13.378,30.212,0.917,31.471,-1.076,-5.466,269.542,37.122,102977.878,35.809,115.283
河南,焦作市,44.174,64.409,9.406,26.944,0.916,39.577,-5.142,-1.925,268.256,75.184,101441.411,35.121,113.163
河南,许昌市,31.27,59.12,9.536,20.538,0.784,46.195,-3.868,-7.327,267.925,79.988,101942.731,34.075,113.707
河南,郑州市,35.263,61.46,9.912,23.847,0.85,42.686,-4.639,-5.13,266.966,80.628,100573.294,34.634,113.438
河南,驻马店市,50.775,90.593,9.452,22.565,0.815,39.441,-4.179,-7.922,269.221,91.261,102155.401,32.925,114.174
河南,鹤壁市,39.28,64.47,16.128,32.477,1.043,28.482,-1.164,-6.021,268.962,50.087,102070.851,35.716,114.319
浙江,丽水市,13.76,22.317,6.95,18.535,0.542,32.561,-3.837,-1.135,280.161,96.56,95036.831,28.194,119.51
浙江,台州市,9.118,16.202,5.085,16.958,0.4,46.473,-4.325,-6.18,282.29,93.268,99465.884,28.742,121.109
浙江,嘉兴市,12.044,16.895,7.056,35.337,0.621,38.469,-4.602,-6.295,279.691,90.662,102553.188,30.635,120.754
浙江,宁波市,7.874,12.941,4.778,20.297,0.37,49.168,-5.296,-6.163,281.81,92.435,101132.214,29.706,121.49
浙江,杭州市,11.228,17.03,8.376,33.924,0.562,28.312,-4.773,-4.857,277.591,95.522,99450.737,29.891,119.464
浙江,温州市,13.914,25.609,7.658,25.381,0.529,35.49,-2.911,-5.308,282.557,93.773,98184.181,27.897,120.411
浙江,湖州市,13.453,18.066,5.511,33.975,0.621,35.89,-5.63,-5.158,278.081,93.95,101263.161,30.757,119.871
浙江,绍兴市,10.068,14.189,6.034,31.686,0.483,34.416,-4.558,-4.591,280.371,93.531,100273.306,29.709,120.64
浙江,舟山市,5.898,10.595,2.065,2.695,0.262,64.537,-7.155,-8.108,282.765,88.658,102187.012,30.038,122.23
浙江,衢州市,9.149,17.012,10.89,23.565,0.526,25.801,-6.441,-3.455,279.31,92.725,98508.94,28.912,118.675
浙江,金华市,9.101,15.355,7.336,28.255,0.54,29.088,-4.175,-4.125,279.69,94.233,98826.652,29.109,119.967
海南,万宁市,12.703,25.153,1.433,2.404,0.277,77.489,-3.924,-4.658,293.2,96.349,100147.729,18.842,110.294
海南,三亚市,12.179,20.777,1.499,4.519,0.384,64.849,-6.747,-3.351,294.039,85.484,98844.209,18.413,109.407
海南,东方市,12.472,19.685,1.718,2.547,0.258,69.491,-3.263,-0.504,295.369,76.36,99474.594,18.971,108.838
海南,临高县,16.136,29.467,4.249,6.379,0.326,66.76,-6.359,-0.911,293.894,86.937,100762.514,19.821,109.733
海南,乐东黎族自治县,12.005,18.897,1.282,2.65,0.282,67.929,-4.18,-1.781,294.22,81.713,97953.978,18.659,109.072
海南,五指山市,13.284,21.304,1.386,2.558,0.276,69.734,-5.75,-1.786,291.476,92.722,94754.738,18.81,109.518
海南,儋州市,14.498,25.599,2.751,3.956,0.299,70.684,-6.319,-0.414,294.101,85.152,100388.689,19.568,109.399
海南,定安县,13.835,27.102,2.135,4.458,0.32,71.163,-5.038,-2.068,293.288,92.002,100461.532,19.47,110.28
海南,屯昌县,14.1,26.826,2.08,4.018,0.316,72.234,-4.272,-1.532,292.864,93.402,99664.78,19.342,110.076
海南,文昌市,13.063,26.344,1.913,2.676,0.285,75.546,-5.98,-3.419,293.311,94.187,101252.622,19.707,110.773
海南,昌江黎族自治县,13.124,21.319,1.981,2.632,0.267,71.186,-6.014,-1.009,293.949,83.154,98477.909,19.233,109.016
海南,海口市,15.247,29.582,3.327,6.07,0.332,66.502,-6.037,-2.274,293.468,90.978,101059.652,19.842,110.393
海南,澄迈县,15.114,28.596,3.573,6.339,0.334,66.454,-5.771,-1.327,293.731,88.113,100590.557,19.676,109.989
海南,琼中黎族苗族自治县,14.993,25.923,1.755,3.253,0.301,68.658,-4.164,-1.509,291.719,97.109,97447.411,19.087,109.847
海南,琼海市,12.23,25.153,1.502,2.557,0.287,78.057,-4.283,-3.182,293.44,94.062,101008.983,19.22,110.43
海南,白沙黎族自治县,14.004,23.281,1.83,2.595,0.28,71.39,-5.091,-0.296,292.25,92.185,97144.469,19.2,109.388
海南,陵水黎族自治县,12.683,22.827,1.337,2.766,0.306,71.804,-4.693,-4.946,293.439,91.591,99441.623,18.581,109.913
湖北,仙桃市,39.838,44.465,6.144,18.668,0.932,27.087,-2.404,-8.553,273.149,96.694,102489.499,30.284,113.417
湖北,十堰市,34.393,52.844,15.203,17.972,0.857,51.969,-4.676,0.002,265.873,91.093,94327.084,32.462,110.476
湖北,咸宁市,21.439,33.819,6.181,22.03,0.912,19.542,-2.838,-4.005,276.078,97.004,100338.351,29.621,114.178
湖北,天门市,47.519,50.404,7.901,18.386,0.997,34.764,-2.674,-8.513,272.091,95.303,102540.441,30.633,113.053
湖北,孝感市,46.102,53.3,7.667,19.493,0.963,35.595,-4.292,-8.663,272.025,94.678,101889.746,31.116,113.869
湖北,宜昌市,40.696,49.662,11.557,20.894,0.893,36.465,-1.787,-3.914,268.361,90.032,95065.045,30.746,111.129
湖北,恩施土家族苗族自治州,35.733,45.356,14.722,15.073,1.072,29.082,-2.666,0.8,269.876,95.249,90066.676,30.195,109.552
湖北,武汉市,34.088,39.898,5.793,23.457,0.92,24.177,-2.807,-6.765,274.74,95.833,102327.162,30.606,114.349
湖北,潜江市,51.053,50.222,6.43,18.767,1.064,33.049,-1.896,-8.883,272.074,95.837,102536.129,30.33,112.77
湖北,神农架林区,37.602,47.873,14.853,11.252,0.678,46.419,-1.028,2.568,266.224,92.902,83121.398,31.592,110.49
湖北,荆州市,42.876,46.5,6.986,21.407,1.057,28.019,-0.876,-9.343,272.347,95.23,102264.052,30.01,112.512
湖北,荆门市,50.029,65.102,10.24,22.025,0.988,38.333,-0.851,-8.842,270.481,92.985,101558.885,31.059,112.616
湖北,襄阳市,42.523,70.632,11.05,20.163,0.926,48.075,-1.215,-5.518,267.389,91.982,98793.479,31.919,111.96
湖北,鄂州市,20.957,28.483,5.573,23.144,0.869,26.443,-2.014,-4.329,276.704,95.556,102310.466,30.337,114.794
湖北,随州市,49.032,68.874,11.378,21.173,0.889,41.071,-4.832,-7.527,270.078,91.268,100816.927,31.809,113.43
湖北,黄冈市,21.211,25.925,8.438,17.235,0.728,36.653,-5.409,-5.062,274.851,90.179,100463.089,30.702,115.358
湖北,黄石市,16.339,26.416,6.066,21.167,0.85,28.431,-4.114,-3.147,276.366,96.231,101221.965,29.925,115.034
湖南,娄底市,14.615,21.447,7.826,23.277,1.059,15.079,0.232,-6.29,271.862,92.667,98079.93,27.715,111.632
湖南,岳阳市,25.912,35.538,7.447,18.936,0.922,21.339,-1.131,-6.385,276.256,96.068,101084.959,29.081,113.275
湖南,常德市,28.715,36.769,8.262,23.013,1.032,21.665,-1.017,-8.52,271.005,94.088,100464.445,29.271,111.524
湖南,张家界市,26.386,35.445,8.329,18.535,0.774,26.423,-4.15,-3.905,270.339,94.501,96217.33,29.379,110.526
湖南,怀化市,16.541,28.844,8.102,19.271,0.898,17.533,-2.541,-4.529,272.159,94.505,97131.532,27.535,110.071
湖南,株洲市,20.595,27.521,9.92,26.524,1.042,7.576,2.011,-2.722,277.85,96.827,98701.523,27.109,113.513
湖南,永州市,30.109,41.951,9.892,25.183,1.159,9.879,-2.099,-3.955,277.28,91.284,97214.517,25.748,111.723
湖南,湘潭市,14.085,19.155,6.11,25.35,0.967,12.15,3.266,-6.715,274.709,94.479,101193.01,27.744,112.619
湖南,湘西土家族苗族自治州,22.479,36.911,5.535,17.004,0.721,22.231,-3.92,-1.871,270.813,95.485,96121.129,28.708,109.718
湖南,益阳市,21.47,31.416,6.492,21.408,1.065,21.312,0.845,-7.252,271.797,96.611,99828.896,28.525,111.919
湖南,衡阳市,14.801,20.409,8.019,25.67,1.008,7.813,1.591,-4.873,275.918,92.777,100640.469,26.781,112.565
湖南,邵阳市,19.862,28.593,10.241,22.601,1.047,12.305,-1.949,-3.261,273.584,95.772,95671.859,26.893,110.881
湖南,郴州市,34.512,47.515,9.064,29.563,1.23,14.339,0.335,-3.141,277.884,94.32,96328.925,25.769,113.109
湖南,长沙市,18.311,24.193,7.38,23.517,0.958,13.138,1.992,-5.093,276.917,95.773,100517.772,28.235,113.159
甘肃,临夏回族自治州,64.089,99.986,10.392,20.056,1.638,45.606,0.763,1.194,269.011,54.859,77003.428,35.617,103.291
甘肃,兰州市,69.36,97.042,14.6,34.649,1.46,39.088,1.778,1.653,267.768,60.729,78662.114,36.359,103.633
甘肃,嘉峪关市,49.762,165.865,11.277,21.017,0.745,40.677,-3.177,0.945,261.478,70.128,81274.035,39.798,98.145
甘肃,天水市,57.444,70.532,17.298,19.017,0.978,40.501,-3.087,4.335,265.646,79.967,82639.755,34.645,105.739
甘肃,定西市,60.189,77.768,15.492,16.655,1.142,43.952,-0.751,3.478,266.603,70.633,76841.661,35.124,104.432
甘肃,平凉市,60.425,74.412,14.375,20.134,1.03,43.72,-2.02,4.566,264.763,86.935,84670.62,35.304,106.644
甘肃,庆阳市,56.283,69.034,17.14,17.805,0.991,46.069,-3.582,4.979,264.628,87.384,86074.93,36.149,107.596
甘肃,张掖市,19.313,49.23,6.874,5.832,0.293,55.509,3.798,0.534,263.49,43.651,73998.345,38.94,99.855
甘肃,武威市,43.456,89.962,15.209,13.576,0.666,41.271,-1.465,-0.457,264.795,73.061,81131.86,38.163,103.073
甘肃,甘南藏族自治州,12.086,16.741,3.056,3.831,0.357,69.441,6.617,-0.45,266.694,44.352,67016.845,34.331,102.768
甘肃,白银市,66.218,85.743,19.397,23.049,1.121,38.681,-0.566,6.488,267.29,72.415,81165.771,36.59,104.646
甘肃,酒泉市,13.151,26.25,6.428,3.608,0.238,45.492,-1.547,2.247,261.212,52.516,78621.416,40.236,96.062
甘肃,金昌市,44.15,126.791,13.543,13.331,0.676,40.792,-1.126,0.697,264.113,74.58,80239.479,38.44,102.048
甘肃,陇南市,35.939,50.474,18.302,15.273,0.905,41.449,-1.747,1.686,265.894,84.953,82192.743,33.599,105.224
福建,三明市,26.5,36.107,8.976,21.64,0.649,41.301,-1.631,0.096,285.873,88.392,95536.596,26.29,117.395
福建,南平市,18.396,26.527,7.845,14.111,0.475,40.508,-2.113,0.059,284.998,87.886,96331.631,27.324,118.143
福建,厦门市,28.145,44.635,12.188,40.4,0.627,35.78,-4.592,-5.677,290.035,78.17,100749.555,24.642,118.11
福建,宁德市,17.798,27.783,7.065,16.881,0.498,42.114,-2.477,-3.49,283.631,93.017,95707.178,26.968,119.474
福建,泉州市,22.746,33.875,8.159,24.83,0.528,45.926,-3.737,-3.256,287.391,85.806,96956.34,25.201,118.249
福建,漳州市,30.612,45.508,9.686,32.766,0.642,39.971,-3.786,-2.478,288.925,82.886,98559.69,24.372,117.444
福建,福州市,16.443,28.535,7.06,20.46,0.537,45.135,-2.795,-5.242,285.972,91.483,97786.663,26.083,119.206
福建,莆田市,16.694,27.436,7.546,19.225,0.483,49.663,-3.385,-6.482,287.599,86.109,98510.422,25.445,118.864
福建,龙岩市,32.964,47.99,9.512,25.858,0.731,42.636,-0.709,-0.562,287.264,81.931,95498.112,25.256,116.739
西藏,山南市,7.594,9.18,1.131,1.829,0.166,74.457,3.873,0.846,269.848,43.539,65868.813,28.295,92.274
西藏,拉萨市,2.252,4.786,0.104,3.079,0.199,74.343,6.925,1.838,262.915,39.238,56030.332,30.043,91.093
西藏,日喀则市,2.349,2.979,0.266,0.646,0.13,76.372,9.138,0.302,261.77,37.004,54807.569,29.483,86.493
西藏,昌都市,2.033,2.347,0.293,0.46,0.131,76.497,7.25,2.39,262.708,39.705,58571.045,30.753,97.044
西藏,林芝市,5.23,6.403,0.865,1.553,0.128,72.209,1.479,0.803,267.984,52.279,66125.282,29.184,95.25
西藏,玉树藏族自治州,0.453,0.533,0.059,0.251,0.124,77.484,10.75,1.151,259.157,39.32,56512.992,34.196,94.317
西藏,那曲市,0.45,0.523,0.053,0.219,0.122,74.278,9.482,0.231,258.83,46.016,54727.437,32.709,89.262
西藏,阿里地区,0.931,1.077,0.097,0.719,0.118,72.366,10.242,-0.208,257.232,48.726,54128.254,33.013,82.553
贵州,六盘水市,19.083,31.021,15.418,20.435,0.875,34.108,1.695,2.876,281.345,84.59,83180.932,26.106,104.896
贵州,安顺市,18.391,29.295,15.802,15.516,0.99,21.36,-3.01,0.649,279.7,96.475,88390.07,25.986,105.978
贵州,毕节市,19.536,27.836,11.964,19.957,0.989,30.854,1.049,2.779,278.28,84.627,83530.597,27.063,105.211
贵州,贵阳市,16.968,23.573,12.342,22.336,1.232,17.281,-2.168,-0.053,275.588,96.113,88496.96,26.845,106.71
贵州,遵义市,21.798,29.926,16.427,18.581,1.076,25.283,-3.919,1.389,273.348,93.57,90821.708,28.167,107.102
贵州,铜仁市,13.024,27.223,14.915,16.164,1.078,21.379,-3.702,-1.107,271.525,95.04,93404.682,27.937,108.534
贵州,黔东南苗族侗族自治州,14.434,27.169,19.828,21.112,1.172,16.109,-1.979,-4.045,272.922,95.205,93213.391,26.495,108.574
贵州,黔南布依族苗族自治州,19.057,30.013,18.037,18.348,1.196,22.981,-2.489,-2.014,276.254,95.978,90735.407,26.0,107.265
贵州,黔西南布依族苗族自治州,27.822,41.212,14.743,10.878,0.98,29.249,-1.688,0.46,282.418,94.234,88757.328,25.256,105.467
辽宁,丹东市,30.04,42.373,13.096,26.35,0.758,37.115,0.191,-5.835,262.3,56.806,99915.505,40.554,124.376
辽宁,大连市,24.301,39.539,14.608,23.224,0.645,41.332,-0.05,-5.816,265.5,55.459,102421.349,39.591,122.22
辽宁,抚顺市,46.737,62.622,12.767,30.951,0.889,31.971,1.046,-1.846,259.652,59.03,98122.413,41.841,124.65
辽宁,朝阳市,28.585,44.213,21.266,17.967,1.148,42.263,1.878,-6.354,262.734,45.75,97806.786,41.545,120.053
辽宁,本溪市,44.214,61.661,17.229,32.522,1.018,30.011,0.92,-4.351,259.641,62.584,97379.981,41.232,124.544
辽宁,沈阳市,44.318,61.5,15.277,28.468,0.707,24.922,1.571,-2.679,262.049,46.184,102725.83,42.081,123.159
辽宁,盘锦市,36.55,54.889,23.173,32.191,0.839,32.209,0.532,-4.199,263.659,43.477,103469.988,41.13,122.01
辽宁,营口市,39.132,59.98,20.335,34.778,0.905,30.852,0.333,-5.453,262.187,52.205,100969.248,40.395,122.478
辽宁,葫芦岛市,31.932,54.333,24.1,23.076,1.138,36.065,0.772,-5.36,264.378,41.068,100779.159,40.66,120.215
辽宁,辽阳市,54.888,82.684,31.021,45.811,1.264,20.218,1.092,-3.326,261.443,52.722,101213.097,41.153,123.261
辽宁,铁岭市,63.75,81.584,13.946,32.55,0.86,28.463,1.943,-0.842,260.49,50.302,100976.655,42.653,124.158
辽宁,锦州市,33.406,47.977,19.607,23.935,0.784,35.109,1.207,-4.954,263.727,43.834,102585.271,41.502,121.659
辽宁,阜新市,20.176,28.356,8.065,11.943,0.537,35.483,2.908,-4.944,262.324,47.445,100951.634,42.289,121.968
辽宁,鞍山市,39.476,60.11,24.838,40.822,1.04,27.512,1.385,-4.965,262.316,51.301,101249.915,40.731,123.007
重庆,重庆城区,24.751,33.772,14.529,21.92,0.937,27.471,-2.668,0.181,276.285,86.068,95559.484,29.824,107.125
重庆,重庆郊县,31.057,44.076,18.092,14.587,0.859,31.568,-4.117,0.824,271.773,89.76,91643.546,30.334,108.755
陕西,咸阳市,58.878,73.589,15.508,23.99,1.101,44.432,-6.495,-1.539,266.138,88.406,92211.7,34.779,108.367
陕西,商洛市,36.477,49.515,11.615,13.306,0.743,46.07,-2.955,1.313,264.791,90.995,90030.036,33.64,109.889
陕西,安康市,31.868,41.953,15.416,14.064,0.713,46.215,-5.884,0.001,265.762,88.932,90519.761,32.735,108.932
陕西,宝鸡市,56.745,65.75,11.171,19.848,0.923,42.475,-3.01,1.981,265.026,89.99,86693.764,34.386,107.193
陕西,延安市,64.764,76.864,29.283,30.562,1.535,37.506,-3.171,4.293,264.869,87.567,88077.719,36.432,109.316
陕西,榆林市,60.97,79.425,33.064,32.42,1.527,29.82,-3.171,3.713,265.763,87.844,88473.151,38.041,109.581
陕西,汉中市,31.351,38.965,13.94,14.418,0.779,46.179,-5.481,0.075,266.756,87.503,89432.57,33.088,107.098
陕西,渭南市,57.495,74.399,18.34,23.156,1.118,43.121,-6.485,-0.716,267.164,84.425,94814.659,34.919,109.855
陕西,西安市,56.111,63.678,11.232,21.716,0.985,39.978,-3.389,0.114,266.75,86.349,91207.385,34.12,108.77
陕西,铜川市,55.987,74.997,20.013,20.249,1.152,51.207,-6.622,-0.186,264.012,90.184,89803.162,35.198,109.058
青海,保亭黎族苗族自治县,13.196,21.808,1.458,4.048,0.348,66.44,-5.256,-3.412,292.386,93.286,97275.918,18.566,109.618
青海,吐鲁番市,10.344,14.863,3.093,4.841,0.412,51.698,0.664,-1.943,262.835,49.732,90335.449,42.386,89.851
青海,果洛藏族自治州,0.648,0.992,0.094,0.636,0.139,80.038,9.689,0.666,260.672,41.249,59256.697,34.127,99.404
青海,海东市,37.747,50.12,8.731,15.099,0.943,56.218,4.636,-0.732,266.871,42.75,72149.005,36.347,102.34
青海,海北藏族自治州,3.794,4.482,1.306,1.465,0.153,72.782,6.538,0.63,259.642,36.882,64456.822,37.775,100.288
青海,海南藏族自治州,3.482,3.793,0.721,0.949,0.147,72.292,6.289,0.849,263.542,37.441,65774.443,35.89,100.272
青海,海西蒙古族藏族自治州,0.67,0.891,0.437,0.464,0.121,68.783,5.646,1.448,261.031,32.094,63676.217,36.677,94.519
青海,西宁市,29.742,40.425,7.198,13.172,0.803,60.274,5.711,-0.272,264.047,41.072,68848.398,36.842,101.423
青海,黄南藏族自治州,5.453,6.132,1.045,1.337,0.177,72.888,7.666,0.016,264.696,38.278,65144.153,35.022,101.631
香港,香港特别行政区,22.25,38.025,6.325,24.45,0.485,60.415,-6.855,-4.11,291.36,84.51,101231.82,22.45,114.22
黑龙江,七台河市,30.067,40.028,7.246,18.695,0.482,46.68,9.302,-0.681,256.947,74.819,99092.177,45.87,130.943
黑龙江,伊春市,14.24,19.367,4.169,8.191,0.41,46.756,6.015,-0.168,256.016,78.901,97464.623,47.772,129.184
黑龙江,佳木斯市,15.736,20.039,5.055,10.06,0.386,47.424,7.241,2.28,257.498,76.437,101001.834,47.207,132.11
黑龙江,双鸭山市,20.72,24.82,6.167,11.741,0.406,44.086,7.427,1.757,257.178,76.951,100554.715,46.722,132.643
黑龙江,哈尔滨市,51.389,67.104,16.937,27.563,0.905,40.004,4.557,2.984,255.629,78.902,99779.499,45.634,127.964
黑龙江,大兴安岭地区,0.481,0.633,0.998,1.253,0.225,47.84,6.861,-1.321,258.004,70.098,95404.26,52.286,124.212
黑龙江,大庆市,28.548,32.698,9.051,17.584,0.696,44.06,4.648,-1.283,259.072,66.033,101264.972,46.327,124.687
黑龙江,牡丹江市,25.917,35.08,7.452,15.182,0.544,42.837,6.832,0.004,257.478,70.075,96199.067,44.592,129.883
黑龙江,绥化市,27.471,43.968,8.478,19.302,0.754,42.869,3.908,0.304,255.061,79.263,100268.822,46.89,126.634
黑龙江,鸡西市,25.034,30.962,5.944,13.389,0.421,42.595,7.279,-0.617,257.894,73.751,100393.408,45.626,132.289
黑龙江,鹤岗市,8.614,9.939,4.866,7.635,0.347,51.141,6.794,-0.96,259.173,70.762,99944.87,47.661,130.778
黑龙江,黑河市,6.78,8.099,2.903,3.822,0.334,47.039,5.341,-0.742,257.189,75.98,97878.858,49.268,127.004
黑龙江,齐齐哈尔市,21.574,23.898,7.187,9.998,0.584,46.338,4.969,-2.28,258.765,65.155,100257.763,47.715,124.57
